     3.03           OBSERVATION DATA    M: Mixed            RINEX VERSION / TYPE
RTKCONV demo5 b34d                      20240326 055808 UTC PGM / RUN BY / DATE 
format: RINEX                                               COMMENT             
log: E:\Ongoing\5G+±±¶·ÂÛÎÄ\BDS+5GFusion\data\case17\case17_COMMENT             
0000                                                        MARKER NAME         
                                                            MARKER NUMBER       
                                                            MARKER TYPE         
                                                            OBSERVER / AGENCY   
3654395             SEPT MOSAIC-X5C     4.12.1              REC # / TYPE / VERS 
Unknown                                                     ANT # / TYPE        
 -2170089.9314  4385056.1269  4078118.7838                  APPROX POSITION XYZ 
        0.0000        0.0000        0.0000                  ANTENNA: DELTA H/E/N
G    7 C1C L1C S1C C2W L2W S2W C2L                          SYS / # / OBS TYPES 
R    6 C1C L1C S1C C2C L2C S2C                              SYS / # / OBS TYPES 
E    3 C1C L1C S1C                                          SYS / # / OBS TYPES 
C    6 C2I L2I S2I C7I L7I S7I                              SYS / # / OBS TYPES 
  2023    08    04    09    50   00.0000000     GPS         TIME OF FIRST OBS   
  2023    08    04    09    51   25.5000000     GPS         TIME OF LAST OBS    
G L1C                                                       SYS / PHASE SHIFT   
G L2W  0.00000                                              SYS / PHASE SHIFT   
R L1C                                                       SYS / PHASE SHIFT   
R L2C                                                       SYS / PHASE SHIFT   
E L1C  0.50000                                              SYS / PHASE SHIFT   
C L2I                                                       SYS / PHASE SHIFT   
C L7I                                                       SYS / PHASE SHIFT   
  5 R05  1 R09 -2 R15  0 R16 -1 R21  4                      GLONASS SLOT / FRQ #
 C1C    0.000 C1P    0.000 C2C    0.000 C2P    0.000        GLONASS COD/PHS/BIS 
                                                            END OF HEADER       
> 2023 08 04 09 50 00.0000000  0 22                     
G12  23193714.285 1 121883794.35711        34.000    23193717.734 1  94974395.64611        24.000    23193714.607 1
G23  20199157.444 1 106147307.03711        50.000    20199158.945 1  82712175.79711        37.000    20199158.266 1
G24  20943247.863 1 110057543.14011        42.000    20943250.507 1  85759107.32211        32.000    20943250.757 1
R05  21158518.073 1 113104385.24411        37.000                                                  
R15  20868803.887 1 111516572.62411        38.000                                                  
R16  20136732.388 1 107566956.46911        53.000    20136740.018 1  83663100.00811        40.000  
E12  25463807.864 1 133813193.01711        40.000  
E19  24297779.316 1 127685696.88411        39.000  
E21  25750801.599 1 135321407.13211        33.000  
C01  37821078.340 1 196944287.59711        42.000                                                  
C02  38323414.869 1 199560081.69211        38.000    38323412.671 1 154312510.09611        31.000  
C03  37204257.179 1 193732337.80011        43.000    37204258.179 1 149806127.15611        33.000  
C04  38786290.216 1 201970384.94011        37.000                                                  
C05  39958103.306 1 208072341.08511        31.000                                                  
C06  36158768.556 1 188288286.83811        45.000    36158766.251 1              31        34.000  
C08  35996600.061 1 187443741.07111        45.000    35996596.898 1 144943383.49711        31.000  
C09  37359776.396 1 194542181.16811        42.000    37359778.612 1 150432349.15711        32.000  
C13  35815906.946 1 186502819.26911        49.000    35815912.468 1 144215833.35111        32.000  
C14  21711406.389 1 113056995.05011        43.000    21711406.425 1  87422849.78511        35.000  
C16  36391263.093 1 189498861.46911        45.000    36391268.347 1 146532554.66911        30.000  
C24  22195843.732 1 115579588.31911        50.000                                                  
C26  23315667.454 1 121410837.12911        39.000                                                  
> 2023 08 04 09 50 00.1000000  0 22                     
G12  23193664.538 1 121883533.400 1        34.000    23193668.076 1  94974192.273 1        23.000    23193664.985 1
G23  20199169.774 1 106147371.709 1        50.000    20199171.257 1  82712226.193 1        37.000    20199170.596 1
G24  20943289.819 1 110057763.702 1        41.000    20943292.464 1  85759279.207 1        32.000    20943292.732 1
R05  21158553.847 1 113104576.042 1        37.000                                                  
R15  20868838.338 1 111516756.558 1        38.000                                                  
R16  20136688.287 1 107566720.849 1        53.000    20136695.881 1  83662916.744 1        40.000  
E12  25463851.072 1 133813420.000 1        40.000  
E19  24297791.306 1 127685759.819 1        39.000  
E21  25750767.862 1 135321229.689 1        33.000  
C01  37821079.483 1 196944293.715 1        42.000                                                  
C02  38323415.280 1 199560083.960 1        38.000    38323413.189 1 154312511.861 1        31.000  
C03  37204258.126 1 193732342.859 1        43.000    37204259.109 1 149806131.052 1        32.000  
C04  38786290.984 1 201970388.761 1        37.000                                                  
C05  39958103.217 1 208072340.968 1        31.000                                                  
C06  36158762.588 1 188288255.809 1        45.000    36158760.158 1              31        34.000  
C08  35996614.946 1 187443818.734 1        45.000    35996611.890 1 144943443.547 1        31.000  
C09  37359767.926 1 194542136.999 1        42.000    37359770.231 1 150432315.000 1        32.000  
C13  35815916.077 1 186502866.828 1        49.000    35815921.563 1 144215870.120 1        32.000  
C14  21711410.178 1 113057014.675 1        43.000    21711410.303 1  87422864.969 1        35.000  
C16  36391259.609 1 189498843.258 1        45.000    36391264.648 1 146532540.562 1        30.000  
C24  22195815.910 1 115579443.436 1        50.000                                                  
C26  23315696.599 1 121410988.190 1        39.000                                                  
> 2023 08 04 09 50 00.2000000  0 22                     
G12  23193614.826 1 121883272.439 1        34.000    23193618.418 1  94973988.936 1        24.000    23193615.791 1
G23  20199182.068 1 106147436.390 1        50.000    20199183.551 1  82712276.608 1        37.000    20199182.890 1
G24  20943331.758 1 110057984.281 1        42.000    20943334.438 1  85759451.091 1        32.000    20943334.777 1
R05  21158589.620 1 113104766.844 1        37.000                                                  
R15  20868872.665 1 111516940.480 1        38.000                                                  
R16  20136644.151 1 107566485.238 1        53.000    20136651.745 1  83662733.488 1        40.000  
E12  25463894.261 1 133813646.982 1        40.000  
E19  24297803.278 1 127685822.752 1        39.000  
E21  25750734.108 1 135321052.284 1        33.000  
C01  37821080.645 1 196944299.841 1        42.000                                                  
C02  38323415.691 1 199560086.243 1        38.000    38323413.636 1 154312513.619 1        31.000  
C03  37204259.126 1 193732347.916 1        43.000    37204260.145 1 149806134.992 1        33.000  
C04  38786291.699 1 201970392.587 1        37.000                                                  
C05  39958103.092 1 208072340.811 1        31.000                                                  
C06  36158756.638 1 188288224.766 1        45.000    36158754.118 1              31        34.000  
C08  35996629.831 1 187443896.404 1        45.000    35996626.632 1 144943503.576 1        31.000  
C09  37359759.474 1 194542092.824 1        42.000    37359761.708 1 150432280.868 1        32.000  
C13  35815925.226 1 186502914.388 1        49.000    35815930.605 1 144215906.881 1        32.000  
C14  21711413.948 1 113057034.296 1        43.000    21711414.055 1  87422880.146 1        35.000  
C16  36391256.106 1 189498825.052 1        45.000    36391261.092 1 146532526.477 1        30.000  
C24  22195788.088 1 115579298.560 1        50.000                                                  
C26  23315725.636 1 121411139.234 1        39.000                                                  
> 2023 08 04 09 50 00.3000000  0 22                     
G12  23193565.079 1 121883011.514 1        34.000    23193568.760 1  94973785.636 1        24.000    23193566.258 1
G23  20199194.380 1 106147501.101 1        50.000    20199195.863 1  82712327.029 1        37.000    20199195.309 1
G24  20943373.803 1 110058204.882 1        42.000    20943376.430 1  85759623.010 1        32.000    20943376.770 1
R05  21158625.341 1 113104957.684 1        37.000                                                  
R15  20868907.134 1 111517124.441 1        38.000                                                  
R16  20136600.050 1 107566249.657 1        53.000    20136607.662 1  83662550.254 1        40.000  
E12  25463937.433 1 133813873.988 1        40.000  
E19  24297815.286 1 127685885.710 1        39.000  
E21  25750700.353 1 135320874.879 1        33.000  
C01  37821081.842 1 196944305.997 1        42.000                                                  
C02  38323416.084 1 199560088.549 1        39.000    38323414.100 1 154312515.375 1        31.000  
C03  37204260.091 1 193732352.987 1        43.000    37204261.163 1 149806138.884 1        33.000  
C04  38786292.539 1 201970396.446 1        37.000                                                  
C05  39958103.020 1 208072340.768 1        31.000                                                  
C06  36158750.669 1 188288193.755 1        45.000    36158748.239 1              31        34.000  
C08  35996644.769 1 187443974.102 1        45.000    35996641.571 1 144943563.685 1        31.000  
C09  37359750.986 1 194542048.690 1        42.000    37359753.184 1 150432246.725 1        32.000  
C13  35815934.339 1 186502961.970 1        50.000    35815939.790 1 144215943.706 1        32.000  
C14  21711417.718 1 113057053.941 1        43.000    21711417.718 1  87422895.337 1        35.000  
C16  36391252.586 1 189498806.870 1        45.000    36391257.804 1 146532512.454 1        30.000  
C24  22195760.266 1 115579153.712 1        50.000                                                  
C26  23315754.655 1 121411290.322 1        39.000                                                  
> 2023 08 04 09 50 00.4000000  0 22                     
G12  23193515.421 1 121882750.627 1        34.000    23193519.102 1  94973582.386 1        24.000    23193516.922 1
G23  20199206.691 1 106147565.844 1        50.000    20199208.192 1  82712377.485 1        37.000    20199207.638 1
G24  20943415.778 1 110058425.520 1        42.000    20943418.404 1  85759794.911 1        32.000    20943418.798 1
R05  21158661.132 1 113105148.548 1        37.000                                                  
R15  20868941.603 1 111517308.456 1        38.000                                                  
R16  20136555.949 1 107566014.117 1        52.000    20136563.526 1  83662367.068 1        40.000  
E12  25463980.622 1 133814101.033 1        40.000  
E19  24297827.259 1 127685948.701 1        39.000  
E21  25750666.581 1 135320697.530 1        32.000  
C01  37821082.986 1 196944312.182 1        42.000                                                  
C02  38323416.477 1 199560090.898 1        39.000    38323414.601 1 154312517.207 1        31.000  
C03  37204261.092 1 193732358.093 1        43.000    37204262.236 1 149806142.828 1        33.000  
C04  38786293.361 1 201970400.319 1        37.000                                                  
C05  39958103.181 1 208072340.759 1        31.000                                                  
C06  36158744.683 1 188288162.769 1        45.000    36158742.271 1              31        34.000  
C08  35996659.708 1 187444051.827 1        45.000    35996656.599 1 144943623.762 1        31.000  
C09  37359742.463 1 194542004.585 1        42.000    37359744.714 1 150432212.634 1        32.000  
C13  35815943.471 1 186503009.591 1        49.000    35815948.903 1 144215980.516 1        32.000  
C14  21711421.507 1 113057073.630 1        43.000    21711421.560 1  87422910.550 1        35.000  
C16  36391249.084 1 189498788.725 1        45.000    36391254.248 1 146532498.425 1        30.000  
C24  22195732.444 1 115579008.902 1        50.000                                                  
C26  23315783.692 1 121411441.422 1        39.000                                                  
> 2023 08 04 09 50 00.5000000  0 22                     
G12  23193465.549 1 121882489.701 1        34.000    23193469.444 1  94973378.965 1        24.000    23193467.425 1
G23  20199219.003 1 106147630.560 1        50.000    20199220.504 1  82712427.907 1        37.000    20199219.968 1
G24  20943457.734 1 110058646.132 1        41.000    20943460.397 1  85759966.810 1        32.000    20943460.754 1
R05  21158696.888 1 113105339.365 1        37.000                                                  
R15  20868976.055 1 111517492.441 1        38.000                                                  
R16  20136511.848 1 107565778.545 1        52.000    20136519.478 1  83662183.841 1        40.000  
E12  25464023.794 1 133814328.044 1        40.000  
E19  24297839.195 1 127686011.642 1        39.000  
E21  25750632.862 1 135320520.131 1        32.000  
C01  37821084.201 1 196944318.332 1        41.000                                                  
C02  38323416.888 1 199560093.195 1        38.000    38323414.904 1 154312518.995 1        31.000  
C03  37204262.075 1 193732363.156 1        42.000    37204263.272 1 149806146.776 1        33.000  
C04  38786294.200 1 201970404.148 1        37.000                                                  
C05  39958103.163 1 208072340.669 1        31.000                                                  
C06  36158738.697 1 188288131.755 1        45.000    36158736.249 1              31        34.000  
C08  35996674.611 1 187444129.520 1        45.000    35996671.662 1 144943683.877 1        31.000  
C09  37359734.011 1 194541960.448 1        42.000    37359736.334 1 150432178.479 1        32.000  
C13  35815952.619 1 186503057.180 1        49.000    35815958.141 1 144216017.294 1        32.000  
C14  21711425.313 1 113057093.283 1        43.000    21711425.277 1  87422925.757 1        35.000  
C16  36391245.564 1 189498770.537 1        45.000    36391250.764 1 146532484.314 1        30.000  
C24  22195704.658 1 115578864.057 1        50.000                                                  
C26  23315812.747 1 121411592.507 1        39.000                                                  
> 2023 08 04 09 50 00.6000000  0 22                     
G12  23193415.891 1 121882228.773 1        34.000    23193419.804 1  94973175.750 1        24.000    23193418.196 1
G23  20199231.333 1 106147695.273 1        50.000    20199232.816 1  82712478.337 1        37.000    20199232.298 1
G24  20943499.744 1 110058866.720 1        41.000    20943502.371 1  85760138.704 1        32.000    20943502.746 1
R05  21158732.537 1 113105530.193 1        37.000                                                  
R15  20869010.560 1 111517676.411 1        38.000                                                  
R16  20136467.730 1 107565542.970 1        52.000    20136475.378 1  83662000.597 1        40.000  
E12  25464067.019 1 133814555.053 1        40.000  
E19  24297851.203 1 127686074.595 1        39.000  
E21  25750599.125 1 135320342.749 1        32.000  
C01  37821085.380 1 196944324.470 1        42.000                                                  
C02  38323417.352 1 199560095.481 1        38.000    38323415.190 1 154312520.758 1        31.000  
C03  37204263.058 1 193732368.209 1        42.000    37204264.165 1 149806150.684 1        33.000  
C04  38786294.897 1 201970407.975 1        37.000                                                  
C05  39958103.217 1 208072340.582 1        31.000                                                  
C06  36158732.765 1 188288100.735 1        45.000    36158730.245 1              31        34.000  
C08  35996689.513 1 187444207.189 1        45.000    35996686.547 1 144943743.900 1        31.000  
C09  37359725.541 1 194541916.285 1        42.000    37359727.774 1 150432144.348 1        31.000  
C13  35815961.768 1 186503104.748 1        49.000    35815967.308 1 144216054.088 1        32.000  
C14  21711429.101 1 113057112.911 1        42.000    21711429.012 1  87422940.932 1        35.000  
C16  36391242.079 1 189498752.340 1        45.000    36391246.957 1 146532470.241 1        30.000  
C24  22195676.836 1 115578719.204 1        50.000                                                  
C26  23315841.892 1 121411743.600 1        39.000                                                  
> 2023 08 04 09 50 00.7000000  0 22                     
G12  23193366.340 1 121881967.842 1        34.000    23193370.146 1  94972972.344 1        24.000    23193368.502 1
G23  20199243.662 1 106147759.984 1        50.000    20199245.128 1  82712528.745 1        37.000    20199244.574 1
G24  20943541.683 1 110059087.326 1        41.000    20943544.363 1  85760310.609 1        32.000    20943544.846 1
R05  21158768.471 1 113105721.007 1        37.000                                                  
R15  20869045.029 1 111517860.390 1        38.000                                                  
R16  20136423.629 1 107565307.400 1        52.000    20136431.366 1  83661817.397 1        40.000  
E12  25464110.190 1 133814782.051 1        40.000  
E19  24297863.175 1 127686137.518 1        39.000  
E21  25750565.299 1 135320165.347 1        32.000  
C01  37821086.577 1 196944330.606 1        42.000                                                  
C02  38323417.799 1 199560097.766 1        38.000    38323415.601 1 154312522.532 1        31.000  
C03  37204264.023 1 193732373.272 1        43.000    37204265.130 1 149806154.567 1        33.000  
C04  38786295.701 1 201970411.831 1        37.000                                                  
C05  39958103.217 1 208072340.442 1        31.000                                                  
C06  36158726.814 1 188288069.700 1        45.000    36158724.366 1              31        34.000  
C08  35996704.470 1 187444284.870 1        45.000    35996701.539 1 144943804.002 1        31.000  
C09  37359717.071 1 194541872.136 1        42.000    37359719.412 1 150432110.202 1        31.000  
C13  35815970.900 1 186503152.319 1        49.000    35815976.224 1 144216090.862 1        32.000  
C14  21711432.853 1 113057132.556 1        43.000    21711432.853 1  87422956.122 1        35.000  
C16  36391238.577 1 189498734.144 1        45.000    36391243.759 1 146532456.242 1        30.000  
C24  22195649.031 1 115578574.359 1        50.000                                                  
C26  23315870.911 1 121411894.668 1        39.000                                                  
> 2023 08 04 09 50 00.8000000  0 22                     
G12  23193316.825 1 121881706.873 1        34.000    23193320.488 1  94972769.008 1        24.000    23193318.665 1
G23  20199255.992 1 106147824.674 1        50.000    20199257.439 1  82712579.141 1        37.000    20199256.975 1
G24  20943583.657 1 110059307.897 1        41.000    20943586.338 1  85760482.496 1        32.000    20943586.838 1
R05  21158804.335 1 113105911.811 1        37.000                                                  
R15  20869079.320 1 111518044.345 1        38.000                                                  
R16  20136379.493 1 107565071.810 1        52.000    20136387.319 1  83661634.156 1        40.000  
E12  25464153.380 1 133815009.024 1        40.000  
E19  24297875.166 1 127686200.453 1        39.000  
E21  25750531.526 1 135319987.898 1        32.000  
C01  37821087.793 1 196944336.709 1        42.000                                                  
C02  38323418.210 1 199560100.020 1        39.000    38323415.941 1 154312524.283 1        31.000  
C03  37204264.970 1 193732378.311 1        43.000    37204266.042 1 149806158.475 1        33.000  
C04  38786296.416 1 201970415.634 1        37.000                                                  
C05  39958103.217 1 208072340.302 1        31.000                                                  
C06  36158720.846 1 188288038.642 1        45.000    36158718.380 1              31        34.000  
C08  35996719.408 1 187444362.531 1        45.000    35996716.281 1 144943864.034 1        31.000  
C09  37359708.583 1 194541827.950 1        42.000    37359710.995 1 150432076.032 1        32.000  
C13  35815980.048 1 186503199.864 1        49.000    35815985.213 1 144216127.645 1        32.000  
C14  21711436.552 1 113057152.177 1        43.000    21711436.588 1  87422971.293 1        35.000  
C16  36391235.075 1 189498715.921 1        45.000    36391240.149 1 146532442.103 1        30.000  
C24  22195621.227 1 115578429.491 1        50.000                                                  
C26  23315899.877 1 121412045.732 1        39.000                                                  
> 2023 08 04 09 50 00.9000000  0 22                     
G12  23193267.131 1 121881445.933 1        34.000    23193270.830 1  94972559.978 1         7.000                  
G23  20199268.286 1 106147889.375 1        50.000    20199269.733 1  82712629.595 1        37.000    20199269.304 1
G24  20943625.632 1 110059528.491 1        41.000    20943628.330 1  85760654.378 1        32.000    20943628.812 1
R05  21158840.126 1 113106102.619 1        37.000                                                  
R15  20869113.753 1 111518228.321 1        38.000                                                  
R16  20136335.392 1 107564836.238 1        52.000    20136343.218 1  83661450.928 1        40.000  
E12  25464196.551 1 133815236.016 1        40.000  
E19  24297887.138 1 127686263.359 1        39.000  
E21  25750497.897 1 135319810.511 1        32.000  
C01  37821088.972 1 196944342.812 1        42.000                                                  
C02  38323418.603 1 199560102.311 1        39.000    38323416.388 1 154312526.017 1        31.000  
C03  37204265.935 1 193732383.333 1        43.000    37204267.042 1 149806162.389 1        33.000  
C04  38786297.131 1 201970419.458 1        37.000                                                  
C05  39958103.199 1 208072340.206 1        31.000                                                  
C06  36158714.878 1 188288007.596 1        45.000    36158712.448 1              31        34.000  
C08  35996734.347 1 187444440.201 1        45.000    35996731.113 1 144943924.088 1        31.000  
C09  37359700.095 1 194541783.778 1        42.000    37359702.436 1 150432041.882 1        32.000  
C13  35815989.162 1 186503247.421 1        49.000    35815994.576 1 144216164.423 1        32.000  
C14  21711440.323 1 113057171.805 1        43.000    21711440.358 1  87422986.468 1        35.000  
C16  36391231.572 1 189498697.703 1        45.000    36391236.504 1 146532428.017 1        30.000  
C24  22195593.405 1 115578284.628 1        50.000                                                  
C26  23315928.896 1 121412196.808 1        39.000                                                  
> 2023 08 04 09 50 01.0000000  0 22                     
G12  23193217.473 1 121881184.981 1        34.000    23193221.172 1  94972356.644 1         7.000                  
G23  20199280.598 1 106147954.086 1        50.000    20199282.045 1  82712680.000 1        37.000    20199281.473 1
G24  20943667.534 1 110059749.088 1        41.000    20943670.304 1  85760826.279 1        33.000    20943670.822 1
R05  21158875.775 1 113106293.417 1        37.000                                                  
R15  20869148.223 1 111518412.299 1        38.000                                                  
R16  20136291.273 1 107564600.671 1        52.000    20136299.153 1  83661267.705 1        40.000  
E12  25464239.741 1 133815463.001 1        40.000  
E19  24297899.128 1 127686326.279 1        39.000  
E21  25750464.160 1 135319633.123 1        32.000  
C01  37821090.169 1 196944348.925 1        42.000                                                  
C02  38323418.996 1 199560104.565 1        39.000    38323416.959 1 154312527.782 1        31.000  
C03  37204266.935 1 193732388.369 1        43.000    37204268.061 1 149806166.266 1        33.000  
C04  38786297.881 1 201970423.264 1        37.000                                                  
C05  39958103.181 1 208072340.099 1        31.000                                                  
C06  36158708.927 1 188287976.550 1        45.000    36158707.516 1              31        34.000  
C08  35996749.267 1 187444517.864 1        46.000    35996745.926 1 144943984.170 1        31.000  
C09  37359691.661 1 194541739.594 1        42.000    37359694.234 1 150432007.706 1        32.000  
C13  35815998.311 1 186503294.980 1        50.000    35816003.832 1 144216201.177 1        32.000  
C14  21711444.075 1 113057191.432 1        43.000    21711444.021 1  87423001.658 1        35.000  
C16  36391228.034 1 189498679.483 1        45.000    36391233.091 1 146532413.912 1        30.000  
C24  22195565.619 1 115578139.778 1        50.000                                                  
C26  23315957.898 1 121412347.870 1        39.000                                                  
> 2023 08 04 09 50 01.1000000  0 22                     
G12  23193167.958 1 121880924.018 1        34.000    23193171.514 1  94972158.972 1        24.000    23193169.691 1
G23  20199292.909 1 106148018.782 1        50.000    20199294.357 1  82712730.424 1        37.000    20199293.767 1
G24  20943709.527 1 110059969.671 1        41.000    20943712.278 1  85760998.136 1        32.000    20943712.636 1
R05  21158911.531 1 113106484.225 1        37.000                                                  
R15  20869182.746 1 111518596.272 1        38.000                                                  
R16  20136247.172 1 107564365.090 1        52.000    20136255.088 1  83661084.485 1        40.000  
E12  25464282.894 1 133815689.972 1        40.000  
E19  24297911.064 1 127686389.179 1        39.000  
E21  25750430.477 1 135319455.695 1        33.000  
C01  37821091.348 1 196944355.025 1        42.000                                                  
C02  38323419.354 1 199560106.818 1        39.000    38323417.406 1 154312529.531 1        31.000  
C03  37204267.882 1 193732393.388 1        43.000    37204269.151 1 149806170.149 1        33.000  
C04  38786298.632 1 201970427.059 1        37.000                                                  
C05  39958103.127 1 208072339.980 1        31.000                                                  
C06  36158702.941 1 188287945.489 1        45.000    36158701.422 1              31        34.000  
C08  35996764.152 1 187444595.513 1        45.000    35996760.972 1 144944044.190 1        32.000  
C09  37359683.173 1 194541695.402 1        42.000    37359685.836 1 150431973.531 1        32.000  
C13  35816007.406 1 186503342.522 1        50.000    35816012.892 1 144216237.955 1        32.000  
C14  21711447.863 1 113057211.048 1        43.000    21711447.845 1  87423016.815 1        35.000  
C16  36391224.550 1 189498661.257 1        45.000    36391229.589 1 146532399.864 1        30.000  
C24  22195537.797 1 115577994.907 1        50.000                                                  
C26  23315986.917 1 121412498.943 1        39.000                                                  
> 2023 08 04 09 50 01.2000000  0 22                     
G12  23193118.336 1 121880663.072 1        34.000    23193121.856 1  94971955.761 1        24.000    23193120.176 1
G23  20199305.221 1 106148083.483 1        50.000    20199306.669 1  82712780.820 1        37.000    20199306.150 1
G24  20943751.483 1 110060190.250 1        41.000    20943754.253 1  85761170.044 1        32.000    20943754.574 1
R05  21158947.394 1 113106675.011 1        37.000                                                  
R15  20869217.090 1 111518780.245 1        38.000                                                  
R16  20136203.072 1 107564129.518 1        52.000    20136210.898 1  83660901.271 1        40.000  
E12  25464326.120 1 133815916.954 1        40.000  
E19  24297923.037 1 127686452.103 1        39.000  
E21  25750396.669 1 135319278.249 1        33.000  
C01  37821092.564 1 196944361.120 1        42.000                                                  
C02  38323419.747 1 199560109.054 1        39.000    38323417.763 1 154312531.272 1        31.000  
C03  37204268.865 1 193732398.404 1        43.000    37204270.098 1 149806174.034 1        33.000  
C04  38786299.400 1 201970430.848 1        37.000                                                  
C05  39958103.074 1 208072339.855 1        31.000                                                  
C06  36158696.991 1 188287914.419 1        45.000    36158695.436 1              31        34.000  
C08  35996779.037 1 187444673.163 1        45.000    35996775.982 1 144944104.225 1        32.000  
C09  37359674.703 1 194541651.215 1        42.000    37359677.420 1 150431939.370 1        32.000  
C13  35816016.537 1 186503390.067 1        50.000    35816021.880 1 144216274.713 1        32.000  
C14  21711451.669 1 113057230.667 1        43.000    21711451.562 1  87423031.968 1        35.000  
C16  36391221.065 1 189498643.026 1        45.000    36391226.176 1 146532385.761 1        30.000  
C24  22195509.975 1 115577850.047 1        50.000                                                  
C26  23316015.900 1 121412650.005 1        39.000                                                  
> 2023 08 04 09 50 01.3000000  0 22                     
G12  23193068.517 1 121880402.100 1        34.000    23193072.198 1  94971746.608 1         7.000                  
G23  20199317.533 1 106148148.167 1        50.000    20199318.980 1  82712831.242 1        37.000    20199318.462 1
G24  20943793.440 1 110060410.809 1        41.000    20943796.245 1  85761341.917 1        32.000    20943796.638 1
R05  21158983.132 1 113106865.759 1        37.000                                                  
R15  20869251.524 1 111518964.218 1        38.000                                                  
R16  20136158.953 1 107563893.931 1        52.000    20136166.762 1  83660718.022 1        40.000  
E12  25464369.309 1 133816143.913 1        40.000  
E19  24297935.062 1 127686514.988 1        39.000  
E21  25750362.968 1 135319100.817 1        32.000  
C01  37821093.707 1 196944367.188 1        42.000                                                  
C02  38323420.158 1 199560111.279 1        38.000    38323418.210 1 154312532.958 1        31.000  
C03  37204269.848 1 193732403.396 1        43.000    37204270.920 1 149806177.875 1        33.000  
C04  38786300.097 1 201970434.622 1        37.000                                                  
C05  39958102.967 1 208072339.671 1        31.000                                                  
C06  36158691.023 1 188287883.332 1        45.000    36158689.504 1              31        34.000  
C08  35996793.940 1 187444750.797 1        45.000    35996790.884 1 144944164.268 1        31.000  
C09  37359666.234 1 194541606.994 1        42.000    37359668.842 1 150431905.162 1        32.000  
C13  35816025.686 1 186503437.583 1        50.000    35816031.029 1 144216311.455 1        32.000  
C14  21711455.422 1 113057250.256 1        43.000    21711455.297 1  87423047.132 1        35.000  
C16  36391217.563 1 189498624.765 1        45.000    36391222.924 1 146532371.620 1        30.000  
C24  22195482.171 1 115577705.165 1        50.000                                                  
C26  23316044.920 1 121412801.058 1        39.000                                                  
> 2023 08 04 09 50 01.4000000  0 22                     
G12  23193018.894 1 121880141.151 1        34.000    23193022.540 1  94971548.965 1        24.000    23193020.646 1
G23  20199329.845 1 106148212.872 1        50.000    20199331.292 1  82712881.642 1        37.000    20199330.702 1
G24  20943835.467 1 110060631.397 1        41.000    20943838.237 1  85761513.775 1        32.000    20943838.541 1
R05  21159018.852 1 113107056.567 1        36.000                                                  
R15  20869286.118 1 111519148.188 1        38.000                                                  
R16  20136114.834 1 107563658.370 1        52.000    20136122.661 1  83660534.816 1        40.000  
E12  25464412.498 1 133816370.884 1        40.000  
E19  24297946.999 1 127686577.894 1        39.000  
E21  25750329.213 1 135318923.386 1        32.000  
C01  37821094.851 1 196944373.271 1        42.000                                                  
C02  38323420.533 1 199560113.532 1        38.000    38323418.568 1 154312534.694 1        32.000  
C03  37204270.813 1 193732408.401 1        43.000    37204272.117 1 149806181.728 1        33.000  
C04  38786300.848 1 201970438.408 1        37.000                                                  
C05  39958102.984 1 208072339.543 1        31.000                                                  
C06  36158685.072 1 188287852.257 1        45.000    36158683.571 1              31        34.000  
C08  35996808.843 1 187444828.446 1        45.000    35996805.841 1 144944224.293 1        31.000  
C09  37359657.728 1 194541562.807 1        42.000    37359660.408 1 150431871.001 1        32.000  
C13  35816034.799 1 186503485.125 1        50.000    35816040.392 1 144216348.218 1        32.000  
C14  21711459.228 1 113057269.872 1        43.000    21711459.085 1  87423062.322 1        35.000  
C16  36391214.078 1 189498606.522 1        45.000    36391219.421 1 146532357.527 1        31.000  
C24  22195454.348 1 115577560.302 1        50.000                                                  
C26  23316073.939 1 121412952.117 1        39.000                                                  
> 2023 08 04 09 50 01.5000000  0 22                     
G12  23192969.290 1 121879880.193 1        34.000    23192972.882 1  94971345.644 1        24.000    23192970.469 1
G23  20199342.156 1 106148277.591 1        50.000    20199343.586 1  82712932.078 1        37.000    20199342.996 1
G24  20943877.388 1 110060852.003 1        41.000    20943880.211 1  85761685.701 1        32.000    20943880.497 1
R05  21159054.751 1 113107247.383 1        36.000                                                  
R15  20869320.570 1 111519332.203 1        38.000                                                  
R16  20136070.716 1 107563422.828 1        52.000    20136078.542 1  83660351.607 1        40.000  
E12  25464455.706 1 133816597.890 1        40.000  
E19  24297958.989 1 127686640.808 1        39.000  
E21  25750295.405 1 135318745.993 1        32.000  
C01  37821096.030 1 196944379.369 1        42.000                                                  
C02  38323420.998 1 199560115.765 1        38.000    38323418.996 1 154312536.457 1        32.000  
C03  37204271.760 1 193732413.425 1        43.000    37204273.225 1 149806185.636 1        33.000  
C04  38786301.634 1 201970442.194 1        37.000                                                  
C05  39958102.841 1 208072339.384 1        31.000                                                  
C06  36158679.086 1 188287821.202 1        45.000    36158677.746 1              31        33.000  
C08  35996823.746 1 187444906.107 1        46.000    35996820.815 1 144944284.366 1        31.000  
C09  37359649.222 1 194541518.621 1        42.000    37359651.867 1 150431836.826 1        32.000  
C13  35816043.930 1 186503532.676 1        50.000    35816049.666 1 144216385.005 1        32.000  
C14  21711462.981 1 113057289.497 1        43.000    21711462.891 1  87423077.486 1        35.000  
C16  36391210.558 1 189498588.298 1        45.000    36391215.830 1 146532343.425 1        31.000  
C24  22195426.544 1 115577415.458 1        50.000                                                  
C26  23316102.976 1 121413103.204 1        39.000                                                  
> 2023 08 04 09 50 01.6000000  0 22                     
G12  23192919.632 1 121879619.283 1        34.000    23192923.242 1  94971142.337 1        24.000    23192920.758 1
G23  20199354.486 1 106148342.334 1        50.000    20199355.916 1  82712982.515 1        37.000    20199355.308 1
G24  20943919.363 1 110061072.621 1        41.000    20943922.204 1  85761857.578 1        32.000    20943922.561 1
R05  21159090.704 1 113107438.200 1        36.000                                                  
R15  20869355.075 1 111519516.238 1        38.000                                                  
R16  20136026.633 1 107563187.306 1        52.000    20136034.299 1  83660168.435 1        40.000  
E12  25464498.877 1 133816824.893 1        40.000  
E19  24297970.943 1 127686703.738 1        39.000  
E21  25750261.668 1 135318568.605 1        32.000  
C01  37821097.192 1 196944385.493 1        42.000                                                  
C02  38323421.462 1 199560118.036 1        39.000    38323419.425 1 154312538.222 1        32.000  
C03  37204272.725 1 193732418.467 1        43.000    37204274.136 1 149806189.519 1        33.000  
C04  38786302.384 1 201970446.012 1        37.000                                                  
C05  39958102.841 1 208072339.273 1        31.000                                                  
C06  36158673.118 1 188287790.159 1        45.000    36158671.760 1              31        34.000  
C08  35996838.630 1 187444983.785 1        46.000    35996835.664 1 144944344.447 1        31.000  
C09  37359640.770 1 194541474.449 1        42.000    37359643.308 1 150431802.672 1        32.000  
C13  35816053.079 1 186503580.244 1        50.000    35816058.761 1 144216421.786 1        31.000  
C14  21711466.751 1 113057309.156 1        43.000    21711466.644 1  87423092.661 1        35.000  
C16  36391207.020 1 189498570.084 1        45.000    36391212.166 1 146532329.309 1        31.000  
C24  22195398.740 1 115577270.636 1        50.000                                                  
C26  23316131.978 1 121413254.330 1        39.000                                                  
> 2023 08 04 09 50 01.7000000  0 22                     
G12  23192869.974 1 121879358.352 1        34.000    23192873.584 1  94970933.307 1         7.000                  
G23  20199366.798 1 106148407.059 1        50.000    20199368.227 1  82713032.955 1        37.000    20199367.620 1
G24  20943961.337 1 110061293.218 1        41.000    20943964.196 1  85762029.497 1        32.000    20943964.768 1
R05  21159126.227 1 113107629.010 1        36.000                                                  
R15  20869389.437 1 111519700.253 1        38.000                                                  
R16  20135982.532 1 107562951.773 1        52.000    20135990.091 1  83659985.240 1        40.000  
E12  25464542.085 1 133817051.876 1        40.000  
E19  24297982.916 1 127686766.658 1        39.000  
E21  25750227.842 1 135318391.203 1        32.000  
C01  37821098.389 1 196944391.576 1        42.000                                                  
C02  38323421.855 1 199560120.284 1        39.000    38323419.818 1 154312539.917 1        31.000  
C03  37204273.708 1 193732423.474 1        43.000    37204274.905 1 149806193.387 1        33.000  
C04  38786303.099 1 201970449.803 1        37.000                                                  
C05  39958102.877 1 208072339.139 1        31.000                                                  
C06  36158667.185 1 188287759.095 1        45.000    36158665.720 1              31        33.000  
C08  35996853.533 1 187445061.446 1        46.000    35996850.656 1 144944404.499 1        31.000  
C09  37359632.282 1 194541430.254 1        42.000    37359634.963 1 150431768.500 1        32.000  
C13  35816062.228 1 186503627.792 1        50.000    35816067.875 1 144216458.532 1        32.000  
C14  21711470.486 1 113057328.781 1        43.000    21711470.414 1  87423107.843 1        35.000  
C16  36391203.518 1 189498551.852 1        45.000    36391208.754 1 146532315.206 1        30.000  
C24  22195370.936 1 115577125.797 1        50.000                                                  
C26  23316160.979 1 121413405.403 1        39.000                                                  
> 2023 08 04 09 50 01.8000000  0 22                     
G12  23192820.405 1 121879097.432 1        34.000    23192823.926 1  94970735.734 1        24.000    23192821.317 1
G23  20199379.127 1 106148471.814 1        50.000    20199380.539 1  82713083.417 1        37.000    20199379.967 1
G24  20944003.365 1 110061513.851 1        41.000    20944006.206 1  85762201.414 1        32.000    20944006.814 1
R05  21159161.822 1 113107819.844 1        36.000                                                  
R15  20869423.906 1 111519884.292 1        38.000                                                  
R16  20135938.449 1 107562716.263 1        52.000    20135946.026 1  83659802.059 1        40.000  
E12  25464585.256 1 133817278.891 1        40.000  
E19  24297994.906 1 127686829.590 1        39.000  
E21  25750194.070 1 135318213.824 1        33.000  
C01  37821099.532 1 196944397.688 1        42.000                                                  
C02  38323422.302 1 199560122.549 1        39.000    38323420.390 1 154312541.684 1        32.000  
C03  37204274.655 1 193732428.514 1        43.000    37204275.852 1 149806197.281 1        33.000  
C04  38786303.885 1 201970453.621 1        37.000                                                  
C05  39958102.841 1 208072339.014 1        31.000                                                  
C06  36158661.199 1 188287728.055 1        45.000    36158659.698 1              31        33.000  
C08  35996868.454 1 187445139.124 1        46.000    35996865.631 1 144944464.520 1        31.000  
C09  37359623.777 1 194541386.082 1        42.000    37359626.546 1 150431734.350 1        32.000  
C13  35816071.359 1 186503675.360 1        50.000    35816077.149 1 144216495.320 1        32.000  
C14  21711474.292 1 113057348.426 1        43.000    21711474.292 1  87423123.056 1        35.000  
C16  36391200.016 1 189498533.644 1        46.000    36391205.501 1 146532301.153 1        30.000  
C24  22195343.132 1 115576980.981 1        50.000                                                  
C26  23316190.052 1 121413556.506 1        39.000                                                  
> 2023 08 04 09 50 01.9000000  0 22                     
G12  23192770.622 1 121878836.457 1        33.000    23192774.268 1  94970532.359 1        23.000    23192771.730 1
G23  20199391.457 1 106148536.521 1        50.000    20199392.851 1  82713133.837 1        37.000    20199392.333 1
G24  20944045.393 1 110061734.439 1        41.000    20944048.180 1  85762373.297 1        32.000    20944048.752 1
R05  21159197.507 1 113108010.616 1        37.000                                                  
R15  20869458.322 1 111520068.294 1        38.000                                                  
R16  20135894.349 1 107562480.714 1        52.000    20135901.961 1  83659618.864 1        40.000  
E12  25464628.428 1 133817505.870 1        40.000  
E19  24298006.860 1 127686892.467 1        39.000  
E21  25750160.262 1 135318036.367 1        32.000  
C01  37821100.730 1 196944403.756 1        42.000                                                  
C02  38323422.713 1 199560124.756 1        39.000    38323420.730 1 154312543.382 1        32.000  
C03  37204275.620 1 193732433.486 1        43.000    37204276.924 1 149806201.146 1        33.000  
C04  38786304.654 1 201970457.366 1        37.000                                                  
C05  39958102.752 1 208072338.831 1        31.000                                                  
C06  36158655.195 1 188287696.959 1        45.000    36158653.676 1              31        34.000  
C08  35996883.374 1 187445216.756 1        46.000    35996880.533 1 144944524.572 1        31.000  
C09  37359615.289 1 194541341.866 1        42.000    37359618.059 1 150431700.191 1        32.000  
C13  35816080.472 1 186503722.882 1        50.000    35816086.226 1 144216532.073 1        32.000  
C14  21711478.044 1 113057368.030 1        43.000    21711477.973 1  87423138.192 1        35.000  
C16  36391196.513 1 189498515.383 1        46.000    36391201.677 1 146532287.031 1        30.000  
C24  22195315.310 1 115576836.119 1        50.000                                                  
C26  23316219.125 1 121413707.573 1        39.000                                                  
> 2023 08 04 09 50 02.0000000  0 22                     
G12  23192720.911 1 121878575.552 1        33.000    23192724.627 1  94970329.095 1        24.000    23192722.376 1
G23  20199403.733 1 106148601.287 1        50.000    20199405.180 1  82713184.317 1        37.000    20199404.752 1
G24  20944087.385 1 110061955.080 1        41.000    20944090.190 1  85762545.207 1        32.000    20944090.744 1
R05  21159233.263 1 113108201.456 1        36.000                                                  
R15  20869492.791 1 111520252.354 1        38.000                                                  
R16  20135850.266 1 107562245.226 1        52.000    20135857.824 1  83659435.703 1        40.000  
E12  25464671.599 1 133817732.888 1        40.000  
E19  24298018.832 1 127686955.402 1        39.000  
E21  25750126.579 1 135317859.029 1        32.000  
C01  37821101.909 1 196944409.863 1        42.000                                                  
C02  38323423.106 1 199560127.027 1        38.000    38323421.159 1 154312545.154 1        31.000  
C03  37204276.620 1 193732438.522 1        43.000    37204277.835 1 149806205.027 1        33.000  
C04  38786305.386 1 201970461.176 1        37.000                                                  
C05  39958102.734 1 208072338.726 1        31.000                                                  
C06  36158649.227 1 188287665.921 1        45.000    36158647.672 1              31        34.000  
C08  35996898.277 1 187445294.449 1        45.000    35996895.382 1 144944584.647 1        31.000  
C09  37359606.801 1 194541297.709 1        42.000    37359609.410 1 150431666.025 1        32.000  
C13  35816089.586 1 186503770.453 1        50.000    35816095.214 1 144216568.852 1        32.000  
C14  21711481.832 1 113057387.692 1        43.000    21711481.832 1  87423153.394 1        35.000  
C16  36391193.011 1 189498497.172 1        45.000    36391197.978 1 146532272.942 1        30.000  
C24  22195287.488 1 115576691.318 1        50.000                                                  
C26  23316248.126 1 121413858.696 1        39.000                                                  
> 2023 08 04 09 50 02.1000000  0 22                     
G12  23192671.217 1 121878314.662 1        33.000    23192674.987 1  94970125.756 1        24.000    23192672.843 1
G23  20199416.098 1 106148666.083 1        50.000    20199417.510 1  82713234.796 1        37.000    20199417.135 1
G24  20944129.431 1 110062175.742 1        41.000    20944132.183 1  85762717.167 1        32.000    20944132.826 1
R05  21159269.126 1 113108392.318 1        36.000                                                  
R15  20869527.243 1 111520436.428 1        38.000                                                  
R16  20135806.165 1 107562009.770 1        52.000    20135813.777 1  83659252.562 1        40.000  
E12  25464714.807 1 133817959.932 1        40.000  
E19  24298030.840 1 127687018.378 1        39.000  
E21  25750092.753 1 135317681.703 1        32.000  
C01  37821103.088 1 196944416.004 1        42.000                                                  
C02  38323423.535 1 199560129.321 1        39.000    38323421.480 1 154312546.908 1        31.000  
C03  37204277.603 1 193732443.573 1        43.000    37204278.854 1 149806208.957 1        33.000  
C04  38786306.101 1 201970465.014 1        37.000                                                  
C05  39958102.770 1 208072338.598 1        31.000                                                  
C06  36158643.259 1 188287634.904 1        45.000    36158641.633 1              31        34.000  
C08  35996913.180 1 187445372.159 1        45.000    35996910.339 1 144944644.755 1        31.000  
C09  37359598.313 1 194541253.563 1        42.000    37359600.940 1 150431631.887 1        31.000  
C13  35816098.717 1 186503818.056 1        50.000    35816104.345 1 144216605.666 1        32.000  
C14  21711485.638 1 113057407.375 1        42.000    21711485.656 1  87423168.632 1        35.000  
C16  36391189.526 1 189498478.984 1        45.000    36391194.476 1 146532258.893 1        30.000  
C24  22195259.683 1 115576546.543 1        50.000                                                  
C26  23316277.163 1 121414009.856 1        39.000                                                  
> 2023 08 04 09 50 02.2000000  0 22                     
G12  23192621.648 1 121878053.781 1        33.000    23192625.329 1  94969922.497 1        24.000    23192623.632 1
G23  20199428.410 1 106148730.855 1        50.000    20199429.822 1  82713285.249 1        37.000    20199429.322 1
G24  20944171.423 1 110062396.398 1        41.000    20944174.193 1  85762889.084 1        32.000    20944174.657 1
R05  21159304.792 1 113108583.149 1        36.000                                                  
R15  20869561.641 1 111520620.518 1        38.000                                                  
R16  20135762.064 1 107561774.293 1        52.000    20135769.676 1  83659069.415 1        40.000  
E12  25464757.996 1 133818186.962 1        40.000  
E19  24298042.777 1 127687081.301 1        39.000  
E21  25750058.944 1 135317504.319 1        32.000  
C01  37821104.286 1 196944422.119 1        42.000                                                  
C02  38323423.982 1 199560131.587 1        38.000    38323421.909 1 154312548.700 1        32.000  
C03  37204278.604 1 193732448.609 1        43.000    37204279.712 1 149806212.838 1        33.000  
C04  38786306.816 1 201970468.829 1        37.000                                                  
C05  39958102.788 1 208072338.465 1        31.000                                                  
C06  36158637.308 1 188287603.861 1        45.000    36158635.593 1              31        34.000  
C08  35996928.083 1 187445449.840 1        45.000    35996924.938 1 144944704.801 1        31.000  
C09  37359589.843 1 194541209.397 1        42.000    37359592.524 1 150431597.712 1        31.000  
C13  35816107.866 1 186503865.627 1        50.000    35816113.494 1 144216642.462 1        31.000  
C14  21711489.373 1 113057427.031 1        43.000    21711489.462 1  87423183.834 1        36.000  
C16  36391186.006 1 189498460.778 1        45.000    36391190.849 1 146532244.827 1        30.000  
C24  22195231.915 1 115576401.747 1        50.000                                                  
C26  23316306.201 1 121414160.970 1        39.000                                                  
> 2023 08 04 09 50 02.3000000  0 22                     
G12  23192572.222 1 121877792.861 1        33.000    23192575.689 1  94969719.117 1        24.000    23192574.224 1
G23  20199440.740 1 106148795.612 1        50.000    20199442.151 1  82713335.737 1        37.000    20199441.580 1
G24  20944213.397 1 110062617.033 1        41.000    20944216.167 1  85763061.044 1        32.000    20944216.578 1
R05  21159340.495 1 113108773.957 1        36.000                                                  
R15  20869596.110 1 111520804.580 1        38.000                                                  
R16  20135717.981 1 107561538.807 1        52.000    20135725.558 1  83658886.257 1        40.000  
E12  25464801.168 1 133818413.973 1        40.000  
E19  24298054.749 1 127687144.219 1        39.000  
E21  25750025.190 1 135317326.914 1        32.000  
C01  37821105.465 1 196944428.199 1        42.000                                                  
C02  38323424.446 1 199560133.828 1        39.000    38323422.445 1 154312550.413 1        32.000  
C03  37204279.551 1 193732453.631 1        43.000    37204280.551 1 149806216.706 1        32.000  
C04  38786307.549 1 201970472.624 1        37.000                                                  
C05  39958102.752 1 208072338.357 1        31.000                                                  
C06  36158631.376 1 188287572.803 1        45.000    36158629.678 1              31        34.000  
C08  35996943.003 1 187445527.504 1        45.000    35996939.930 1 144944764.876 1        31.000  
C09  37359581.374 1 194541165.199 1        42.000    37359583.947 1 150431563.565 1        31.000  
C13  35816116.997 1 186503913.184 1        50.000    35816122.715 1 144216679.243 1        32.000  
C14  21711493.108 1 113057446.679 1        43.000    21711493.251 1  87423199.011 1        36.000  
C16  36391182.522 1 189498442.546 1        46.000    36391187.186 1 146532230.702 1        30.000  
C24  22195204.129 1 115576256.932 1        50.000                                                  
C26  23316335.220 1 121414312.073 1        39.000                                                  
> 2023 08 04 09 50 02.4000000  0 22                     
G12  23192522.493 1 121877531.910 1        33.000    23192526.031 1  94969515.863 1        24.000    23192525.155 1
G23  20199453.087 1 106148860.355 1        50.000    20199454.463 1  82713386.170 1        37.000    20199453.999 1
G24  20944255.425 1 110062837.642 1        41.000    20944258.159 1  85763232.938 1        32.000    20944258.606 1
R05  21159376.125 1 113108964.767 1        36.000                                                  
R15  20869630.579 1 111520988.622 1        38.000                                                  
R16  20135673.863 1 107561303.306 1        52.000    20135681.457 1  83658703.106 1        40.000  
E12  25464844.339 1 133818640.959 1        40.000  
E19  24298066.757 1 127687207.122 1        39.000  
E21  25749991.399 1 135317149.497 1        32.000  
C01  37821106.573 1 196944434.271 1        42.000                                                  
C02  38323424.893 1 199560136.050 1        39.000    38323422.838 1 154312552.142 1        32.000  
C03  37204280.516 1 193732458.612 1        43.000    37204281.516 1 149806220.566 1        33.000  
C04  38786308.263 1 201970476.380 1        37.000                                                  
C05  39958102.752 1 208072338.203 1        31.000                                                  
C06  36158625.408 1 188287541.722 1        45.000    36158623.728 1 145595793.22311        34.000  
C08  35996957.870 1 187445605.153 1        45.000    35996954.654 1 144944824.912 1        31.000  
C09  37359572.904 1 194541120.989 1        42.000    37359575.423 1 150431529.368 1        32.000  
C13  35816126.128 1 186503960.717 1        50.000    35816131.631 1 144216715.965 1        32.000  
C14  21711496.878 1 113057466.301 1        43.000    21711497.110 1  87423214.189 1        36.000  
C16  36391179.019 1 189498424.294 1        46.000    36391183.630 1 146532216.595 1        30.000  
C24  22195176.306 1 115576112.104 1        51.000                                                  
C26  23316364.221 1 121414463.187 1        39.000                                                  
> 2023 08 04 09 50 02.5000000  0 22                     
G12  23192472.853 1 121877270.990 1        33.000    23192476.373 1  94969312.524 1        25.000    23192475.515 1
G23  20199465.399 1 106148925.112 1        50.000    20199466.793 1  82713436.635 1        37.000    20199466.364 1
G24  20944297.435 1 110063058.268 1        41.000    20944300.134 1  85763404.848 1        32.000    20944300.634 1
R05  21159411.864 1 113109155.581 1        36.000                                                  
R15  20869664.959 1 111521172.696 1        38.000                                                  
R16  20135629.744 1 107561067.820 1        52.000    20135637.374 1  83658519.939 1        40.000  
E12  25464887.546 1 133818867.968 1        40.000  
E19  24298078.747 1 127687270.024 1        39.000  
E21  25749957.573 1 135316972.124 1        32.000  
C01  37821107.734 1 196944440.345 1        42.000                                                  
C02  38323425.358 1 199560138.283 1        39.000    38323423.106 1 154312553.853 1        32.000  
C03  37204281.481 1 193732463.613 1        43.000    37204282.463 1 149806224.434 1        33.000  
C04  38786309.014 1 201970480.140 1        37.000                                                  
C05  39958102.520 1 208072338.049 1        31.000                                                  
C06  36158619.439 1 188287510.649 1        45.000    36158617.795 1 145595769.198 1        34.000  
C08  35996972.755 1 187445682.811 1        45.000    35996969.610 1 144944884.971 1        31.000  
C09  37359564.416 1 194541076.805 1        42.000    37359566.953 1 150431495.193 1        32.000  
C13  35816135.259 1 186504008.265 1        50.000    35816140.619 1 144216752.745 1        32.000  
C14  21711500.684 1 113057485.925 1        43.000    21711500.899 1  87423229.377 1        35.000  
C16  36391175.499 1 189498406.057 1        46.000    36391180.074 1 146532202.499 1        30.000  
C24  22195148.484 1 115575967.288 1        51.000                                                  
C26  23316393.223 1 121414614.298 1        39.000                                                  
> 2023 08 04 09 50 02.6000000  0 22                     
G12  23192423.177 1 121877010.089 1        33.000    23192426.715 1  94969109.324 1        25.000    23192425.428 1
G23  20199477.729 1 106148989.905 1        50.000    20199479.123 1  82713487.127 1        37.000    20199478.712 1
G24  20944339.356 1 110063278.933 1        41.000    20944342.126 1  85763576.780 1        32.000    20944342.662 1
R05  21159447.566 1 113109346.436 1        36.000                                                  
R15  20869699.411 1 111521356.788 1        38.000                                                  
R16  20135585.625 1 107560832.370 1        52.000    20135593.327 1  83658336.814 1        40.000  
E12  25464930.754 1 133819094.988 1        40.000  
E19  24298090.648 1 127687332.968 1        39.000  
E21  25749923.908 1 135316794.775 1        32.000  
C01  37821108.896 1 196944446.454 1        42.000                                                  
C02  38323425.751 1 199560140.522 1        39.000    38323423.499 1 154312555.600 1        32.000  
C03  37204282.445 1 193732468.632 1        43.000    37204283.535 1 149806228.317 1        33.000  
C04  38786309.729 1 201970483.964 1        37.000                                                  
C05  39958102.502 1 208072337.909 1        30.000                                                  
C06  36158613.489 1 188287479.609 1        45.000    36158611.845 1 145595745.200 1        34.000  
C08  35996987.658 1 187445760.501 1        45.000    35996984.460 1 144944945.055 1        31.000  
C09  37359555.946 1 194541032.633 1        42.000    37359558.448 1 150431461.061 1        32.000  
C13  35816144.390 1 186504055.842 1        50.000    35816149.894 1 144216789.553 1        32.000  
C14  21711504.472 1 113057505.605 1        43.000    21711504.633 1  87423244.563 1        35.000  
C16  36391171.997 1 189498387.834 1        45.000    36391176.589 1 146532188.417 1        30.000  
C24  22195120.698 1 115575822.508 1        51.000                                                  
C26  23316422.242 1 121414765.435 1        39.000                                                  
> 2023 08 04 09 50 02.7000000  0 22                     
G12  23192373.662 1 121876749.169 1        33.000    23192377.057 1  94968900.181 1         7.000                  
G23  20199490.058 1 106149054.662 1        50.000    20199491.452 1  82713537.583 1        37.000    20199491.059 1
G24  20944381.330 1 110063499.566 1        41.000    20944384.118 1  85763748.702 1        32.000    20944384.583 1
R05  21159483.125 1 113109537.234 1        36.000                                                  
R15  20869733.880 1 111521540.863 1        38.000                                                  
R16  20135541.489 1 107560596.894 1        52.000    20135549.244 1  83658153.670 1        40.000  
E12  25464973.907 1 133819322.003 1        40.000  
E19  24298102.656 1 127687395.877 1        39.000  
E21  25749890.118 1 135316617.376 1        33.000  
C01  37821110.057 1 196944452.511 1        42.000                                                  
C02  38323426.162 1 199560142.761 1        39.000    38323423.875 1 154312557.311 1        31.000  
C03  37204283.410 1 193732473.622 1        43.000    37204284.590 1 149806232.177 1        33.000  
C04  38786310.497 1 201970487.721 1        37.000                                                  
C05  39958102.538 1 208072337.744 1        30.000                                                  
C06  36158607.539 1 188287448.530 1        45.000    36158605.841 1 145595721.150 1        34.000  
C08  35997002.543 1 187445838.147 1        45.000    35996999.416 1 144945005.100 1        32.000  
C09  37359547.512 1 194540988.415 1        42.000    37359549.978 1 150431426.873 1        32.000  
C13  35816153.521 1 186504103.384 1        50.000    35816158.953 1 144216826.299 1        32.000  
C14  21711508.207 1 113057525.239 1        43.000    21711508.386 1  87423259.763 1        35.000  
C16  36391168.477 1 189498369.585 1        46.000    36391172.944 1 146532174.330 1        30.000  
C24  22195092.876 1 115575677.695 1        51.000                                                  
C26  23316451.243 1 121414916.561 1        39.000                                                  
> 2023 08 04 09 50 02.8000000  0 22                     
G12  23192323.879 1 121876488.258 1        33.000    23192327.417 1  94968702.516 1        24.000    23192326.613 1
G23  20199502.388 1 106149119.449 1        50.000    20199503.782 1  82713588.073 1        37.000    20199503.335 1
G24  20944423.323 1 110063720.227 1        41.000    20944426.110 1  85763920.653 1        32.000    20944426.432 1
R05  21159519.113 1 113109728.051 1        36.000                                                  
R15  20869768.367 1 111521724.976 1        38.000                                                  
R16  20135497.424 1 107560361.444 1        52.000    20135505.197 1  83657970.546 1        40.000  
E12  25465017.115 1 133819549.021 1        40.000  
E19  24298114.646 1 127687458.783 1        39.000  
E21  25749856.381 1 135316440.027 1        33.000  
C01  37821111.201 1 196944458.603 1        42.000                                                  
C02  38323426.591 1 199560145.000 1        39.000    38323424.268 1 154312559.043 1        31.000  
C03  37204284.393 1 193732478.638 1        43.000    37204285.608 1 149806236.031 1        33.000  
C04  38786311.265 1 201970491.524 1        37.000                                                  
C05  39958102.520 1 208072337.578 1        30.000                                                  
C06  36158601.570 1 188287417.475 1        45.000    36158599.855 1 145595697.148 1        34.000  
C08  35997017.464 1 187445915.828 1        46.000    35997014.176 1 144945065.121 1        32.000  
C09  37359539.006 1 194540944.243 1        42.000    37359541.544 1 150431392.701 1        32.000  
C13  35816162.670 1 186504150.952 1        50.000    35816167.995 1 144216863.069 1        32.000  
C14  21711511.995 1 113057544.889 1        43.000    21711512.156 1  87423274.969 1        35.000  
C16  36391164.992 1 189498351.362 1        46.000    36391169.388 1 146532160.212 1        30.000  
C24  22195065.072 1 115575532.908 1        51.000                                                  
C26  23316480.281 1 121415067.692 1        39.000                                                  
> 2023 08 04 09 50 02.9000000  0 22                     
G12  23192274.221 1 121876227.389 1        33.000    23192277.759 1  94968493.592 1         7.000                  
G23  20199514.753 1 106149184.271 1        50.000    20199516.111 1  82713638.568 1        37.000    20199515.611 1
G24  20944465.279 1 110063940.918 1        41.000    20944468.102 1  85764092.631 1        32.000    20944468.353 1
R05  21159554.977 1 113109918.930 1        36.000                                                  
R15  20869802.872 1 111521909.110 1        38.000                                                  
R16  20135453.341 1 107560126.032 1        52.000    20135461.168 1  83657787.440 1        40.000  
E12  25465060.340 1 133819776.080 1        40.000  
E19  24298126.654 1 127687521.738 1        39.000  
E21  25749822.627 1 135316262.680 1        33.000  
C01  37821112.362 1 196944464.715 1        42.000                                                  
C02  38323427.020 1 199560147.268 1        39.000    38323424.589 1 154312560.785 1        31.000  
C03  37204285.340 1 193732483.683 1        43.000    37204286.591 1 149806239.959 1        33.000  
C04  38786311.998 1 201970495.322 1        37.000                                                  
C05  39958102.538 1 208072337.485 1        30.000                                                  
C06  36158595.602 1 188287386.447 1        45.000    36158593.815 1 145595673.145 1        34.000  
C08  35997032.420 1 187445993.535 1        46.000    35997029.007 1 144945125.216 1        31.000  
C09  37359530.572 1 194540900.088 1        42.000    37359532.966 1 150431358.520 1        32.000  
C13  35816171.837 1 186504198.544 1        50.000    35816177.072 1 144216899.890 1        32.000  
C14  21711515.819 1 113057564.584 1        43.000    21711515.891 1  87423290.205 1        35.000  
C16  36391161.472 1 189498333.168 1        46.000    36391165.993 1 146532146.148 1        30.000  
C24  22195037.285 1 115575388.153 1        51.000                                                  
C26  23316509.336 1 121415218.853 1        39.000                                                  
> 2023 08 04 09 50 03.0000000  0 22                     
G12  23192224.509 1 121875966.478 1        33.000    23192228.119 1  94968296.076 1        24.000    23192226.921 1
G23  20199527.065 1 106149249.055 1        50.000    20199528.441 1  82713689.062 1        37.000    20199527.905 1
G24  20944507.218 1 110064161.562 1        41.000    20944510.095 1  85764264.552 1        32.000    20944510.470 1
R05  21159590.625 1 113110109.749 1        36.000                                                  
R15  20869837.288 1 111522093.202 1        38.000                                                  
R16  20135409.240 1 107559890.582 1        52.000    20135417.085 1  83657604.323 1        40.000  
E12  25465103.529 1 133820003.092 1        40.000  
E19  24298138.591 1 127687584.656 1        39.000  
E21  25749788.836 1 135316085.293 1        32.000  
C01  37821113.524 1 196944470.804 1        42.000                                                  
C02  38323427.359 1 199560149.504 1        39.000    38323425.036 1 154312562.521 1        31.000  
C03  37204286.323 1 193732488.687 1        43.000    37204287.520 1 149806243.820 1        33.000  
C04  38786312.766 1 201970499.105 1        37.000                                                  
C05  39958102.502 1 208072337.354 1        30.000                                                  
C06  36158589.616 1 188287355.371 1        45.000    36158587.865 1 145595649.114 1        34.000  
C08  35997047.323 1 187446071.205 1        46.000    35997043.928 1 144945185.302 1        31.000  
C09  37359522.084 1 194540855.896 1        42.000    37359524.479 1 150431324.386 1        32.000  
C13  35816180.950 1 186504246.101 1        50.000    35816186.043 1 144216936.648 1        32.000  
C14  21711519.590 1 113057584.234 1        43.000    21711519.715 1  87423305.380 1        35.000  
C16  36391157.988 1 189498314.921 1        46.000    36391162.830 1 146532132.066 1        30.000  
C24  22195009.499 1 115575243.364 1        51.000                                                  
C26  23316538.373 1 121415369.981 1        39.000                                                  
> 2023 08 04 09 50 03.1000000  0 22                     
G12  23192174.833 1 121875705.603 1        33.000    23192178.461 1  94968092.828 1        24.000    23192177.496 1
G23  20199539.395 1 106149313.868 1        50.000    20199540.771 1  82713739.564 1        37.000    20199540.235 1
G24  20944549.210 1 110064382.242 1        41.000    20944552.087 1  85764436.499 1        32.000    20944552.426 1
R05  21159626.578 1 113110300.605 1        36.000                                                  
R15  20869871.632 1 111522277.342 1        38.000                                                  
R16  20135365.157 1 107559655.165 1        52.000    20135372.913 1  83657421.203 1        40.000  
E12  25465146.701 1 133820230.133 1        40.000  
E19  24298150.563 1 127687647.585 1        39.000  
E21  25749755.117 1 135315907.970 1        33.000  
C01  37821114.685 1 196944476.896 1        42.000                                                  
C02  38323427.824 1 199560151.758 1        39.000    38323425.429 1 154312564.304 1        31.000  
C03  37204287.324 1 193732493.691 1        43.000    37204288.432 1 149806247.683 1        32.000  
C04  38786313.517 1 201970502.891 1        37.000                                                  
C05  39958102.341 1 208072337.200 1        31.000                                                  
C06  36158583.666 1 188287324.331 1        45.000    36158581.825 1 145595625.125 1        34.000  
C08  35997062.226 1 187446148.892 1        46.000    35997058.813 1 144945245.379 1        31.000  
C09  37359513.578 1 194540811.721 1        42.000    37359515.991 1 150431290.247 1        32.000  
C13  35816190.081 1 186504293.675 1        50.000    35816195.174 1 144216973.453 1        32.000  
C14  21711523.378 1 113057603.908 1        43.000    21711523.521 1  87423320.600 1        35.000  
C16  36391154.450 1 189498296.710 1        46.000    36391159.185 1 146532117.957 1        30.000  
C24  22194981.695 1 115575098.600 1        51.000                                                  
C26  23316567.338 1 121415521.153 1        39.000                                                  
> 2023 08 04 09 50 03.2000000  0 22                     
G12  23192125.104 1 121875444.719 1        33.000    23192128.821 1  94967883.721 1         7.000                  
G23  20199551.742 1 106149378.655 1        50.000    20199553.100 1  82713790.047 1        37.000    20199552.457 1
G24  20944591.202 1 110064602.898 1        42.000    20944594.079 1  85764608.439 1        32.000    20944594.472 1
R05  21159662.244 1 113110491.412 1        36.000                                                  
R15  20869905.977 1 111522461.464 1        38.000                                                  
R16  20135321.057 1 107559419.730 1        52.000    20135328.776 1  83657238.086 1        40.000  
E12  25465189.908 1 133820457.156 1        40.000  
E19  24298162.535 1 127687710.506 1        39.000  
E21  25749721.291 1 135315730.594 1        33.000  
C01  37821115.811 1 196944482.964 1        42.000                                                  
C02  38323428.253 1 199560153.979 1        38.000    38323425.876 1 154312566.011 1        31.000  
C03  37204288.271 1 193732498.672 1        43.000    37204289.343 1 149806251.557 1        33.000  
C04  38786314.232 1 201970506.668 1        37.000                                                  
C05  39958102.395 1 208072337.037 1        31.000                                                  
C06  36158577.679 1 188287293.264 1        45.000    36158575.767 1 145595601.075 1        34.000  
C08  35997077.146 1 187446226.555 1        46.000    35997073.590 1 144945305.402 1        31.000  
C09  37359505.144 1 194540767.520 1        42.000    37359507.503 1 150431256.041 1        32.000  
C13  35816199.212 1 186504341.225 1        50.000    35816204.358 1 144217010.227 1        32.000  
C14  21711527.148 1 113057623.559 1        43.000    21711527.380 1  87423335.797 1        35.000  
C16  36391150.983 1 189498278.464 1        46.000    36391155.557 1 146532103.839 1        30.000  
C24  22194953.873 1 115574953.814 1        51.000                                                  
C26  23316596.322 1 121415672.288 1        39.000                                                  
> 2023 08 04 09 50 03.3000000  0 22                     
G12  23192075.392 1 121875183.840 1        33.000    23192079.180 1  94967686.125 1        24.000    23192077.840 1
G23  20199564.072 1 106149443.495 1        50.000    20199565.430 1  82713840.565 1        37.000    20199564.787 1
G24  20944633.194 1 110064823.597 1        41.000    20944636.071 1  85764780.417 1        32.000    20944636.500 1
R05  21159697.911 1 113110682.279 1        36.000                                                  
R15  20869940.446 1 111522645.628 1        38.000                                                  
R16  20135276.974 1 107559184.343 1        52.000    20135284.765 1  83657055.021 1        40.000  
E12  25465233.080 1 133820684.207 1        40.000  
E19  24298174.490 1 127687773.461 1        39.000  
E21  25749687.572 1 135315553.254 1        33.000  
C01  37821116.973 1 196944489.076 1        42.000                                                  
C02  38323428.699 1 199560156.253 1        38.000    38323426.323 1 154312567.751 1        31.000  
C03  37204289.182 1 193732503.714 1        43.000    37204290.219 1 149806255.442 1        33.000  
C04  38786314.946 1 201970510.471 1        37.000                                                  
C05  39958102.359 1 208072336.918 1        31.000                                                  
C06  36158571.711 1 188287262.230 1        45.000    36158569.889 1 145595577.102 1        34.000  
C08  35997092.067 1 187446304.257 1        45.000    35997088.422 1 144945365.506 1        32.000  
C09  37359496.639 1 194540723.363 1        42.000    37359499.087 1 150431221.893 1        32.000  
C13  35816208.361 1 186504388.826 1        50.000    35816213.382 1 144217047.028 1        32.000  
C14  21711530.954 1 113057643.250 1        43.000    21711531.187 1  87423351.028 1        35.000  
C16  36391147.516 1 189498260.267 1        46.000    36391152.180 1 146532089.763 1        30.000  
C24  22194926.104 1 115574809.071 1        51.000                                                  
C26  23316625.395 1 121415823.471 1        39.000                                                  
> 2023 08 04 09 50 03.4000000  0 22                     
G12  23192025.698 1 121874922.942 1        33.000    23192029.522 1  94967477.151 1         7.000                  
G23  20199576.419 1 106149508.319 1        50.000    20199577.777 1  82713891.068 1        37.000    20199577.223 1
G24  20944675.151 1 110065044.283 1        42.000    20944678.063 1  85764952.389 1        32.000    20944678.510 1
R05  21159733.631 1 113110873.123 1        36.000                                                  
R15  20869974.969 1 111522829.765 1        38.000                                                  
R16  20135232.873 1 107558948.937 1        52.000    20135240.664 1  83656871.930 1        40.000  
E12  25465276.269 1 133820911.257 1        40.000  
E19  24298186.462 1 127687836.382 1        39.000  
E21  25749653.800 1 135315375.902 1        32.000  
C01  37821118.152 1 196944495.159 1        42.000                                                  
C02  38323429.146 1 199560158.486 1        38.000    38323426.787 1 154312569.451 1        31.000  
C03  37204290.165 1 193732508.730 1        43.000    37204291.219 1 149806259.337 1        33.000  
C04  38786315.715 1 201970514.280 1        37.000                                                  
C05  39958102.252 1 208072336.807 1        31.000                                                  
C06  36158565.725 1 188287231.169 1        45.000    36158563.831 1 145595553.086 1        34.000  
C08  35997107.005 1 187446381.935 1        45.000    35997103.324 1 144945425.574 1        32.000  
C09  37359488.115 1 194540679.185 1        42.000    37359490.706 1 150431187.735 1        32.000  
C13  35816217.510 1 186504436.403 1        50.000    35816222.549 1 144217083.795 1        32.000  
C14  21711534.743 1 113057662.933 1        43.000    21711534.975 1  87423366.239 1        35.000  
C16  36391144.014 1 189498242.038 1        46.000    36391148.589 1 146532075.672 1        30.000  
C24  22194898.300 1 115574664.316 1        51.000                                                  
C26  23316654.468 1 121415974.638 1        39.000                                                  
> 2023 08 04 09 50 03.5000000  0 22                     
G12  23191976.201 1 121874662.072 1        33.000    23191979.882 1  94967279.681 1        23.000    23191978.471 1
G23  20199588.767 1 106149573.136 1        50.000    20199590.107 1  82713941.597 1        37.000    20199589.589 1
G24  20944717.161 1 110065264.968 1        41.000    20944720.056 1  85765124.319 1        32.000    20944720.627 1
R05  21159769.172 1 113111063.942 1        36.000                                                  
R15  20870009.528 1 111523013.917 1        39.000                                                  
R16  20135188.772 1 107558713.529 1        52.000    20135196.563 1  83656688.821 1        40.000  
E12  25465319.441 1 133821138.292 1        40.000  
E19  24298198.434 1 127687899.299 1        39.000  
E21  25749620.117 1 135315198.564 1        32.000  
C01  37821119.313 1 196944501.242 1        42.000                                                  
C02  38323429.628 1 199560160.734 1        39.000    38323427.198 1 154312571.207 1        31.000  
C03  37204291.130 1 193732513.743 1        43.000    37204292.166 1 149806263.193 1        33.000  
C04  38786316.465 1 201970518.052 1        37.000                                                  
C05  39958102.109 1 208072336.604 1        31.000                                                  
C06  36158559.775 1 188287200.111 1        45.000    36158557.809 1 145595529.070 1        34.000  
C08  35997121.908 1 187446459.619 1        46.000    35997118.281 1 144945485.635 1        32.000  
C09  37359479.592 1 194540635.001 1        42.000    37359482.236 1 150431153.567 1        32.000  
C13  35816226.641 1 186504483.965 1        50.000    35816231.537 1 144217120.589 1        32.000  
C14  21711538.531 1 113057682.607 1        43.000    21711538.727 1  87423381.466 1        35.000  
C16  36391140.512 1 189498223.815 1        46.000    36391144.854 1 146532061.574 1        30.000  
C24  22194870.514 1 115574519.555 1        51.000                                                  
C26  23316683.416 1 121416125.804 1        39.000                                                  
> 2023 08 04 09 50 03.6000000  0 22                     
G12  23191926.490 1 121874401.191 1        33.000    23191930.242 1  94967076.262 1        24.000    23191928.938 1
G23  20199601.114 1 106149637.963 1        50.000    20199602.437 1  82713992.096 1        37.000    20199601.936 1
G24  20944759.171 1 110065485.650 1        42.000    20944762.048 1  85765296.311 1        32.000    20944762.691 1
R05  21159804.732 1 113111254.795 1        36.000                                                  
R15  20870044.015 1 111523198.084 1        39.000                                                  
R16  20135144.672 1 107558478.136 1        52.000    20135152.480 1  83656505.740 1        40.000  
E12  25465362.648 1 133821365.333 1        40.000  
E19  24298210.406 1 127687962.240 1        39.000  
E21  25749586.452 1 135315021.209 1        32.000  
C01  37821120.439 1 196944507.331 1        42.000                                                  
C02  38323430.111 1 199560162.976 1        39.000    38323427.663 1 154312572.945 1        31.000  
C03  37204292.095 1 193732518.733 1        43.000    37204293.113 1 149806267.069 1        33.000  
C04  38786317.216 1 201970521.811 1        37.000                                                  
C05  39958102.020 1 208072336.502 1        31.000                                                  
C06  36158553.806 1 188287169.065 1        45.000    36158551.894 1 145595505.056 1        34.000  
C08  35997136.829 1 187446537.306 1        46.000    35997133.148 1 144945545.721 1        32.000  
C09  37359471.104 1 194540590.821 1        42.000    37359473.766 1 150431119.451 1        32.000  
C13  35816235.772 1 186504531.533 1        50.000    35816240.757 1 144217157.358 1        32.000  
C14  21711542.319 1 113057702.284 1        43.000    21711542.623 1  87423396.664 1        35.000  
C16  36391137.009 1 189498205.589 1        46.000    36391141.566 1 146532047.499 1        30.000  
C24  22194842.728 1 115574374.801 1        51.000                                                  
C26  23316712.471 1 121416276.962 1        39.000                                                  
> 2023 08 04 09 50 03.7000000  0 22                     
G12  23191876.832 1 121874140.351 1        33.000    23191880.602 1  94966873.025 1        24.000    23191879.012 1
G23  20199613.444 1 106149702.818 1        50.000    20199614.766 1  82714042.637 1        37.000    20199614.320 1
G24  20944801.199 1 110065706.370 1        42.000    20944804.040 1  85765468.281 1        32.000    20944804.594 1
R05  21159840.470 1 113111445.674 1        36.000                                                  
R15  20870078.484 1 111523382.269 1        39.000                                                  
R16  20135100.589 1 107558242.772 1        52.000    20135108.415 1  83656322.682 1        40.000  
E12  25465405.837 1 133821592.404 1        40.000  
E19  24298222.450 1 127688025.178 1        39.000  
E21  25749552.679 1 135314843.904 1        32.000  
C01  37821121.636 1 196944513.438 1        42.000                                                  
C02  38323430.504 1 199560165.221 1        39.000    38323428.110 1 154312574.685 1        31.000  
C03  37204293.060 1 193732523.761 1        43.000    37204294.042 1 149806270.959 1        33.000  
C04  38786317.966 1 201970525.629 1        37.000                                                  
C05  39958102.002 1 208072336.368 1        31.000                                                  
C06  36158547.874 1 188287138.030 1        45.000    36158545.980 1 145595481.085 1        34.000  
C08  35997151.731 1 187446615.013 1        46.000    35997148.301 1 144945605.791 1        32.000  
C09  37359462.598 1 194540546.663 1        42.000    37359465.314 1 150431085.281 1        32.000  
C13  35816244.903 1 186504579.133 1        50.000    35816249.978 1 144217194.195 1        32.000  
C14  21711546.107 1 113057721.987 1        43.000    21711546.250 1  87423411.897 1        35.000  
C16  36391133.525 1 189498187.381 1        46.000    36391138.082 1 146532033.414 1        30.000  
C24  22194814.923 1 115574230.072 1        51.000                                                  
C26  23316741.526 1 121416428.174 1        39.000                                                  
> 2023 08 04 09 50 03.8000000  0 22                     
G12  23191827.299 1 121873879.455 1        33.000    23191830.962 1  94966669.824 1        24.000    23191829.246 1
G23  20199625.791 1 106149767.651 1        50.000    20199627.114 1  82714093.134 1        37.000    20199626.721 1
G24  20944843.155 1 110065927.059 1        42.000    20944846.032 1  85765640.239 1        32.000    20944846.586 1
R05  21159876.512 1 113111636.520 1        36.000                                                  
R15  20870112.900 1 111523566.442 1        39.000                                                  
R16  20135056.488 1 107558007.388 1        52.000    20135064.261 1  83656139.612 1        40.000  
E12  25465449.063 1 133821819.454 1        40.000  
E19  24298234.422 1 127688088.099 1        39.000  
E21  25749518.943 1 135314666.543 1        32.000  
C01  37821122.816 1 196944519.515 1        42.000                                                  
C02  38323430.933 1 199560167.445 1        39.000    38323428.485 1 154312576.414 1        31.000  
C03  37204293.971 1 193732528.771 1        43.000    37204295.007 1 149806274.813 1        33.000  
C04  38786318.735 1 201970529.415 1        37.000                                                  
C05  39958102.020 1 208072336.211 1        30.000                                                  
C06  36158541.906 1 188287106.966 1        45.000    36158540.065 1 145595457.027 1        34.000  
C08  35997166.670 1 187446692.689 1        46.000    35997163.400 1 144945665.866 1        32.000  
C09  37359454.164 1 194540502.471 1        42.000    37359457.023 1 150431051.111 1        32.000  
C13  35816254.070 1 186504626.705 1        50.000    35816259.020 1 144217230.998 1        32.000  
C14  21711549.895 1 113057741.661 1        43.000    21711550.110 1  87423427.121 1        36.000  
C16  36391130.058 1 189498169.158 1        46.000    36391134.454 1 146532019.323 1        30.000  
C24  22194787.155 1 115574085.326 1        51.000                                                  
C26  23316770.616 1 121416579.338 1        39.000                                                  
> 2023 08 04 09 50 03.9000000  0 22                     
G12  23191777.712 1 121873618.567 1        33.000    23191781.304 1  94966460.769 1         8.000                  
G23  20199638.139 1 106149832.462 1        50.000    20199639.443 1  82714143.651 1        37.000    20199639.050 1
G24  20944885.219 1 110066147.726 1        42.000    20944888.024 1  85765812.203 1        32.000    20944888.703 1
R05  21159912.285 1 113111827.342 1        35.000                                                  
R15  20870147.405 1 111523750.588 1        39.000                                                  
R16  20135012.387 1 107557771.980 1        52.000    20135020.089 1  83655956.514 1        40.000  
E12  25465492.234 1 133822046.477 1        40.000  
E19  24298246.359 1 127688151.002 1        39.000  
E21  25749485.295 1 135314489.191 1        32.000  
C01  37821123.995 1 196944525.572 1        42.000                                                  
C02  38323431.326 1 199560169.638 1        39.000    38323428.878 1 154312578.114 1        31.000  
C03  37204294.954 1 193732533.740 1        43.000    37204296.062 1 149806278.667 1        33.000  
C04  38786319.467 1 201970533.166 1        37.000                                                  
C05  39958101.966 1 208072336.025 1        30.000                                                  
C06  36158535.920 1 188287075.876 1        45.000    36158534.025 1 145595432.997 1        34.000  
C08  35997181.555 1 187446770.338 1        46.000    35997178.088 1 144945725.905 1        32.000  
C09  37359445.694 1 194540458.273 1        42.000    37359448.678 1 150431016.916 1        32.000  
C13  35816263.201 1 186504674.247 1        50.000    35816268.169 1 144217267.693 1        32.000  
C14  21711553.684 1 113057761.309 1        43.000    21711553.862 1  87423442.303 1        36.000  
C16  36391126.574 1 189498150.897 1        46.000    36391131.041 1 146532005.173 1        30.000  
C24  22194759.351 1 115573940.554 1        51.000                                                  
C26  23316799.582 1 121416730.493 1        39.000                                                  
> 2023 08 04 09 50 04.0000000  0 22                     
G12  23191728.018 1 121873357.713 1        33.000    23191731.664 1  94966263.159 1        24.000    23191730.466 1
G23  20199650.469 1 106149897.313 1        50.000    20199651.773 1  82714194.189 1        37.000    20199651.398 1
G24  20944927.247 1 110066368.438 1        42.000    20944930.017 1  85765984.212 1        32.000    20944930.696 1
R05  21159947.881 1 113112018.213 1        35.000                                                  
R15  20870181.856 1 111523934.775 1        39.000                                                  
R16  20134968.286 1 107557536.616 1        52.000    20134976.042 1  83655773.444 1        40.000  
E12  25465535.424 1 133822273.539 1        40.000  
E19  24298258.349 1 127688213.937 1        39.000  
E21  25749451.612 1 135314311.874 1        32.000  
C01  37821125.103 1 196944531.658 1        42.000                                                  
C02  38323431.755 1 199560171.897 1        39.000    38323429.414 1 154312579.845 1        31.000  
C03  37204295.865 1 193732538.750 1        43.000    37204297.152 1 149806282.525 1        33.000  
C04  38786320.200 1 201970536.949 1        37.000                                                  
C05  39958101.877 1 208072335.883 1        30.000                                                  
C06  36158529.969 1 188287044.830 1        45.000    36158528.039 1 145595409.013 1        34.000  
C08  35997196.493 1 187446848.028 1        46.000    35997193.134 1 144945786.006 1        32.000  
C09  37359437.242 1 194540414.098 1        42.000    37359440.280 1 150430982.750 1        32.000  
C13  35816272.314 1 186504721.829 1        50.000    35816277.443 1 144217304.478 1        32.000  
C14  21711557.490 1 113057780.995 1        43.000    21711557.686 1  87423457.550 1        36.000  
C16  36391123.054 1 189498132.683 1        46.000    36391127.378 1 146531991.093 1        30.000  
C24  22194731.582 1 115573795.826 1        51.000                                                  
C26  23316828.566 1 121416881.685 1        39.000                                                  
> 2023 08 04 09 50 04.1000000  0 22                     
G12  23191678.164 1 121873096.837 1        33.000    23191682.023 1  94966054.226 1         8.000                  
G23  20199662.798 1 106149962.167 1        50.000    20199664.121 1  82714244.718 1        37.000    20199663.638 1
G24  20944969.221 1 110066589.146 1        42.000    20944972.009 1  85766156.190 1        32.000    20944972.652 1
R05  21159983.744 1 113112209.077 1        35.000                                                  
R15  20870216.308 1 111524118.978 1        39.000                                                  
R16  20134924.204 1 107557301.256 1        52.000    20134932.066 1  83655590.396 1        40.000  
E12  25465578.649 1 133822500.592 1        40.000  
E19  24298270.339 1 127688276.866 1        39.000  
E21  25749417.947 1 135314134.539 1        32.000  
C01  37821126.247 1 196944537.735 1        42.000                                                  
C02  38323432.184 1 199560174.142 1        39.000    38323429.843 1 154312581.563 1        31.000  
C03  37204296.830 1 193732543.760 1        43.000    37204298.045 1 149806286.402 1        33.000  
C04  38786320.897 1 201970540.715 1        37.000                                                  
C05  39958101.734 1 208072335.688 1        30.000                                                  
C06  36158524.019 1 188287013.784 1        45.000    36158522.286 1 145595384.977 1        34.000  
C08  35997211.414 1 187446925.720 1        46.000    35997208.072 1 144945846.063 1        32.000  
C09  37359428.772 1 194540369.917 1        42.000    37359431.846 1 150430948.594 1        32.000  
C13  35816281.463 1 186504769.409 1        50.000    35816286.717 1 144217341.315 1        32.000  
C14  21711561.260 1 113057800.683 1        43.000    21711561.546 1  87423472.750 1        36.000  
C16  36391119.587 1 189498114.460 1        46.000    36391124.001 1 146531977.018 1        30.000  
C24  22194703.796 1 115573651.100 1        51.000                                                  
C26  23316857.621 1 121417032.883 1        39.000                                                  
> 2023 08 04 09 50 04.2000000  0 22                     
G12  23191628.452 1 121872836.000 1        33.000    23191632.383 1  94965856.687 1        25.000    23191630.847 1
G23  20199675.146 1 106150027.059 1        50.000    20199676.450 1  82714295.293 1        37.000    20199675.914 1
G24  20945011.213 1 110066809.887 1        42.000    20945014.019 1  85766328.166 1        32.000    20945014.716 1
R05  21160019.482 1 113112399.959 1        35.000                                                  
R15  20870250.777 1 111524303.219 1        38.000                                                  
R16  20134880.103 1 107557065.934 1        52.000    20134888.019 1  83655407.365 1        40.000  
E12  25465621.892 1 133822727.695 1        40.000  
E19  24298282.293 1 127688339.827 1        39.000  
E21  25749384.246 1 135313957.222 1        32.000  
C01  37821127.372 1 196944543.847 1        42.000                                                  
C02  38323432.648 1 199560176.404 1        39.000    38323430.200 1 154312583.351 1        31.000  
C03  37204297.777 1 193732548.788 1        43.000    37204299.117 1 149806290.309 1        33.000  
C04  38786321.647 1 201970544.533 1        37.000                                                  
C05  39958101.626 1 208072335.592 1        30.000                                                  
C06  36158518.051 1 188286982.761 1        45.000    36158516.299 1 145595361.008 1        34.000  
C08  35997226.352 1 187447003.442 1        46.000    35997223.011 1 144945906.131 1        32.000  
C09  37359420.249 1 194540325.766 1        42.000    37359423.197 1 150430914.464 1        32.000  
C13  35816290.612 1 186504817.018 1        50.000    35816295.740 1 144217378.127 1        32.000  
C14  21711564.995 1 113057820.421 1        43.000    21711565.245 1  87423488.017 1        36.000  
C16  36391116.085 1 189498096.263 1        46.000    36391120.409 1 146531962.954 1        31.000  
C24  22194676.010 1 115573506.401 1        51.000                                                  
C26  23316886.711 1 121417184.111 1        39.000                                                  
> 2023 08 04 09 50 04.3000000  0 22                     
G12  23191578.723 1 121872575.133 1        33.000    23191582.743 1  94965653.385 1        25.000    23191580.813 1
G23  20199687.475 1 106150091.917 1        50.000    20199688.798 1  82714345.824 1        37.000    20199688.279 1
G24  20945053.259 1 110067030.596 1        42.000    20945056.011 1  85766500.161 1        32.000    20945056.994 1
R05  21160055.291 1 113112590.814 1        35.000                                                  
R15  20870285.300 1 111524487.428 1        39.000                                                  
R16  20134836.038 1 107556830.582 1        52.000    20134844.007 1  83655224.312 1        40.000  
E12  25465665.081 1 133822954.757 1        40.000  
E19  24298294.301 1 127688402.766 1        39.000  
E21  25749350.563 1 135313779.905 1        32.000  
C01  37821128.534 1 196944549.924 1        42.000                                                  
C02  38323433.167 1 199560178.637 1        39.000    38323430.647 1 154312585.066 1        31.000  
C03  37204298.742 1 193732553.786 1        43.000    37204300.046 1 149806294.157 1        33.000  
C04  38786322.362 1 201970548.310 1        37.000                                                  
C05  39958101.555 1 208072335.455 1        30.000                                                  
C06  36158512.064 1 188286951.703 1        45.000    36158510.260 1 145595336.983 1        34.000  
C08  35997241.255 1 187447081.129 1        46.000    35997237.860 1 144945966.237 1        32.000  
C09  37359411.743 1 194540281.585 1        42.000    37359414.513 1 150430880.308 1        32.000  
C13  35816299.761 1 186504864.589 1        50.000    35816304.907 1 144217414.923 1        32.000  
C14  21711568.819 1 113057840.098 1        43.000    21711569.140 1  87423503.234 1        36.000  
C16  36391112.600 1 189498078.034 1        46.000    36391116.817 1 146531948.844 1        30.000  
C24  22194648.241 1 115573361.675 1        51.000                                                  
C26  23316915.695 1 121417335.297 1        39.000                                                  
> 2023 08 04 09 50 04.4000000  0 22                     
G12  23191529.083 1 121872314.296 1        33.000    23191533.121 1  94965450.215 1        24.000    23191531.227 1
G23  20199699.823 1 106150156.791 1        50.000    20199701.145 1  82714396.380 1        37.000    20199700.645 1
G24  20945095.269 1 110067251.334 1        42.000    20945098.021 1  85766672.171 1        32.000    20945099.218 1
R05  21160091.029 1 113112781.672 1        35.000                                                  
R15  20870319.805 1 111524671.646 1        39.000                                                  
R16  20134791.973 1 107556595.249 1        52.000    20134799.960 1  83655041.272 1        40.000  
E12  25465708.288 1 133823181.824 1        40.000  
E19  24298306.256 1 127688465.715 1        39.000  
E21  25749316.808 1 135313602.612 1        32.000  
C01  37821129.624 1 196944556.010 1        42.000                                                  
C02  38323433.613 1 199560180.870 1        39.000    38323431.094 1 154312586.818 1        31.000  
C03  37204299.707 1 193732558.802 1        43.000    37204301.154 1 149806298.042 1        32.000  
C04  38786323.095 1 201970552.107 1        37.000                                                  
C05  39958101.519 1 208072335.298 1        30.000                                                  
C06  36158506.114 1 188286920.657 1        45.000    36158504.399 1 145595312.985 1        34.000  
C08  35997256.176 1 187447158.830 1        46.000    35997252.781 1 144946026.294 1        31.000  
C09  37359403.237 1 194540237.413 1        42.000    37359405.989 1 150430846.140 1        32.000  
C13  35816308.892 1 186504912.178 1        50.000    35816314.092 1 144217451.706 1        32.000  
C14  21711572.661 1 113057859.798 1        43.000    21711572.875 1  87423518.466 1        36.000  
C16  36391109.098 1 189498059.817 1        46.000    36391113.297 1 146531934.769 1        30.000  
C24  22194620.437 1 115573216.964 1        51.000                                                  
C26  23316944.714 1 121417486.513 1        39.000                                                  
> 2023 08 04 09 50 04.5000000  0 22                     
G12  23191479.460 1 121872053.421 1        33.000    23191483.463 1  94965241.170 1         8.000                  
G23  20199712.170 1 106150221.652 1        50.000    20199713.475 1  82714446.909 1        37.000    20199713.028 1
G24  20945137.297 1 110067472.040 1        42.000    20945140.013 1  85766844.170 1        32.000    20945141.246 1
R05  21160126.982 1 113112972.534 1        35.000                                                  
R15  20870354.328 1 111524855.863 1        39.000                                                  
R16  20134747.908 1 107556359.900 1        52.000    20134755.895 1  83654858.239 1        40.000  
E12  25465751.496 1 133823408.883 1        40.000  
E19  24298318.264 1 127688528.645 1        39.000  
E21  25749283.000 1 135313425.274 1        32.000  
C01  37821130.821 1 196944562.085 1        42.000                                                  
C02  38323434.006 1 199560183.095 1        38.000    38323431.576 1 154312588.513 1        31.000  
C03  37204300.672 1 193732563.786 1        43.000    37204302.066 1 149806301.905 1        32.000  
C04  38786323.827 1 201970555.867 1        37.000                                                  
C05  39958101.555 1 208072335.147 1        30.000                                                  
C06  36158500.128 1 188286889.596 1        45.000    36158498.359 1 145595288.935 1        34.000  
C08  35997271.114 1 187447236.509 1        46.000    35997267.755 1 144946086.389 1        32.000  
C09  37359394.767 1 194540193.221 1        42.000    37359397.412 1 150430811.956 1        32.000  
C13  35816318.023 1 186504959.749 1        50.000    35816323.134 1 144217488.488 1        32.000  
C14  21711576.449 1 113057879.487 1        43.000    21711576.753 1  87423533.697 1        36.000  
C16  36391105.596 1 189498041.582 1        46.000    36391109.670 1 146531920.653 1        30.000  
C24  22194592.651 1 115573072.235 1        51.000                                                  
C26  23316973.716 1 121417637.706 1        39.000                                                  
> 2023 08 04 09 50 04.6000000  0 22                     
G12  23191429.874 1 121871792.554 1        33.000    23191433.823 1  94965043.624 1        25.000    23191432.179 1
G23  20199724.500 1 106150286.506 1        50.000    20199725.822 1  82714497.450 1        37.000    20199725.393 1
G24  20945179.272 1 110067692.749 1        41.000    20945182.006 1  85767016.126 1        32.000    20945183.185 1
R05  21160162.970 1 113113163.380 1        35.000                                                  
R15  20870388.744 1 111525040.081 1        39.000                                                  
R16  20134703.807 1 107556124.545 1        52.000    20134711.759 1  83654675.170 1        40.000  
E12  25465794.685 1 133823635.921 1        40.000  
E19  24298330.218 1 127688591.559 1        39.000  
E21  25749249.210 1 135313247.913 1        32.000  
C01  37821131.965 1 196944568.133 1        42.000                                                  
C02  38323434.400 1 199560185.308 1        39.000    38323432.023 1 154312590.220 1        31.000  
C03  37204301.619 1 193732568.758 1        43.000    37204302.995 1 149806305.727 1        32.000  
C04  38786324.506 1 201970559.615 1        37.000                                                  
C05  39958101.573 1 208072334.938 1        30.000                                                  
C06  36158494.142 1 188286858.523 1        45.000    36158492.534 1 145595264.942 1        34.000  
C08  35997286.035 1 187447314.181 1        46.000    35997282.425 1 144946146.452 1        32.000  
C09  37359386.315 1 194540149.028 1        42.000    37359388.924 1 150430777.779 1        32.000  
C13  35816327.154 1 186505007.312 1        50.000    35816332.265 1 144217525.264 1        32.000  
C14  21711580.183 1 113057899.166 1        43.000    21711580.416 1  87423548.892 1        36.000  
C16  36391102.111 1 189498023.330 1        46.000    36391106.132 1 146531906.560 1        30.000  
C24  22194564.882 1 115572927.507 1        51.000                                                  
C26  23317002.753 1 121417788.907 1        39.000                                                  
> 2023 08 04 09 50 04.7000000  0 22                     
G12  23191380.269 1 121871531.699 1        33.000    23191384.183 1  94964840.351 1        25.000    23191382.288 1
G23  20199736.830 1 106150351.366 1        50.000    20199738.152 1  82714548.001 1        37.000    20199737.812 1
G24  20945221.300 1 110067913.466 1        41.000    20945224.016 1  85767188.130 1        32.000    20945225.195 1
R05  21160198.905 1 113113354.232 1        35.000                                                  
R15  20870423.106 1 111525224.290 1        39.000                                                  
R16  20134659.706 1 107555889.206 1        52.000    20134667.712 1  83654492.139 1        40.000  
E12  25465837.910 1 133823862.986 1        40.000  
E19  24298342.137 1 127688654.474 1        39.000  
E21  25749215.527 1 135313070.582 1        32.000  
C01  37821133.126 1 196944574.201 1        42.000                                                  
C02  38323434.846 1 199560187.523 1        39.000    38323432.541 1 154312591.951 1        31.000  
C03  37204302.548 1 193732573.739 1        43.000    37204304.013 1 149806309.601 1        32.000  
C04  38786325.185 1 201970563.378 1        37.000                                                  
C05  39958101.609 1 208072334.789 1        30.000                                                  
C06  36158488.191 1 188286827.442 1        45.000    36158486.601 1 145595240.917 1        34.000  
C08  35997300.956 1 187447391.859 1        46.000    35997297.257 1 144946206.498 1        31.000  
C09  37359377.810 1 194540104.830 1        42.000    37359380.383 1 150430743.607 1        32.000  
C13  35816336.303 1 186505054.874 1        50.000    35816341.503 1 144217562.034 1        32.000  
C14  21711583.972 1 113057918.837 1        43.000    21711584.186 1  87423564.119 1        36.000  
C16  36391098.609 1 189498005.084 1        46.000    36391102.683 1 146531892.455 1        30.000  
C24  22194537.096 1 115572782.787 1        51.000                                                  
C26  23317031.808 1 121417940.096 1        39.000                                                  
> 2023 08 04 09 50 04.8000000  0 22                     
G12  23191330.647 1 121871270.839 1        33.000    23191334.542 1  94964631.365 1         7.000                  
G23  20199749.159 1 106150416.261 1        50.000    20199750.499 1  82714598.576 1        37.000    20199750.178 1
G24  20945263.363 1 110068134.213 1        41.000    20945266.026 1  85767360.122 1        32.000    20945267.116 1
R05  21160234.857 1 113113545.088 1        35.000                                                  
R15  20870457.754 1 111525408.549 1        39.000                                                  
R16  20134615.641 1 107555653.896 1        52.000    20134623.647 1  83654309.123 1        40.000  
E12  25465881.082 1 133824090.056 1        40.000  
E19  24298354.091 1 127688717.409 1        39.000  
E21  25749181.772 1 135312893.297 1        32.000  
C01  37821134.270 1 196944580.273 1        42.000                                                  
C02  38323435.329 1 199560189.751 1        38.000    38323432.952 1 154312593.638 1        31.000  
C03  37204303.495 1 193732578.741 1        43.000    37204304.853 1 149806313.475 1        32.000  
C04  38786325.864 1 201970567.158 1        37.000                                                  
C05  39958101.680 1 208072334.670 1        30.000                                                  
C06  36158482.223 1 188286796.393 1        45.000    36158480.740 1 145595216.869 1        34.000  
C08  35997315.894 1 187447469.558 1        46.000    35997312.160 1 144946266.602 1        32.000  
C09  37359369.304 1 194540060.647 1        42.000    37359371.966 1 150430709.455 1        32.000  
C13  35816345.434 1 186505102.457 1        50.000    35816350.706 1 144217598.852 1        32.000  
C14  21711587.760 1 113057938.549 1        43.000    21711588.028 1  87423579.370 1        36.000  
C16  36391095.160 1 189497986.867 1        46.000    36391099.091 1 146531878.337 1        30.000  
C24  22194509.309 1 115572638.088 1        51.000                                                  
C26  23317060.774 1 121418091.315 1        39.000                                                  
> 2023 08 04 09 50 04.9000000  0 22                     
G12  23191280.703 1 121871007.504 1        33.000    23191284.438 1  94964426.174 1         7.000                  
G23  20199761.042 1 106150478.662 1        50.000    20199762.364 1  82714647.182 1        37.000    20199762.061 1
G24  20945304.927 1 110068352.459 1        41.000    20945307.553 1  85767530.193 1        32.000    20945308.661 1
R05  21160270.345 1 113113733.435 1        35.000                                                  
R15  20870491.795 1 111525590.266 1        39.000                                                  
R16  20134571.076 1 107555416.054 1        52.000    20134579.081 1  83654124.134 1        40.000  
E12  25465923.771 1 133824314.642 1        40.000  
E19  24298365.581 1 127688777.850 1        39.000  
E21  25749147.499 1 135312713.509 1        32.000  
C01  37821134.949 1 196944583.872 1        42.000                                                  
C02  38323435.293 1 199560189.524 1        38.000    38323432.845 1 154312593.485 1        31.000  
C03  37204303.960 1 193732581.276 1        43.000    37204305.264 1 149806315.436 1        32.000  
C04  38786326.025 1 201970568.455 1        37.000                                                  
C05  39958101.251 1 208072332.012 1        30.000                                                  
C06  36158475.790 1 188286762.869 1        45.000    36158474.182 1 145595190.963 1        34.000  
C08  35997330.350 1 187447544.779 1        46.000    35997326.866 1 144946324.727 1        31.000  
C09  37359360.352 1 194540014.006 1        42.000    37359363.050 1 150430673.374 1        32.000  
C13  35816354.083 1 186505147.574 1        50.000    35816359.301 1 144217633.704 1        32.000  
C14  21711591.048 1 113057955.789 1        43.000    21711591.423 1  87423592.697 1        36.000  
C16  36391091.193 1 189497966.172 1        46.000    36391094.981 1 146531862.348 1        30.000  
C24  22194481.059 1 115572490.920 1        51.000                                                  
C26  23317089.346 1 121418240.080 1        39.000                                                  
> 2023 08 04 09 50 05.0000000  0 22                     
G12  23191230.634 1 121870744.378 1        33.000    23191234.369 1  94964226.888 1        24.000    23191232.886 1
G23  20199772.961 1 106150541.266 1        50.000    20199774.283 1  82714695.957 1        37.000    20199774.033 1
G24  20945346.490 1 110068570.903 1        41.000    20945349.117 1  85767700.402 1        32.000    20945350.332 1
R05  21160305.851 1 113113921.980 1        35.000                                                  
R15  20870525.853 1 111525772.198 1        39.000                                                  
R16  20134526.564 1 107555178.417 1        52.000    20134534.605 1  83653939.306 1        40.000  
E12  25465966.532 1 133824539.435 1        40.000  
E19  24298377.124 1 127688838.502 1        39.000  
E21  25749113.369 1 135312533.891 1        32.000  
C01  37821135.699 1 196944587.682 1        42.000                                                  
C02  38323435.311 1 199560189.474 1        38.000    38323432.881 1 154312593.458 1        31.000  
C03  37204304.478 1 193732584.001 1        43.000    37204305.818 1 149806317.527 1        33.000  
C04  38786326.293 1 201970569.955 1        37.000                                                  
C05  39958100.554 1 208072329.593 1        30.000                                                  
C06  36158469.375 1 188286729.540 1        45.000    36158467.839 1 145595165.179 1        34.000  
C08  35997344.842 1 187447620.204 1        46.000    35997341.411 1 144946383.075 1        31.000  
C09  37359351.435 1 194539967.557 1        42.000    37359354.115 1 150430637.463 1        32.000  
C13  35816362.785 1 186505192.886 1        50.000    35816368.146 1 144217668.780 1        32.000  
C14  21711594.407 1 113057973.227 1        43.000    21711594.836 1  87423606.163 1        36.000  
C16  36391087.244 1 189497945.675 1        46.000    36391090.746 1 146531846.476 1        30.000  
C24  22194452.843 1 115572343.949 1        51.000                                                  
C26  23317117.954 1 121418389.027 1        39.000                                                  
> 2023 08 04 09 50 05.1000000  0 22                     
G12  23191180.619 1 121870481.393 1        33.000    23191184.318 1  94964016.213 1         7.000                  
G23  20199784.897 1 106150604.004 1        50.000    20199786.220 1  82714744.856 1        37.000    20199786.023 1
G24  20945388.107 1 110068789.493 1        41.000    20945390.716 1  85767870.734 1        32.000    20945391.913 1
R05  21160341.196 1 113114110.671 1        34.000                                                  
R15  20870560.001 1 111525954.261 1        39.000                                                  
R16  20134482.070 1 107554940.924 1        52.000    20134490.183 1  83653754.591 1        40.000  
E12  25466009.274 1 133824764.346 1        40.000  
E19  24298388.668 1 127688899.260 1        39.000  
E21  25749079.222 1 135312354.415 1        32.000  
C01  37821136.450 1 196944591.607 1        42.000                                                  
C02  38323435.311 1 199560189.565 1        38.000    38323432.988 1 154312593.491 1        31.000  
C03  37204305.014 1 193732586.850 1        43.000    37204306.193 1 149806319.726 1        33.000  
C04  38786326.686 1 201970571.595 1        37.000                                                  
C05  39958100.036 1 208072327.328 1        30.000                                                  
C06  36158462.978 1 188286696.345 1        45.000    36158461.531 1 145595139.499 1        34.000  
C08  35997359.334 1 187447695.759 1        45.000    35997355.885 1 144946441.515 1        31.000  
C09  37359342.554 1 194539921.231 1        42.000    37359345.038 1 150430601.632 1        32.000  
C13  35816371.523 1 186505238.325 1        50.000    35816377.009 1 144217703.906 1        32.000  
C14  21711597.838 1 113057990.787 1        42.000    21711598.231 1  87423619.764 1        36.000  
C16  36391083.295 1 189497925.306 1        45.000    36391086.780 1 146531830.739 1        30.000  
C24  22194424.646 1 115572197.118 1        51.000                                                  
C26  23317146.616 1 121418538.097 1        39.000                                                  
> 2023 08 04 09 50 05.2000000  0 22                     
G12  23191131.068 1 121870221.037 1        33.000    23191134.785 1  94963818.985 1        24.000    23191133.159 1
G23  20199797.370 1 106150669.404 1        50.000    20199798.656 1  82714795.819 1        37.000    20199798.388 1
G24  20945430.224 1 110069010.741 1        41.000    20945432.815 1  85768043.124 1        32.000    20945434.048 1
R05  21160377.148 1 113114302.040 1        35.000                                                  
R15  20870594.506 1 111526139.043 1        39.000                                                  
R16  20134438.077 1 107554706.133 1        52.000    20134446.386 1  83653571.981 1        40.000  
E12  25466052.625 1 133824991.924 1        40.000  
E19  24298400.693 1 127688962.696 1        39.000  
E21  25749045.646 1 135312177.635 1        32.000  
C01  37821137.701 1 196944598.170 1        42.000                                                  
C02  38323435.847 1 199560192.278 1        38.000    38323433.506 1 154312595.623 1        31.000  
C03  37204306.068 1 193732592.340 1        43.000    37204307.230 1 149806323.980 1        32.000  
C04  38786327.562 1 201970575.844 1        37.000                                                  
C05  39958100.072 1 208072327.619 1        30.000                                                  
C06  36158457.117 1 188286665.782 1        45.000    36158455.723 1 145595115.895 1        34.000  
C08  35997374.344 1 187447773.946 1        45.000    35997371.002 1 144946501.979 1        31.000  
C09  37359334.138 1 194539877.541 1        42.000    37359336.568 1 150430567.882 1        32.000  
C13  35816380.743 1 186505286.411 1        50.000    35816386.158 1 144217741.064 1        32.000  
C14  21711601.769 1 113058010.982 1        43.000    21711602.180 1  87423635.379 1        36.000  
C16  36391079.900 1 189497907.572 1        46.000    36391083.492 1 146531817.059 1        30.000  
C24  22194396.949 1 115572052.928 1        51.000                                                  
C26  23317175.832 1 121418689.830 1        39.000                                                  
> 2023 08 04 09 50 05.3000000  0 22                     
G12  23191081.606 1 121869960.654 1        33.000    23191085.234 1  94963616.181 1        25.000    23191083.358 1
G23  20199809.789 1 106150734.778 1        50.000    20199811.093 1  82714846.759 1        37.000    20199810.754 1
G24  20945472.306 1 110069231.955 1        41.000    20945474.915 1  85768215.505 1        32.000    20945476.201 1
R05  21160413.047 1 113114493.385 1        34.000                                                  
R15  20870629.136 1 111526323.803 1        39.000                                                  
R16  20134394.083 1 107554471.321 1        52.000    20134402.517 1  83653389.345 1        40.000  
E12  25466095.921 1 133825219.482 1        40.000  
E19  24298412.666 1 127689026.098 1        39.000  
E21  25749011.873 1 135312000.796 1        32.000  
C01  37821138.952 1 196944604.704 1        42.000                                                  
C02  38323436.383 1 199560194.956 1        38.000    38323433.971 1 154312597.694 1        31.000  
C03  37204307.069 1 193732597.787 1        43.000    37204308.266 1 149806328.203 1        32.000  
C04  38786328.366 1 201970580.086 1        37.000                                                  
C05  39958100.108 1 208072327.892 1        30.000                                                  
C06  36158451.203 1 188286635.192 1        45.000    36158449.916 1 145595092.252 1        34.000  
C08  35997389.354 1 187447852.101 1        45.000    35997386.119 1 144946562.377 1        31.000  
C09  37359325.721 1 194539833.811 1        42.000    37359328.152 1 150430534.090 1        32.000  
C13  35816389.982 1 186505334.447 1        50.000    35816395.485 1 144217778.242 1        32.000  
C14  21711605.700 1 113058031.159 1        43.000    21711606.040 1  87423650.984 1        36.000  
C16  36391076.469 1 189497889.799 1        46.000    36391080.061 1 146531803.314 1        30.000  
C24  22194369.252 1 115571908.708 1        51.000                                                  
C26  23317204.941 1 121418841.546 1        39.000                                                  
> 2023 08 04 09 50 05.4000000  0 22                     
G12  23191032.109 1 121869700.237 1        33.000    23191035.665 1  94963413.260 1        25.000    23191034.057 1
G23  20199822.190 1 106150800.090 1        50.000    20199823.530 1  82714897.647 1        37.000    20199823.119 1
G24  20945514.405 1 110069453.107 1        41.000    20945516.996 1  85768387.822 1        32.000    20945518.283 1
R05  21160448.999 1 113114684.673 1        34.000                                                  
R15  20870663.695 1 111526508.495 1        39.000                                                  
R16  20134350.072 1 107554236.447 1        52.000    20134358.524 1  83653206.658 1        40.000  
E12  25466139.254 1 133825446.960 1        40.000  
E19  24298424.745 1 127689089.426 1        39.000  
E21  25748978.208 1 135311823.872 1        32.000  
C01  37821140.149 1 196944611.165 1        42.000                                                  
C02  38323436.901 1 199560197.581 1        38.000    38323434.650 1 154312599.722 1        31.000  
C03  37204308.070 1 193732603.172 1        43.000    37204309.356 1 149806332.365 1        32.000  
C04  38786329.188 1 201970584.250 1        37.000                                                  
C05  39958100.233 1 208072328.162 1        30.000                                                  
C06  36158445.306 1 188286604.524 1        45.000    36158443.966 1 145595068.540 1        34.000  
C08  35997404.364 1 187447930.195 1        46.000    35997401.326 1 144946622.791 1        31.000  
C09  37359317.269 1 194539790.029 1        42.000    37359319.717 1 150430500.210 1        32.000  
C13  35816399.202 1 186505382.417 1        50.000    35816404.581 1 144217815.306 1        32.000  
C14  21711609.596 1 113058051.269 1        43.000    21711609.882 1  87423666.525 1        36.000  
C16  36391073.038 1 189497871.960 1        46.000    36391076.594 1 146531789.513 1        30.000  
C24  22194341.555 1 115571764.422 1        51.000                                                  
C26  23317234.032 1 121418993.166 1        39.000                                                  
> 2023 08 04 09 50 05.5000000  0 22                     
G12  23190982.523 1 121869439.790 1        33.000    23190986.097 1  94963204.549 1         7.000                  
G23  20199834.609 1 106150865.390 1        50.000    20199835.949 1  82714948.508 1        37.000    20199835.520 1
G24  20945556.469 1 110069674.258 1        42.000    20945559.078 1  85768560.141 1        32.000    20945560.221 1
R05  21160484.988 1 113114875.937 1        34.000                                                  
R15  20870698.253 1 111526693.187 1        39.000                                                  
R16  20134306.060 1 107554001.567 1        52.000    20134314.566 1  83653023.973 1        40.000  
E12  25466182.550 1 133825674.424 1        40.000  
E19  24298436.807 1 127689152.749 1        39.000  
E21  25748944.579 1 135311646.972 1        32.000  
C01  37821141.382 1 196944617.606 1        42.000                                                  
C02  38323437.419 1 199560200.178 1        39.000    38323435.168 1 154312601.698 1        31.000  
C03  37204309.124 1 193732608.540 1        43.000    37204310.393 1 149806336.493 1        32.000  
C04  38786330.010 1 201970588.382 1        37.000                                                  
C05  39958100.268 1 208072328.360 1        31.000                                                  
C06  36158439.373 1 188286573.841 1        45.000    36158438.051 1 145595044.807 1        34.000  
C08  35997419.338 1 187448008.275 1        45.000    35997416.229 1 144946683.161 1        31.000  
C09  37359308.907 1 194539746.212 1        42.000    37359311.087 1 150430466.341 1        32.000  
C13  35816408.405 1 186505430.387 1        50.000    35816413.765 1 144217852.413 1        32.000  
C14  21711613.473 1 113058071.359 1        43.000    21711613.795 1  87423682.056 1        36.000  
C16  36391069.607 1 189497854.112 1        46.000    36391073.110 1 146531775.692 1        30.000  
C24  22194313.858 1 115571620.123 1        51.000                                                  
C26  23317263.158 1 121419144.792 1        39.000                                                  
> 2023 08 04 09 50 05.6000000  0 22                     
G12  23190932.918 1 121869179.369 1        33.000    23190936.546 1  94963007.323 1        24.000    23190934.652 1
G23  20199847.028 1 106150930.694 1        50.000    20199848.368 1  82714999.414 1        37.000    20199847.993 1
G24  20945598.640 1 110069895.410 1        41.000    20945601.177 1  85768732.467 1        32.000    20945602.196 1
R05  21160520.958 1 113115067.219 1        34.000                                                  
R15  20870732.919 1 111526877.865 1        39.000                                                  
R16  20134262.067 1 107553766.692 1        52.000    20134270.626 1  83652841.298 1        40.000  
E12  25466225.811 1 133825901.899 1        40.000  
E19  24298448.886 1 127689216.077 1        39.000  
E21  25748911.020 1 135311470.098 1        32.000  
C01  37821142.615 1 196944624.058 1        42.000                                                  
C02  38323437.920 1 199560202.783 1        38.000    38323435.686 1 154312603.753 1        31.000  
C03  37204310.125 1 193732613.913 1        43.000    37204311.393 1 149806340.612 1        32.000  
C04  38786330.760 1 201970592.534 1        37.000                                                  
C05  39958100.233 1 208072328.564 1        31.000                                                  
C06  36158433.494 1 188286543.167 1        45.000    36158432.226 1 145595021.084 1        34.000  
C08  35997434.348 1 187448086.354 1        45.000    35997431.310 1 144946743.546 1        31.000  
C09  37359300.508 1 194539702.421 1        42.000    37359302.492 1 150430432.430 1        32.000  
C13  35816417.625 1 186505478.353 1        50.000    35816422.950 1 144217889.519 1        32.000  
C14  21711617.351 1 113058091.449 1        43.000    21711617.673 1  87423697.588 1        36.000  
C16  36391066.177 1 189497836.259 1        46.000    36391069.625 1 146531761.866 1        30.000  
C24  22194286.143 1 115571475.831 1        51.000                                                  
C26  23317292.303 1 121419296.409 1        39.000                                                  
> 2023 08 04 09 50 05.7000000  0 22                     
G12  23190883.296 1 121868918.863 1        33.000    23190886.977 1  94962804.373 1        24.000    23190885.047 1
G23  20199859.465 1 106150995.956 1        50.000    20199860.787 1  82715050.261 1        37.000    20199860.447 1
G24  20945640.739 1 110070116.515 1        41.000    20945643.241 1  85768904.766 1        32.000    20945644.349 1
R05  21160556.768 1 113115258.454 1        34.000                                                  
R15  20870767.514 1 111527062.509 1        39.000                                                  
R16  20134218.073 1 107553531.770 1        52.000    20134226.686 1  83652658.576 1        40.000  
E12  25466269.054 1 133826129.328 1        40.000  
E19  24298460.966 1 127689279.347 1        38.000  
E21  25748877.355 1 135311293.127 1        32.000  
C01  37821143.848 1 196944630.455 1        42.000                                                  
C02  38323438.420 1 199560205.325 1        38.000    38323436.186 1 154312605.698 1        31.000  
C03  37204311.107 1 193732619.223 1        43.000    37204312.287 1 149806344.763 1        32.000  
C04  38786331.475 1 201970596.608 1        37.000                                                  
C05  39958100.340 1 208072328.741 1        31.000                                                  
C06  36158427.598 1 188286512.437 1        45.000    36158426.347 1 145594997.317 1        34.000  
C08  35997449.340 1 187448164.387 1        45.000    35997446.213 1 144946803.866 1        31.000  
C09  37359292.074 1 194539658.560 1        42.000    37359294.183 1 150430398.505 1        32.000  
C13  35816426.845 1 186505526.273 1        50.000    35816432.081 1 144217926.556 1        32.000  
C14  21711621.211 1 113058111.498 1        43.000    21711621.443 1  87423713.102 1        36.000  
C16  36391062.764 1 189497818.364 1        45.000    36391066.266 1 146531748.049 1        30.000  
C24  22194258.428 1 115571331.498 1        51.000                                                  
C26  23317321.375 1 121419448.009 1        39.000                                                  
> 2023 08 04 09 50 05.8000000  0 22                     
G12  23190833.709 1 121868658.358 1        33.000    23190837.391 1  94962601.439 1        25.000    23190835.336 1
G23  20199871.866 1 106151061.224 1        50.000    20199873.206 1  82715101.149 1        37.000    20199872.849 1
G24  20945682.839 1 110070337.620 1        41.000    20945685.322 1  85769077.078 1        32.000    20945686.537 1
R05  21160592.398 1 113115449.673 1        34.000                                                  
R15  20870802.019 1 111527247.177 1        39.000                                                  
R16  20134174.080 1 107553296.860 1        52.000    20134182.764 1  83652475.880 1        40.000  
E12  25466312.351 1 133826356.762 1        40.000  
E19  24298472.974 1 127689342.619 1        38.000  
E21  25748843.744 1 135311116.166 1        32.000  
C01  37821145.027 1 196944636.855 1        42.000                                                  
C02  38323438.903 1 199560207.884 1        38.000    38323436.758 1 154312607.700 1        31.000  
C03  37204312.126 1 193732624.550 1        43.000    37204313.270 1 149806348.891 1        32.000  
C04  38786332.208 1 201970600.723 1        37.000                                                  
C05  39958100.465 1 208072328.918 1        31.000                                                  
C06  36158421.701 1 188286481.720 1        45.000    36158420.486 1 145594973.562 1        34.000  
C08  35997464.350 1 187448242.423 1        45.000    35997461.384 1 144946864.212 1        31.000  
C09  37359283.658 1 194539614.720 1        42.000    37359285.856 1 150430364.620 1        32.000  
C13  35816436.048 1 186505574.199 1        50.000    35816441.319 1 144217963.625 1        32.000  
C14  21711625.035 1 113058131.558 1        43.000    21711625.392 1  87423728.615 1        36.000  
C16  36391059.368 1 189497800.478 1        45.000    36391062.924 1 146531734.210 1        30.000  
C24  22194230.713 1 115571187.174 1        51.000                                                  
C26  23317350.520 1 121419599.608 1        39.000                                                  
> 2023 08 04 09 50 05.9000000  0 22                     
G12  23190784.087 1 121868397.890 1        33.000    23190787.822 1  94962398.429 1        24.000    23190786.106 1
G23  20199884.285 1 106151126.500 1        50.000    20199885.625 1  82715151.993 1        37.000    20199885.142 1
G24  20945724.920 1 110070558.730 1        41.000    20945727.404 1  85769249.356 1        32.000    20945728.833 1
R05  21160628.333 1 113115640.908 1        34.000                                                  
R15  20870836.506 1 111527431.839 1        39.000                                                  
R16  20134130.068 1 107553061.959 1        52.000    20134138.824 1  83652293.163 1        40.000  
E12  25466355.612 1 133826584.197 1        40.000  
E19  24298485.035 1 127689405.886 1        39.000  
E21  25748810.203 1 135310939.218 1        32.000  
C01  37821146.260 1 196944643.252 1        42.000                                                  
C02  38323439.367 1 199560210.454 1        38.000    38323437.384 1 154312609.640 1        31.000  
C03  37204313.144 1 193732629.868 1        43.000    37204314.217 1 149806352.974 1        32.000  
C04  38786332.905 1 201970604.811 1        37.000                                                  
C05  39958100.429 1 208072329.090 1        31.000                                                  
C06  36158415.822 1 188286450.993 1        45.000    36158414.714 1 145594949.812 1        34.000  
C08  35997479.324 1 187448320.456 1        45.000    35997476.215 1 144946924.595 1        31.000  
C09  37359275.188 1 194539570.859 1        42.000    37359277.439 1 150430330.751 1        32.000  
C13  35816445.251 1 186505622.125 1        50.000    35816450.504 1 144218000.688 1        32.000  
C14  21711628.912 1 113058151.616 1        43.000    21711629.234 1  87423744.122 1        36.000  
C16  36391055.902 1 189497782.581 1        46.000    36391059.386 1 146531720.393 1        30.000  
C24  22194202.981 1 115571042.846 1        51.000                                                  
C26  23317379.628 1 121419751.196 1        39.000                                                  
> 2023 08 04 09 50 06.0000000  0 22                     
G12  23190734.376 1 121868137.393 1        32.000    23190738.253 1  94962189.699 1         7.000                  
G23  20199896.704 1 106151191.739 1        50.000    20199898.026 1  82715202.835 1        37.000    20199897.490 1
G24  20945767.002 1 110070779.800 1        41.000    20945769.468 1  85769421.612 1        32.000    20945770.986 1
R05  21160664.035 1 113115832.130 1        33.000                                                  
R15  20870871.083 1 111527616.463 1        39.000                                                  
R16  20134086.075 1 107552827.019 1        52.000    20134094.849 1  83652110.441 1        40.000  
E12  25466398.890 1 133826811.587 1        40.000  
E19  24298497.061 1 127689469.121 1        39.000  
E21  25748776.449 1 135310762.242 1        32.000  
C01  37821147.493 1 196944649.600 1        42.000                                                  
C02  38323439.867 1 199560212.961 1        39.000    38323437.884 1 154312611.594 1        31.000  
C03  37204314.181 1 193732635.154 1        43.000    37204315.217 1 149806357.064 1        33.000  
C04  38786333.637 1 201970608.876 1        37.000                                                  
C05  39958100.483 1 208072329.209 1        30.000                                                  
C06  36158409.925 1 188286420.226 1        45.000    36158408.835 1 145594926.016 1        33.000  
C08  35997494.298 1 187448398.454 1        45.000    35997491.136 1 144946984.870 1        31.000  
C09  37359266.789 1 194539526.966 1        42.000    37359268.969 1 150430296.799 1        32.000  
C13  35816454.453 1 186505670.001 1        50.000    35816459.850 1 144218037.705 1        32.000  
C14  21711632.754 1 113058171.642 1        43.000    21711633.058 1  87423759.592 1        36.000  
C16  36391052.453 1 189497764.634 1        46.000    36391055.902 1 146531706.520 1        30.000  
C24  22194175.266 1 115570898.490 1        51.000                                                  
C26  23317408.737 1 121419902.752 1        39.000                                                  
> 2023 08 04 09 50 06.1000000  0 22                     
G12  23190684.718 1 121867876.794 1        32.000    23190688.667 1  94961992.391 1        24.000    23190686.379 1
G23  20199909.123 1 106151256.910 1        50.000    20199910.427 1  82715253.611 1        37.000    20199909.873 1
G24  20945809.047 1 110071000.811 1        41.000    20945811.531 1  85769593.858 1        32.000    20945812.979 1
R05  21160699.648 1 113116023.242 1        33.000                                                  
R15  20870905.677 1 111527801.050 1        39.000                                                  
R16  20134042.064 1 107552592.014 1        52.000    20134050.873 1  83651927.659 1        40.000  
E12  25466442.116 1 133827038.919 1        40.000  
E19  24298509.087 1 127689532.282 1        39.000  
E21  25748742.784 1 135310585.206 1        33.000  
C01  37821148.690 1 196944655.895 1        42.000                                                  
C02  38323440.368 1 199560215.400 1        39.000    38323438.366 1 154312613.474 1        31.000  
C03  37204315.235 1 193732640.353 1        43.000    37204316.182 1 149806361.089 1        32.000  
C04  38786334.388 1 201970612.860 1        37.000                                                  
C05  39958100.465 1 208072329.265 1        31.000                                                  
C06  36158403.957 1 188286389.392 1        45.000    36158402.831 1 145594902.193 1        33.000  
C08  35997509.237 1 187448476.380 1        46.000    35997506.164 1 144947045.136 1        32.000  
C09  37359258.355 1 194539483.006 1        42.000    37359260.428 1 150430262.807 1        32.000  
C13  35816463.638 1 186505717.817 1        50.000    35816469.034 1 144218074.670 1        32.000  
C14  21711636.560 1 113058191.583 1        43.000    21711636.900 1  87423775.007 1        36.000  
C16  36391049.022 1 189497746.629 1        46.000    36391052.239 1 146531692.575 1        30.000  
C24  22194147.533 1 115570754.064 1        51.000                                                  
C26  23317437.828 1 121420054.241 1        39.000                                                  
> 2023 08 04 09 50 06.2000000  0 22                     
G12  23190635.185 1 121867616.241 1        32.000    23190639.080 1  94961783.602 1         7.000                  
G23  20199921.542 1 106151322.123 1        50.000    20199922.846 1  82715304.433 1        37.000    20199922.256 1
G24  20945851.129 1 110071221.869 1        41.000    20945853.595 1  85769766.092 1        32.000    20945855.132 1
R05  21160735.511 1 113116214.414 1        33.000                                                  
R15  20870940.218 1 111527985.647 1        39.000                                                  
R16  20133998.070 1 107552357.056 1        52.000    20134006.897 1  83651744.911 1        40.000  
E12  25466485.359 1 133827266.283 1        40.000  
E19  24298521.166 1 127689595.490 1        39.000  
E21  25748709.190 1 135310408.189 1        32.000  
C01  37821149.887 1 196944662.208 1        42.000                                                  
C02  38323440.868 1 199560217.878 1        39.000    38323438.849 1 154312615.383 1        31.000  
C03  37204316.236 1 193732645.585 1        43.000    37204317.290 1 149806365.181 1        32.000  
C04  38786335.156 1 201970616.875 1        37.000                                                  
C05  39958100.429 1 208072329.355 1        31.000                                                  
C06  36158398.024 1 188286358.593 1        45.000    36158396.791 1 145594878.357 1        34.000  
C08  35997524.211 1 187448554.346 1        46.000    35997521.281 1 144947105.424 1        32.000  
C09  37359249.903 1 194539439.079 1        42.000    37359252.012 1 150430228.824 1        32.000  
C13  35816472.822 1 186505765.667 1        50.000    35816478.326 1 144218111.680 1        32.000  
C14  21711640.420 1 113058211.569 1        43.000    21711640.849 1  87423790.481 1        36.000  
C16  36391045.574 1 189497728.659 1        46.000    36391048.844 1 146531678.686 1        30.000  
C24  22194119.818 1 115570609.673 1        51.000                                                  
C26  23317466.883 1 121420205.765 1        39.000                                                  
> 2023 08 04 09 50 06.3000000  0 22                     
G12  23190585.634 1 121867355.671 1        32.000    23190589.494 1  94961586.287 1        25.000    23190588.207 1
G23  20199933.943 1 106151387.308 1        50.000    20199935.247 1  82715355.218 1        37.000    20199934.658 1
G24  20945893.300 1 110071442.883 1        41.000    20945895.659 1  85769938.288 1        32.000    20945897.195 1
R05  21160771.285 1 113116405.540 1        33.000                                                  
R15  20870974.794 1 111528170.234 1        39.000                                                  
R16  20133954.059 1 107552122.071 1        52.000    20133962.868 1  83651562.143 1        40.000  
E12  25466528.566 1 133827493.618 1        40.000  
E19  24298533.139 1 127689658.663 1        39.000  
E21  25748675.453 1 135310231.142 1        32.000  
C01  37821151.102 1 196944668.500 1        42.000                                                  
C02  38323441.368 1 199560220.306 1        39.000    38323439.242 1 154312617.305 1        31.000  
C03  37204317.201 1 193732650.792 1        43.000    37204318.452 1 149806369.188 1        32.000  
C04  38786335.925 1 201970620.868 1        37.000                                                  
C05  39958100.411 1 208072329.404 1        30.000                                                  
C06  36158392.092 1 188286327.765 1        45.000    36158390.877 1 145594854.512 1        34.000  
C08  35997539.168 1 187448632.280 1        46.000    35997536.326 1 144947165.690 1        32.000  
C09  37359241.487 1 194539395.128 1        42.000    37359243.578 1 150430194.800 1        32.000  
C13  35816482.007 1 186505813.494 1        50.000    35816487.547 1 144218148.629 1        32.000  
C14  21711644.262 1 113058231.519 1        43.000    21711644.726 1  87423805.913 1        36.000  
C16  36391042.107 1 189497710.660 1        46.000    36391045.449 1 146531664.806 1        30.000  
C24  22194092.086 1 115570465.258 1        51.000                                                  
C26  23317495.938 1 121420357.263 1        39.000                                                  
> 2023 08 04 09 50 06.4000000  0 22                     
G12  23190536.083 1 121867095.019 1        32.000    23190539.889 1  94961383.225 1        25.000    23190538.406 1
G23  20199946.344 1 106151452.436 1        50.000    20199947.630 1  82715405.948 1        37.000    20199947.023 1
G24  20945935.328 1 110071663.850 1        41.000    20945937.722 1  85770110.459 1        32.000    20945939.223 1
R05  21160807.005 1 113116596.584 1        33.000                                                  
R15  20871009.335 1 111528354.768 1        39.000                                                  
R16  20133910.029 1 107551887.030 1        52.000    20133918.910 1  83651379.340 1        40.000  
E12  25466571.809 1 133827720.888 1        40.000  
E19  24298545.165 1 127689721.756 1        39.000  
E21  25748641.752 1 135310054.021 1        32.000  
C01  37821152.282 1 196944674.726 1        42.000                                                  
C02  38323441.833 1 199560222.690 1        39.000    38323439.796 1 154312619.147 1        31.000  
C03  37204318.130 1 193732655.954 1        43.000    37204319.488 1 149806373.163 1        33.000  
C04  38786336.693 1 201970624.790 1        37.000                                                  
C05  39958100.483 1 208072329.369 1        30.000                                                  
C06  36158386.213 1 188286296.870 1        45.000    36158384.980 1 145594830.642 1        34.000  
C08  35997554.124 1 187448710.156 1        46.000    35997551.176 1 144947225.895 1        32.000  
C09  37359232.999 1 194539351.116 1        43.000    37359235.108 1 150430160.823 1        32.000  
C13  35816491.192 1 186505861.251 1        50.000    35816496.606 1 144218185.585 1        32.000  
C14  21711648.121 1 113058251.423 1        43.000    21711648.497 1  87423821.294 1        36.000  
C16  36391038.658 1 189497692.591 1        46.000    36391042.000 1 146531650.816 1        30.000  
C24  22194064.371 1 115570320.789 1        51.000                                                  
C26  23317525.011 1 121420508.714 1        39.000                                                  
> 2023 08 04 09 50 06.5000000  0 22                     
G12  23190486.407 1 121866834.407 1        32.000    23190490.285 1  94961174.365 1         7.000                  
G23  20199958.745 1 106151517.577 1        50.000    20199960.032 1  82715456.724 1        37.000    20199959.406 1
G24  20945977.338 1 110071884.822 1        41.000    20945979.786 1  85770282.634 1        32.000    20945981.251 1
R05  21160842.636 1 113116787.657 1        33.000                                                  
R15  20871043.751 1 111528539.317 1        39.000                                                  
R16  20133866.036 1 107551652.006 1        52.000    20133874.917 1  83651196.530 1        40.000  
E12  25466615.034 1 133827948.184 1        40.000  
E19  24298557.226 1 127689784.876 1        39.000  
E21  25748608.087 1 135309876.954 1        32.000  
C01  37821153.479 1 196944680.963 1        42.000                                                  
C02  38323442.280 1 199560225.086 1        39.000    38323440.314 1 154312620.959 1        31.000  
C03  37204319.113 1 193732661.115 1        43.000    37204320.471 1 149806377.166 1        33.000  
C04  38786337.408 1 201970628.719 1        37.000                                                  
C05  39958100.519 1 208072329.401 1        30.000                                                  
C06  36158380.316 1 188286265.989 1        45.000    36158379.065 1 145594806.734 1        34.000  
C08  35997569.080 1 187448788.040 1        46.000    35997566.186 1 144947286.118 1        32.000  
C09  37359224.583 1 194539307.104 1        43.000    37359226.548 1 150430126.745 1        32.000  
C13  35816500.341 1 186505909.026 1        50.000    35816505.755 1 144218222.521 1        32.000  
C14  21711651.928 1 113058271.335 1        43.000    21711652.321 1  87423836.672 1        36.000  
C16  36391035.210 1 189497674.537 1        46.000    36391038.587 1 146531636.851 1        30.000  
C24  22194036.620 1 115570176.333 1        51.000                                                  
C26  23317554.084 1 121420660.169 1        39.000                                                  
> 2023 08 04 09 50 06.6000000  0 22                     
G12  23190436.767 1 121866573.773 1        32.000    23190440.698 1  94960976.959 1        25.000    23190439.269 1
G23  20199971.128 1 106151582.710 1        50.000    20199972.415 1  82715507.497 1        36.000    20199971.771 1
G24  20946019.455 1 110072105.795 1        41.000    20946021.832 1  85770454.841 1        32.000    20946023.297 1
R05  21160878.535 1 113116978.742 1        33.000                                                  
R15  20871078.399 1 111528723.845 1        39.000                                                  
R16  20133821.989 1 107551416.968 1        52.000    20133830.941 1  83651013.734 1        40.000  
E12  25466658.295 1 133828175.457 1        40.000  
E19  24298569.234 1 127689847.973 1        39.000  
E21  25748574.422 1 135309699.848 1        32.000  
C01  37821154.694 1 196944687.174 1        42.000                                                  
C02  38323442.744 1 199560227.459 1        39.000    38323440.761 1 154312622.796 1        31.000  
C03  37204320.096 1 193732666.244 1        43.000    37204321.436 1 149806381.112 1        33.000  
C04  38786338.158 1 201970632.635 1        37.000                                                  
C05  39958100.644 1 208072329.439 1        30.000                                                  
C06  36158374.366 1 188286235.097 1        45.000    36158373.133 1 145594782.860 1        34.000  
C08  35997584.037 1 187448865.905 1        46.000    35997581.035 1 144947346.326 1        32.000  
C09  37359216.095 1 194539263.083 1        42.000    37359218.061 1 150430092.739 1        32.000  
C13  35816509.525 1 186505956.777 1        50.000    35816514.904 1 144218259.454 1        32.000  
C14  21711655.734 1 113058291.224 1        43.000    21711656.091 1  87423852.076 1        36.000  
C16  36391031.725 1 189497656.468 1        46.000    36391035.227 1 146531622.892 1        30.000  
C24  22194008.870 1 115570031.861 1        51.000                                                  
C26  23317583.210 1 121420811.617 1        39.000                                                  
> 2023 08 04 09 50 06.7000000  0 22                     
G12  23190387.180 1 121866313.141 1        32.000    23190391.094 1  94960773.956 1        25.000    23190389.861 1
G23  20199983.529 1 106151647.858 1        50.000    20199984.816 1  82715558.253 1        36.000    20199984.155 1
G24  20946061.519 1 110072326.771 1        41.000    20946063.895 1  85770627.041 1        32.000    20946065.271 1
R05  21160914.559 1 113117169.881 1        33.000                                                  
R15  20871112.922 1 111528908.415 1        39.000                                                  
R16  20133777.941 1 107551181.950 1        52.000    20133786.947 1  83650830.934 1        40.000  
E12  25466701.556 1 133828402.745 1        40.000  
E19  24298581.224 1 127689911.078 1        39.000  
E21  25748540.721 1 135309522.748 1        32.000  
C01  37821155.873 1 196944693.405 1        42.000                                                  
C02  38323443.155 1 199560229.846 1        39.000    38323441.136 1 154312624.649 1        31.000  
C03  37204321.043 1 193732671.394 1        43.000    37204322.383 1 149806385.110 1        33.000  
C04  38786338.944 1 201970636.552 1        37.000                                                  
C05  39958100.679 1 208072329.395 1        30.000                                                  
C06  36158368.415 1 188286204.202 1        45.000    36158367.111 1 145594758.984 1        34.000  
C08  35997598.975 1 187448943.784 1        45.000    35997596.063 1 144947406.526 1        32.000  
C09  37359207.643 1 194539219.074 1        42.000    37359209.716 1 150430058.704 1        32.000  
C13  35816518.710 1 186506004.546 1        50.000    35816523.946 1 144218296.394 1        32.000  
C14  21711659.558 1 113058311.131 1        43.000    21711659.951 1  87423867.474 1        36.000  
C16  36391028.294 1 189497638.414 1        46.000    36391031.707 1 146531608.880 1        30.000  
C24  22193981.155 1 115569887.406 1        51.000                                                  
C26  23317612.283 1 121420963.094 1        39.000                                                  
> 2023 08 04 09 50 06.8000000  0 22                     
G12  23190337.576 1 121866052.500 1        32.000    23190341.489 1  94960570.841 1        25.000    23190340.632 1
G23  20199995.895 1 106151713.000 1        50.000    20199997.217 1  82715608.994 1        36.000    20199996.520 1
G24  20946103.493 1 110072547.746 1        41.000    20946105.959 1  85770799.248 1        32.000    20946107.442 1
R05  21160950.297 1 113117360.936 1        32.000                                                  
R15  20871147.481 1 111529092.958 1        39.000                                                  
R16  20133733.912 1 107550946.933 1        52.000    20133742.990 1  83650648.147 1        40.000  
E12  25466744.817 1 133828630.024 1        40.000  
E19  24298593.196 1 127689974.180 1        39.000  
E21  25748507.109 1 135309345.663 1        32.000  
C01  37821157.035 1 196944699.622 1        42.000                                                  
C02  38323443.620 1 199560232.213 1        38.000    38323441.565 1 154312626.504 1        31.000  
C03  37204321.990 1 193732676.538 1        43.000    37204323.348 1 149806389.107 1        32.000  
C04  38786339.731 1 201970640.480 1        37.000                                                  
C05  39958100.608 1 208072329.392 1        30.000                                                  
C06  36158362.447 1 188286173.310 1        45.000    36158361.178 1 145594735.087 1        33.000  
C08  35997613.932 1 187449021.654 1        45.000    35997611.180 1 144947466.765 1        32.000  
C09  37359199.155 1 194539175.053 1        42.000    37359201.085 1 150430024.640 1        32.000  
C13  35816527.877 1 186506052.312 1        50.000    35816533.095 1 144218333.323 1        32.000  
C14  21711663.435 1 113058331.043 1        42.000    21711663.685 1  87423882.849 1        36.000  
C16  36391024.846 1 189497620.345 1        45.000    36391028.223 1 146531594.926 1        30.000  
C24  22193953.422 1 115569742.947 1        51.000                                                  
C26  23317641.356 1 121421114.534 1        39.000                                                  
> 2023 08 04 09 50 06.9000000  0 22                     
G12  23190287.936 1 121865791.921 1        32.000    23190291.903 1  94960367.852 1        26.000    23190291.349 1
G23  20200008.296 1 106151778.192 1        50.000    20200009.618 1  82715659.795 1        36.000    20200008.796 1
G24  20946145.575 1 110072768.769 1        41.000    20946148.023 1  85770971.453 1        32.000    20946149.452 1
R05  21160985.928 1 113117552.057 1        32.000                                                  
R15  20871181.986 1 111529277.572 1        39.000                                                  
R16  20133689.883 1 107550711.963 1        51.000    20133699.014 1  83650465.402 1        40.000  
E12  25466788.078 1 133828857.347 1        40.000  
E19  24298605.312 1 127690037.338 1        38.000  
E21  25748473.355 1 135309168.596 1        32.000  
C01  37821158.268 1 196944705.888 1        42.000                                                  
C02  38323444.067 1 199560234.629 1        38.000    38323442.030 1 154312628.385 1        31.000  
C03  37204322.972 1 193732681.711 1        43.000    37204324.295 1 149806393.087 1        32.000  
C04  38786340.499 1 201970644.429 1        37.000                                                  
C05  39958100.715 1 208072329.416 1        30.000                                                  
C06  36158356.497 1 188286142.450 1        45.000    36158355.174 1 145594711.206 1        34.000  
C08  35997628.888 1 187449099.567 1        45.000    35997626.065 1 144947527.006 1        32.000  
C09  37359190.739 1 194539131.079 1        42.000    37359192.419 1 150429990.636 1        32.000  
C13  35816537.062 1 186506100.110 1        49.000    35816542.136 1 144218370.299 1        32.000  
C14  21711667.295 1 113058350.976 1        42.000    21711667.670 1  87423898.302 1        36.000  
C16  36391021.343 1 189497602.314 1        45.000    36391024.899 1 146531580.981 1        30.000  
C24  22193925.689 1 115569598.536 1        51.000                                                  
C26  23317670.429 1 121421266.038 1        38.000                                                  
> 2023 08 04 09 50 07.0000000  0 22                     
G12  23190238.349 1 121865531.307 1        32.000    23190242.316 1  94960158.978 1         7.000                  
G23  20200020.715 1 106151843.348 1        50.000    20200022.001 1  82715710.583 1        37.000    20200021.090 1
G24  20946187.710 1 110072989.751 1        41.000    20946190.086 1  85771143.663 1        32.000    20946191.570 1
R05  21161021.487 1 113117743.148 1        32.000                                                  
R15  20871216.580 1 111529462.145 1        38.000                                                  
R16  20133645.836 1 107550476.958 1        51.000    20133655.038 1  83650282.601 1        40.000  
E12  25466831.339 1 133829084.643 1        40.000  
E19  24298617.302 1 127690100.444 1        38.000  
E21  25748439.707 1 135308991.522 1        32.000  
C01  37821159.447 1 196944712.105 1        41.000                                                  
C02  38323444.585 1 199560237.014 1        38.000    38323442.423 1 154312630.198 1        31.000  
C03  37204323.902 1 193732686.869 1        42.000    37204325.260 1 149806397.074 1        33.000  
C04  38786341.267 1 201970648.343 1        37.000                                                  
C05  39958100.787 1 208072329.398 1        30.000                                                  
C06  36158350.546 1 188286111.560 1        45.000    36158349.331 1 145594687.320 1        34.000  
C08  35997643.844 1 187449177.438 1        45.000    35997641.128 1 144947587.249 1        32.000  
C09  37359182.287 1 194539087.055 1        42.000    37359183.967 1 150429956.621 1        32.000  
C13  35816546.193 1 186506147.876 1        49.000    35816551.250 1 144218407.224 1        32.000  
C14  21711671.137 1 113058370.894 1        42.000    21711671.423 1  87423913.686 1        36.000  
C16  36391017.912 1 189497584.248 1        45.000    36391021.718 1 146531567.015 1        30.000  
C24  22193897.957 1 115569454.089 1        51.000                                                  
C26  23317699.520 1 121421417.506 1        38.000                                                  
> 2023 08 04 09 50 07.1000000  0 22                     
G12  23190188.816 1 121865270.687 1        32.000    23190192.730 1  94959955.906 1         7.000                  
G23  20200033.098 1 106151908.510 1        50.000    20200034.402 1  82715761.365 1        37.000    20200033.545 1
G24  20946229.702 1 110073210.741 1        41.000    20946232.150 1  85771315.883 1        32.000    20946233.633 1
R05  21161057.458 1 113117934.251 1        31.000                                                  
R15  20871251.121 1 111529646.741 1        38.000                                                  
R16  20133601.824 1 107550241.967 1        51.000    20133610.973 1  83650099.840 1        40.000  
E12  25466874.600 1 133829311.931 1        40.000  
E19  24298629.363 1 127690163.561 1        38.000  
E21  25748406.006 1 135308814.428 1        32.000  
C01  37821160.645 1 196944718.328 1        41.000                                                  
C02  38323445.032 1 199560239.378 1        38.000    38323442.869 1 154312632.039 1        31.000  
C03  37204324.884 1 193732692.007 1        42.000    37204326.189 1 149806401.051 1        33.000  
C04  38786341.964 1 201970652.277 1        37.000                                                  
C05  39958100.822 1 208072329.395 1        30.000                                                  
C06  36158344.578 1 188286080.674 1        45.000    36158343.417 1 145594663.439 1        34.000  
C08  35997658.819 1 187449255.325 1        45.000    35997656.263 1 144947647.459 1        32.000  
C09  37359173.871 1 194539043.046 1        42.000    37359175.497 1 150429922.573 1        32.000  
C13  35816555.377 1 186506195.642 1        49.000    35816560.577 1 144218444.164 1        32.000  
C14  21711674.943 1 113058390.801 1        42.000    21711675.157 1  87423929.073 1        36.000  
C16  36391014.464 1 189497566.182 1        45.000    36391018.198 1 146531553.079 1        30.000  
C24  22193870.224 1 115569309.646 1        51.000                                                  
C26  23317728.664 1 121421568.998 1        38.000                                                  
> 2023 08 04 09 50 07.2000000  0 22                     
G12  23190139.212 1 121865009.961 1        32.000    23190143.107 1  94959758.473 1        25.000    23190142.196 1
G23  20200045.481 1 106151973.588 1        49.000    20200046.786 1  82715812.061 1        37.000    20200045.964 1
G24  20946271.730 1 110073431.652 1        41.000    20946274.196 1  85771487.990 1        32.000    20946275.500 1
R05  21161093.446 1 113118125.220 1        32.000                                                  
R15  20871285.608 1 111529831.216 1        38.000                                                  
R16  20133557.795 1 107550006.887 1        51.000    20133566.980 1  83649917.000 1        40.000  
E12  25466917.807 1 133829539.136 1        40.000  
E19  24298641.371 1 127690226.575 1        38.000  
E21  25748372.341 1 135308637.276 1        32.000  
C01  37821161.842 1 196944724.455 1        41.000                                                  
C02  38323445.407 1 199560241.675 1        38.000    38323443.370 1 154312633.809 1        31.000  
C03  37204325.885 1 193732697.049 1        42.000    37204327.190 1 149806404.952 1        33.000  
C04  38786342.679 1 201970656.107 1        37.000                                                  
C05  39958100.787 1 208072329.262 1        30.000                                                  
C06  36158338.699 1 188286049.689 1        44.000    36158337.359 1 145594639.491 1        34.000  
C08  35997673.757 1 187449333.111 1        45.000    35997671.273 1 144947707.615 1        32.000  
C09  37359165.383 1 194538998.938 1        42.000    37359166.884 1 150429888.459 1        31.000  
C13  35816564.544 1 186506243.315 1        49.000    35816569.655 1 144218481.030 1        31.000  
C14  21711678.731 1 113058410.629 1        42.000    21711678.892 1  87423944.414 1        36.000  
C16  36391010.997 1 189497548.029 1        45.000    36391014.696 1 146531539.053 1        30.000  
C24  22193842.473 1 115569165.115 1        51.000                                                  
C26  23317757.808 1 121421720.380 1        38.000                                                  
> 2023 08 04 09 50 07.3000000  0 22                     
G12  23190089.590 1 121864749.291 1        32.000    23190093.521 1  94959555.408 1        25.000    23190092.806 1
G23  20200057.900 1 106152038.677 1        49.000    20200059.169 1  82715862.762 1        37.000    20200058.293 1
G24  20946313.794 1 110073652.563 1        41.000    20946316.242 1  85771660.131 1        32.000    20946317.403 1
R05  21161129.130 1 113118316.233 1        31.000                                                  
R15  20871320.167 1 111530015.758 1        38.000                                                  
R16  20133513.784 1 107549771.827 1        51.000    20133522.951 1  83649734.181 1        40.000  
E12  25466961.050 1 133829766.357 1        40.000  
E19  24298653.361 1 127690289.613 1        38.000  
E21  25748338.551 1 135308460.096 1        32.000  
C01  37821163.039 1 196944730.593 1        41.000                                                  
C02  38323445.836 1 199560243.963 1        38.000    38323443.745 1 154312635.605 1        31.000  
C03  37204326.868 1 193732702.115 1        42.000    37204328.065 1 149806408.847 1        33.000  
C04  38786343.376 1 201970659.925 1        37.000                                                  
C05  39958100.912 1 208072329.189 1        30.000                                                  
C06  36158332.731 1 188286018.709 1        45.000    36158331.480 1 145594615.531 1        34.000  
C08  35997688.713 1 187449410.908 1        45.000    35997686.105 1 144947767.779 1        32.000  
C09  37359156.877 1 194538954.844 1        42.000    37359158.342 1 150429854.385 1        32.000  
C13  35816573.711 1 186506291.003 1        49.000    35816578.822 1 144218517.880 1        32.000  
C14  21711682.555 1 113058430.477 1        42.000    21711682.680 1  87423959.760 1        36.000  
C16  36391007.513 1 189497529.887 1        45.000    36391011.069 1 146531524.987 1        30.000  
C24  22193814.723 1 115569020.605 1        51.000                                                  
C26  23317786.881 1 121421871.764 1        38.000                                                  
> 2023 08 04 09 50 07.4000000  0 22                     
G12  23190039.771 1 121864488.644 1        32.000    23190043.917 1  94959352.270 1        24.000    23190042.755 1
G23  20200070.283 1 106152103.810 1        50.000    20200071.570 1  82715913.540 1        37.000    20200070.659 1
G24  20946355.875 1 110073873.521 1        41.000    20946358.288 1  85771832.283 1        32.000    20946359.485 1
R05  21161164.886 1 113118507.298 1        31.000                                                  
R15  20871354.779 1 111530200.301 1        38.000                                                  
R16  20133469.772 1 107549536.807 1        51.000    20133478.850 1  83649551.389 1        40.000  
E12  25467004.257 1 133829993.600 1        40.000  
E19  24298665.369 1 127690352.680 1        38.000  
E21  25748304.885 1 135308282.961 1        32.000  
C01  37821164.200 1 196944736.760 1        41.000                                                  
C02  38323446.265 1 199560246.289 1        38.000    38323444.156 1 154312637.377 1        31.000  
C03  37204327.833 1 193732707.197 1        42.000    37204328.994 1 149806412.775 1        33.000  
C04  38786344.144 1 201970663.807 1        37.000                                                  
C05  39958100.894 1 208072329.154 1        30.000                                                  
C06  36158326.745 1 188285987.771 1        45.000    36158325.530 1 145594591.603 1        34.000  
C08  35997703.688 1 187449488.749 1        45.000    35997700.900 1 144947827.962 1        32.000  
C09  37359148.389 1 194538910.780 1        42.000    37359149.926 1 150429820.305 1        32.000  
C13  35816582.878 1 186506338.728 1        49.000    35816587.988 1 144218554.800 1        31.000  
C14  21711686.397 1 113058450.343 1        42.000    21711686.379 1  87423975.124 1        36.000  
C16  36391004.064 1 189497511.775 1        45.000    36391007.566 1 146531510.995 1        30.000  
C24  22193786.990 1 115568876.129 1        51.000                                                  
C26  23317815.936 1 121422023.204 1        38.000                                                  
> 2023 08 04 09 50 07.5000000  0 22                     
G12  23189990.059 1 121864227.919 1        32.000    23189994.312 1  94959149.142 1        24.000    23189993.222 1
G23  20200082.667 1 106152168.896 1        50.000    20200083.953 1  82715964.274 1        37.000    20200083.006 1
G24  20946397.903 1 110074094.433 1        41.000    20946400.333 1  85772004.435 1        32.000    20946401.674 1
R05  21161200.696 1 113118698.293 1        31.000                                                  
R15  20871389.248 1 111530384.805 1        38.000                                                  
R16  20133425.761 1 107549301.745 1        51.000    20133434.749 1  83649368.551 1        40.000  
E12  25467047.465 1 133830220.818 1        40.000  
E19  24298677.449 1 127690415.703 1        38.000  
E21  25748271.095 1 135308105.803 1        32.000  
C01  37821165.362 1 196944742.881 1        41.000                                                  
C02  38323446.711 1 199560248.566 1        38.000    38323444.603 1 154312639.133 1        31.000  
C03  37204328.816 1 193732712.248 1        42.000    37204329.995 1 149806416.674 1        33.000  
C04  38786344.859 1 201970667.613 1        37.000                                                  
C05  39958100.912 1 208072329.017 1        30.000                                                  
C06  36158320.794 1 188285956.788 1        45.000    36158319.490 1 145594567.647 1        34.000  
C08  35997718.644 1 187449566.541 1        45.000    35997715.874 1 144947888.091 1        32.000  
C09  37359139.919 1 194538866.660 1        42.000    37359141.420 1 150429786.194 1        32.000  
C13  35816592.045 1 186506386.404 1        49.000    35816597.119 1 144218591.675 1        31.000  
C14  21711690.239 1 113058470.165 1        42.000    21711690.132 1  87423990.461 1        36.000  
C16  36391000.562 1 189497493.610 1        45.000    36391004.135 1 146531496.962 1        30.000  
C24  22193759.204 1 115568731.604 1        51.000                                                  
C26  23317844.974 1 121422174.603 1        38.000                                                  
> 2023 08 04 09 50 07.6000000  0 22                     
G12  23189940.348 1 121863967.252 1        32.000    23189944.708 1  94958946.041 1        24.000    23189943.350 1
G23  20200095.050 1 106152234.005 1        50.000    20200096.336 1  82716014.991 1        36.000    20200095.443 1
G24  20946440.021 1 110074315.370 1        41.000    20946442.379 1  85772176.588 1        32.000    20946443.755 1
R05  21161236.773 1 113118889.328 1        32.000                                                  
R15  20871423.736 1 111530569.354 1        39.000                                                  
R16  20133381.750 1 107549066.709 1        51.000    20133390.720 1  83649185.753 1        40.000  
E12  25467090.725 1 133830448.047 1        40.000  
E19  24298689.421 1 127690478.738 1        39.000  
E21  25748237.483 1 135307928.656 1        32.000  
C01  37821166.541 1 196944749.025 1        42.000                                                  
C02  38323447.194 1 199560250.866 1        38.000    38323445.014 1 154312640.927 1        31.000  
C03  37204329.798 1 193732717.322 1        42.000    37204331.156 1 149806420.602 1        32.000  
C04  38786345.592 1 201970671.463 1        37.000                                                  
C05  39958100.804 1 208072328.939 1        30.000                                                  
C06  36158314.880 1 188285925.818 1        45.000    36158313.522 1 145594543.701 1        34.000  
C08  35997733.565 1 187449644.350 1        45.000    35997730.938 1 144947948.260 1        32.000  
C09  37359131.432 1 194538822.567 1        42.000    37359133.111 1 150429752.118 1        32.000  
C13  35816601.211 1 186506434.103 1        50.000    35816606.054 1 144218628.516 1        31.000  
C14  21711694.009 1 113058490.011 1        42.000    21711694.009 1  87424005.777 1        36.000  
C16  36390997.059 1 189497475.465 1        45.000    36391000.490 1 146531482.900 1        30.000  
C24  22193731.489 1 115568587.111 1        51.000                                                  
C26  23317874.029 1 121422326.019 1        39.000                                                  
> 2023 08 04 09 50 07.7000000  0 22                     
G12  23189890.672 1 121863706.573 1        32.000    23189895.103 1  94958742.830 1        24.000    23189893.942 1
G23  20200107.415 1 106152299.130 1        50.000    20200108.720 1  82716065.725 1        37.000    20200107.844 1
G24  20946482.031 1 110074536.319 1        41.000    20946484.443 1  85772348.731 1        32.000    20946485.819 1
R05  21161272.797 1 113119080.356 1        32.000                                                  
R15  20871458.223 1 111530753.921 1        39.000                                                  
R16  20133337.720 1 107548831.689 1        51.000    20133346.762 1  83649002.964 1        40.000  
E12  25467133.968 1 133830675.282 1        40.000  
E19  24298701.393 1 127690541.779 1        39.000  
E21  25748203.604 1 135307751.539 1        32.000  
C01  37821167.739 1 196944755.178 1        42.000                                                  
C02  38323447.623 1 199560253.172 1        38.000    38323445.389 1 154312642.711 1        31.000  
C03  37204330.799 1 193732722.379 1        43.000    37204332.103 1 149806424.507 1        32.000  
C04  38786346.306 1 201970675.298 1        37.000                                                  
C05  39958100.858 1 208072328.875 1        30.000                                                  
C06  36158308.947 1 188285894.859 1        45.000    36158307.536 1 145594519.764 1        34.000  
C08  35997748.521 1 187449722.174 1        45.000    35997745.823 1 144948008.440 1        32.000  
C09  37359122.980 1 194538778.491 1        42.000    37359124.516 1 150429718.002 1        32.000  
C13  35816610.360 1 186506481.811 1        50.000    35816615.274 1 144218665.423 1        32.000  
C14  21711697.851 1 113058509.871 1        42.000    21711697.797 1  87424021.155 1        36.000  
C16  36390993.557 1 189497457.332 1        46.000    36390997.023 1 146531468.906 1        30.000  
C24  22193703.756 1 115568442.627 1        51.000                                                  
C26  23317903.137 1 121422477.441 1        39.000                                                  
> 2023 08 04 09 50 07.8000000  0 22                     
G12  23189841.050 1 121863445.891 1        32.000    23189845.499 1  94958539.731 1        25.000    23189845.034 1
G23  20200119.781 1 106152364.239 1        50.000    20200121.121 1  82716116.460 1        36.000    20200120.156 1
G24  20946524.059 1 110074757.245 1        41.000    20946526.489 1  85772520.920 1        32.000    20946527.829 1
R05  21161308.696 1 113119271.357 1        31.000                                                  
R15  20871492.942 1 111530938.455 1        39.000                                                  
R16  20133293.709 1 107548596.653 1        51.000    20133302.768 1  83648820.147 1        40.000  
E12  25467177.194 1 133830902.508 1        40.000  
E19  24298713.401 1 127690604.805 1        39.000  
E21  25748169.974 1 135307574.377 1        32.000  
C01  37821168.900 1 196944761.296 1        42.000                                                  
C02  38323448.016 1 199560255.463 1        38.000    38323445.693 1 154312644.482 1        31.000  
C03  37204331.782 1 193732727.433 1        43.000    37204333.104 1 149806428.440 1        32.000  
C04  38786347.057 1 201970679.136 1        37.000                                                  
C05  39958100.876 1 208072328.759 1        31.000                                                  
C06  36158302.997 1 188285863.885 1        45.000    36158301.710 1 145594495.822 1        34.000  
C08  35997763.460 1 187449799.965 1        45.000    35997760.690 1 144948068.614 1        32.000  
C09  37359114.527 1 194538734.389 1        42.000    37359116.046 1 150429683.917 1        32.000  
C13  35816619.527 1 186506529.501 1        50.000    35816624.423 1 144218702.311 1        32.000  
C14  21711701.586 1 113058529.722 1        42.000    21711701.532 1  87424036.494 1        36.000  
C16  36390990.090 1 189497439.188 1        46.000    36390993.753 1 146531454.893 1        30.000  
C24  22193676.005 1 115568298.125 1        51.000                                                  
C26  23317932.157 1 121422628.852 1        39.000                                                  
> 2023 08 04 09 50 07.9000000  0 22                     
G12  23189791.409 1 121863185.186 1        32.000    23189795.895 1  94958330.877 1         8.000                  
G23  20200132.164 1 106152429.349 1        50.000    20200133.504 1  82716167.199 1        37.000    20200132.557 1
G24  20946566.104 1 110074978.183 1        41.000    20946568.535 1  85772693.097 1        32.000    20946569.857 1
R05  21161344.416 1 113119462.353 1        31.000                                                  
R15  20871527.501 1 111531122.998 1        39.000                                                  
R16  20133249.715 1 107548361.621 1        51.000    20133258.721 1  83648637.349 1        40.000  
E12  25467220.437 1 133831129.722 1        40.000  
E19  24298725.409 1 127690667.825 1        39.000  
E21  25748136.255 1 135307397.245 1        32.000  
C01  37821170.079 1 196944767.423 1        42.000                                                  
C02  38323448.427 1 199560257.734 1        38.000    38323446.265 1 154312646.216 1        31.000  
C03  37204332.800 1 193732732.480 1        43.000    37204334.141 1 149806432.334 1        32.000  
C04  38786347.790 1 201970682.946 1        37.000                                                  
C05  39958101.001 1 208072328.639 1        31.000                                                  
C06  36158297.029 1 188285832.903 1        45.000    36158295.849 1 145594471.858 1        34.000  
C08  35997778.398 1 187449877.769 1        45.000    35997775.575 1 144948128.761 1        31.000  
C09  37359106.022 1 194538690.275 1        42.000    37359107.755 1 150429649.817 1        32.000  
C13  35816628.694 1 186506577.183 1        50.000    35816633.590 1 144218739.173 1        32.000  
C14  21711705.374 1 113058549.559 1        43.000    21711705.374 1  87424051.839 1        36.000  
C16  36390986.624 1 189497421.032 1        46.000    36390990.197 1 146531440.795 1        30.000  
C24  22193648.255 1 115568153.626 1        51.000                                                  
C26  23317961.247 1 121422780.274 1        39.000                                                  
> 2023 08 04 09 50 08.0000000  0 22                     
G12  23189741.930 1 121862924.493 1        33.000    23189746.272 1  94958133.492 1        24.000    23189746.040 1
G23  20200144.565 1 106152494.446 1        50.000    20200145.887 1  82716217.911 1        37.000    20200144.940 1
G24  20946608.097 1 110075199.100 1        41.000    20946610.580 1  85772865.238 1        32.000    20946611.974 1
R05  21161380.047 1 113119653.343 1        31.000                                                  
R15  20871562.060 1 111531307.541 1        39.000                                                  
R16  20133205.704 1 107548126.574 1        51.000    20133214.781 1  83648454.539 1        40.000  
E12  25467263.626 1 133831356.925 1        40.000  
E19  24298737.399 1 127690730.837 1        39.000  
E21  25748102.519 1 135307220.090 1        32.000  
C01  37821171.241 1 196944773.523 1        42.000                                                  
C02  38323448.856 1 199560259.997 1        39.000    38323446.783 1 154312647.983 1        31.000  
C03  37204333.801 1 193732737.496 1        43.000    37204335.213 1 149806436.231 1        33.000  
C04  38786348.504 1 201970686.758 1        37.000                                                  
C05  39958100.965 1 208072328.514 1        31.000                                                  
C06  36158291.078 1 188285801.897 1        45.000    36158289.810 1 145594447.871 1        34.000  
C08  35997793.354 1 187449955.546 1        45.000    35997790.460 1 144948188.900 1        31.000  
C09  37359097.570 1 194538646.150 1        43.000    37359099.303 1 150429615.708 1        32.000  
C13  35816637.843 1 186506624.850 1        50.000    35816642.846 1 144218776.072 1        32.000  
C14  21711709.108 1 113058569.376 1        43.000    21711709.108 1  87424067.172 1        36.000  
C16  36390983.175 1 189497402.855 1        46.000    36390986.391 1 146531426.751 1        30.000  
C24  22193620.522 1 115568009.107 1        51.000                                                  
C26  23317990.320 1 121422931.670 1        39.000                                                  
> 2023 08 04 09 50 08.1000000  0 22                     
G12  23189692.326 1 121862663.811 1        32.000    23189696.668 1  94957930.363 1        24.000    23189697.150 1
G23  20200156.930 1 106152559.562 1        50.000    20200158.270 1  82716268.662 1        37.000    20200157.306 1
G24  20946650.142 1 110075420.034 1        41.000    20946652.644 1  85773037.386 1        32.000    20946653.931 1
R05  21161415.928 1 113119844.353 1        31.000                                                  
R15  20871596.547 1 111531492.086 1        39.000                                                  
R16  20133161.710 1 107547891.553 1        51.000    20133170.734 1  83648271.745 1        40.000  
E12  25467306.869 1 133831584.159 1        40.000  
E19  24298749.390 1 127690793.851 1        39.000  
E21  25748068.764 1 135307042.937 1        32.000  
C01  37821172.438 1 196944779.644 1        42.000                                                  
C02  38323449.267 1 199560262.262 1        39.000    38323447.337 1 154312649.732 1        31.000  
C03  37204334.766 1 193732742.533 1        43.000    37204336.035 1 149806440.148 1        33.000  
C04  38786349.201 1 201970690.552 1        37.000                                                  
C05  39958101.019 1 208072328.369 1        31.000                                                  
C06  36158285.146 1 188285770.918 1        45.000    36158283.877 1 145594423.900 1        34.000  
C08  35997808.311 1 187450033.340 1        45.000    35997805.398 1 144948249.072 1        31.000  
C09  37359089.082 1 194538602.039 1        43.000    37359090.726 1 150429581.567 1        32.000  
C13  35816646.974 1 186506672.534 1        50.000    35816652.013 1 144218812.918 1        32.000  
C14  21711712.932 1 113058589.213 1        43.000    21711712.897 1  87424082.502 1        36.000  
C16  36390979.673 1 189497384.687 1        46.000    36390983.032 1 146531412.754 1        30.000  
C24  22193592.789 1 115567864.614 1        51.000                                                  
C26  23318019.375 1 121423083.092 1        39.000                                                  
> 2023 08 04 09 50 08.2000000  0 22                     
G12  23189642.811 1 121862403.173 1        32.000    23189647.081 1  94957727.219 1        25.000    23189647.725 1
G23  20200169.349 1 106152624.724 1        50.000    20200170.672 1  82716319.445 1        36.000    20200169.742 1
G24  20946692.242 1 110075641.019 1        41.000    20946694.690 1  85773209.568 1        32.000    20946695.959 1
R05  21161451.541 1 113120035.435 1        31.000                                                  
R15  20871631.195 1 111531676.689 1        39.000                                                  
R16  20133117.699 1 107547656.583 1        51.000    20133126.669 1  83648088.993 1        40.000  
E12  25467350.112 1 133831811.424 1        40.000  
E19  24298761.415 1 127690856.903 1        39.000  
E21  25748035.206 1 135306865.814 1        32.000  
C01  37821173.671 1 196944785.800 1        42.000                                                  
C02  38323449.695 1 199560264.585 1        39.000    38323447.873 1 154312651.534 1        31.000  
C03  37204335.731 1 193732747.618 1        43.000    37204336.928 1 149806444.024 1        33.000  
C04  38786349.970 1 201970694.423 1        37.000                                                  
C05  39958101.055 1 208072328.340 1        30.000                                                  
C06  36158279.249 1 188285739.965 1        45.000    36158277.944 1 145594399.990 1        34.000  
C08  35997823.249 1 187450111.172 1        45.000    35997820.158 1 144948309.230 1        31.000  
C09  37359080.612 1 194538557.966 1        43.000    37359082.292 1 150429547.500 1        32.000  
C13  35816656.141 1 186506720.257 1        50.000    35816661.216 1 144218849.800 1        32.000  
C14  21711716.774 1 113058609.102 1        43.000    21711716.721 1  87424097.877 1        36.000  
C16  36390976.188 1 189497366.572 1        46.000    36390979.565 1 146531398.715 1        30.000  
C24  22193565.057 1 115567720.168 1        51.000                                                  
C26  23318048.484 1 121423234.564 1        39.000                                                  
> 2023 08 04 09 50 08.3000000  0 22                     
G12  23189593.135 1 121862142.518 1        32.000    23189597.477 1  94957524.156 1        25.000    23189598.495 1
G23  20200181.750 1 106152689.863 1        50.000    20200183.073 1  82716370.198 1        36.000    20200182.108 1
G24  20946734.377 1 110075861.971 1        41.000    20946736.754 1  85773381.750 1        32.000    20946738.022 1
R05  21161487.082 1 113120226.434 1        31.000                                                  
R15  20871665.682 1 111531861.283 1        39.000                                                  
R16  20133073.670 1 107547421.587 1        51.000    20133082.640 1  83647906.225 1        40.000  
E12  25467393.284 1 133832038.661 1        40.000  
E19  24298773.423 1 127690919.947 1        39.000  
E21  25748001.541 1 135306688.684 1        32.000  
C01  37821174.886 1 196944791.929 1        42.000                                                  
C02  38323450.124 1 199560266.865 1        38.000    38323448.302 1 154312653.269 1        31.000  
C03  37204336.732 1 193732752.678 1        43.000    37204337.911 1 149806447.950 1        33.000  
C04  38786350.667 1 201970698.264 1        37.000                                                  
C05  39958101.144 1 208072328.238 1        30.000                                                  
C06  36158273.281 1 188285708.997 1        45.000    36158271.976 1 145594376.035 1        34.000  
C08  35997838.188 1 187450188.976 1        45.000    35997835.025 1 144948369.374 1        31.000  
C09  37359072.142 1 194538513.875 1        43.000    37359073.893 1 150429513.404 1        32.000  
C13  35816665.343 1 186506767.956 1        50.000    35816670.365 1 144218886.706 1        32.000  
C14  21711720.598 1 113058628.962 1        43.000    21711720.598 1  87424113.248 1        36.000  
C16  36390972.722 1 189497348.430 1        46.000    36390976.152 1 146531384.687 1        30.000  
C24  22193537.324 1 115567575.692 1        51.000                                                  
C26  23318077.503 1 121423385.992 1        39.000                                                  
> 2023 08 04 09 50 08.4000000  0 22                     
G12  23189543.423 1 121861881.774 1        33.000    23189547.855 1  94957320.945 1        25.000    23189548.820 1
G23  20200194.134 1 106152754.946 1        50.000    20200195.456 1  82716420.894 1        36.000    20200194.473 1
G24  20946776.441 1 110076082.874 1        41.000    20946778.799 1  85773553.874 1        32.000    20946779.979 1
R05  21161522.642 1 113120417.394 1        30.000                                                  
R15  20871700.277 1 111532045.810 1        39.000                                                  
R16  20133029.623 1 107547186.537 1        51.000    20133038.593 1  83647723.404 1        40.000  
E12  25467436.509 1 133832265.835 1        40.000  
E19  24298785.378 1 127690982.926 1        39.000  
E21  25747967.893 1 135306511.476 1        32.000  
C01  37821176.065 1 196944797.992 1        42.000                                                  
C02  38323450.535 1 199560269.080 1        38.000    38323448.784 1 154312655.001 1        31.000  
C03  37204337.696 1 193732757.662 1        43.000    37204338.929 1 149806451.820 1        33.000  
C04  38786351.363 1 201970702.015 1        37.000                                                  
C05  39958101.019 1 208072328.040 1        31.000                                                  
C06  36158267.348 1 188285677.956 1        45.000    36158265.901 1 145594352.028 1        34.000  
C08  35997853.091 1 187450266.721 1        45.000    35997849.892 1 144948429.523 1        31.000  
C09  37359063.654 1 194538469.718 1        42.000    37359065.459 1 150429479.279 1        32.000  
C13  35816674.474 1 186506815.591 1        50.000    35816679.549 1 144218923.527 1        32.000  
C14  21711724.404 1 113058648.749 1        43.000    21711724.386 1  87424128.544 1        36.000  
C16  36390969.237 1 189497330.216 1        46.000    36390972.775 1 146531370.580 1        30.000  
C24  22193509.591 1 115567431.158 1        51.000                                                  
C26  23318106.540 1 121423537.385 1        39.000                                                  
> 2023 08 04 09 50 08.5000000  0 22                     
G12  23189493.819 1 121861620.878 1        33.000    23189498.214 1  94957117.643 1        25.000    23189499.215 1
G23  20200206.481 1 106152819.865 1        50.000    20200207.821 1  82716471.491 1        36.000    20200206.892 1
G24  20946818.397 1 110076303.612 1        41.000    20946820.809 1  85773725.846 1        32.000    20946822.024 1
R05  21161557.969 1 113120608.204 1        30.000                                                  
R15  20871734.728 1 111532230.177 1        39.000                                                  
R16  20132985.558 1 107546951.322 1        51.000    20132994.599 1  83647540.450 1        40.000  
E12  25467479.734 1 133832492.855 1        40.000  
E19  24298797.314 1 127691045.729 1        39.000  
E21  25747934.067 1 135306334.127 1        32.000  
C01  37821177.245 1 196944803.889 1        42.000                                                  
C02  38323450.910 1 199560271.145 1        38.000    38323449.159 1 154312656.608 1        31.000  
C03  37204338.626 1 193732762.477 1        43.000    37204339.751 1 149806455.545 1        32.000  
C04  38786352.042 1 201970705.615 1        37.000                                                  
C05  39958101.001 1 208072327.718 1        30.000                                                  
C06  36158261.362 1 188285646.759 1        45.000    36158260.004 1 145594327.893 1        34.000  
C08  35997867.993 1 187450344.309 1        45.000    35997864.705 1 144948489.530 1        31.000  
C09  37359055.131 1 194538425.383 1        43.000    37359056.846 1 150429444.956 1        32.000  
C13  35816683.605 1 186506863.066 1        50.000    35816688.662 1 144218960.238 1        32.000  
C14  21711728.175 1 113058668.391 1        43.000    21711728.264 1  87424143.732 1        36.000  
C16  36390965.699 1 189497311.851 1        46.000    36390969.309 1 146531356.394 1        30.000  
C24  22193481.823 1 115567286.474 1        51.000                                                  
C26  23318135.613 1 121423688.607 1        39.000                                                  
> 2023 08 04 09 50 08.6000000  0 22                     
G12  23189444.125 1 121861360.024 1        33.000    23189448.574 1  94956914.373 1        25.000    23189449.164 1
G23  20200218.846 1 106152884.813 1        50.000    20200220.169 1  82716522.107 1        36.000    20200219.275 1
G24  20946860.443 1 110076524.355 1        41.000    20946862.819 1  85773897.886 1        32.000    20946864.052 1
R05  21161593.385 1 113120799.020 1        30.000                                                  
R15  20871769.358 1 111532414.574 1        39.000                                                  
R16  20132941.510 1 107546716.141 1        51.000    20132950.624 1  83647357.531 1        40.000  
E12  25467522.906 1 133832719.891 1        40.000  
E19  24298809.251 1 127691108.556 1        39.000  
E21  25747900.331 1 135306156.786 1        32.000  
C01  37821178.424 1 196944809.818 1        42.000                                                  
C02  38323451.268 1 199560273.224 1        38.000    38323449.463 1 154312658.216 1        31.000  
C03  37204339.519 1 193732767.330 1        43.000    37204340.645 1 149806459.291 1        32.000  
C04  38786352.829 1 201970709.243 1        37.000                                                  
C05  39958101.001 1 208072327.456 1        31.000                                                  
C06  36158255.394 1 188285615.579 1        45.000    36158254.036 1 145594303.814 1        34.000  
C08  35997882.914 1 187450421.911 1        45.000    35997879.626 1 144948549.515 1        31.000  
C09  37359046.661 1 194538381.083 1        43.000    37359048.180 1 150429410.717 1        32.000  
C13  35816692.737 1 186506910.567 1        50.000    35816697.865 1 144218996.991 1        32.000  
C14  21711731.927 1 113058688.048 1        43.000    21711732.034 1  87424158.932 1        36.000  
C16  36390962.197 1 189497293.497 1        46.000    36390965.717 1 146531342.173 1        30.000  
C24  22193454.036 1 115567141.809 1        51.000                                                  
C26  23318164.650 1 121423839.860 1        39.000                                                  
> 2023 08 04 09 50 08.7000000  0 22                     
G12  23189394.413 1 121861099.145 1        33.000    23189398.934 1  94956711.120 1        25.000    23189399.649 1
G23  20200231.230 1 106152949.744 1        50.000    20200232.534 1  82716572.698 1        36.000    20200231.587 1
G24  20946902.453 1 110076745.108 1        41.000    20946904.830 1  85774069.888 1        32.000    20946905.848 1
R05  21161629.266 1 113120989.858 1        30.000                                                  
R15  20871803.756 1 111532598.953 1        39.000                                                  
R16  20132897.445 1 107546480.944 1        51.000    20132906.702 1  83647174.598 1        40.000  
E12  25467566.113 1 133832946.908 1        40.000  
E19  24298821.187 1 127691171.362 1        39.000  
E21  25747866.558 1 135305979.458 1        32.000  
C01  37821179.604 1 196944815.715 1        42.000                                                  
C02  38323451.661 1 199560275.289 1        39.000    38323449.749 1 154312659.776 1        31.000  
C03  37204340.484 1 193732772.145 1        43.000    37204341.717 1 149806463.039 1        32.000  
C04  38786353.508 1 201970712.832 1        37.000                                                  
C05  39958100.983 1 208072327.081 1        31.000                                                  
C06  36158249.390 1 188285584.381 1        45.000    36158248.264 1 145594279.690 1        34.000  
C08  35997897.817 1 187450499.500 1        46.000    35997894.547 1 144948609.511 1        31.000  
C09  37359038.137 1 194538336.757 1        43.000    37359039.817 1 150429376.436 1        32.000  
C13  35816701.850 1 186506958.042 1        50.000    35816706.925 1 144219033.689 1        32.000  
C14  21711735.715 1 113058707.684 1        43.000    21711735.698 1  87424174.123 1        36.000  
C16  36390958.659 1 189497275.117 1        46.000    36390962.215 1 146531327.969 1        29.000  
C24  22193426.232 1 115566997.124 1        51.000                                                  
C26  23318193.705 1 121423991.070 1        39.000                                                  
> 2023 08 04 09 50 08.8000000  0 22                     
G12  23189344.702 1 121860838.340 1        33.000    23189349.312 1  94956507.859 1        25.000    23189350.080 1
G23  20200243.577 1 106153014.753 1        50.000    20200244.899 1  82716623.366 1        36.000    20200243.881 1
G24  20946944.445 1 110076965.937 1        41.000    20946946.857 1  85774241.964 1        32.000    20946947.876 1
R05  21161665.362 1 113121180.755 1        29.000                                                  
R15  20871838.333 1 111532783.412 1        39.000                                                  
R16  20132853.416 1 107546245.828 1        51.000    20132862.779 1  83646991.739 1        40.000  
E12  25467609.356 1 133833174.011 1        40.000  
E19  24298833.160 1 127691234.235 1        39.000  
E21  25747832.804 1 135305802.202 1        32.000  
C01  37821180.747 1 196944821.693 1        42.000                                                  
C02  38323452.018 1 199560277.417 1        39.000    38323450.089 1 154312661.447 1        31.000  
C03  37204341.395 1 193732777.042 1        43.000    37204342.610 1 149806466.797 1        33.000  
C04  38786354.169 1 201970716.513 1        37.000                                                  
C05  39958100.912 1 208072326.863 1        30.000                                                  
C06  36158243.404 1 188285553.254 1        45.000    36158242.224 1 145594255.629 1        33.000  
C08  35997912.737 1 187450577.166 1        46.000    35997909.539 1 144948669.570 1        31.000  
C09  37359029.632 1 194538292.509 1        43.000    37359031.401 1 150429342.237 1        32.000  
C13  35816710.963 1 186507005.593 1        50.000    35816716.056 1 144219070.467 1        32.000  
C14  21711739.539 1 113058727.404 1        43.000    21711739.647 1  87424189.372 1        36.000  
C16  36390955.156 1 189497256.815 1        46.000    36390958.587 1 146531313.860 1        30.000  
C24  22193398.464 1 115566852.521 1        51.000                                                  
C26  23318222.760 1 121424142.385 1        39.000                                                  
> 2023 08 04 09 50 08.9000000  0 22                     
G12  23189295.026 1 121860577.538 1        33.000    23189299.672 1  94956304.657 1        25.000    23189300.672 1
G23  20200255.943 1 106153079.793 1        50.000    20200257.283 1  82716674.046 1        36.000    20200256.318 1
G24  20946986.473 1 110077186.787 1        41.000    20946988.903 1  85774414.039 1        32.000    20946989.850 1
R05  21161701.118 1 113121371.646 1        30.000                                                  
R15  20871872.802 1 111532967.916 1        39.000                                                  
R16  20132809.387 1 107546010.748 1        51.000    20132818.804 1  83646808.897 1        40.000  
E12  25467652.581 1 133833401.143 1        40.000  
E19  24298845.168 1 127691297.135 1        39.000  
E21  25747799.085 1 135305624.929 1        32.000  
C01  37821181.909 1 196944827.692 1        42.000                                                  
C02  38323452.429 1 199560279.566 1        39.000    38323450.500 1 154312663.106 1        31.000  
C03  37204342.360 1 193732781.971 1        43.000    37204343.522 1 149806470.621 1        33.000  
C04  38786354.866 1 201970720.200 1        37.000                                                  
C05  39958100.965 1 208072326.618 1        31.000                                                  
C06  36158237.418 1 188285522.161 1        45.000    36158236.274 1 145594231.568 1        33.000  
C08  35997927.658 1 187450654.856 1        46.000    35997924.227 1 144948729.638 1        31.000  
C09  37359021.108 1 194538248.285 1        43.000    37359022.949 1 150429308.035 1        32.000  
C13  35816720.112 1 186507053.164 1        50.000    35816725.276 1 144219107.281 1        32.000  
C14  21711743.310 1 113058747.154 1        43.000    21711743.381 1  87424204.634 1        36.000  
C16  36390951.654 1 189497238.543 1        46.000    36390955.317 1 146531299.676 1        30.000  
C24  22193370.713 1 115566707.949 1        51.000                                                  
C26  23318251.851 1 121424293.726 1        39.000                                                  
> 2023 08 04 09 50 09.0000000  0 22                     
G12  23189245.493 1 121860316.689 1        33.000    23189250.049 1  94956101.412 1        25.000    23189250.907 1
G23  20200268.290 1 106153144.750 1        50.000    20200269.648 1  82716724.646 1        36.000    20200268.612 1
G24  20947028.483 1 110077407.548 1        41.000    20947030.913 1  85774586.075 1        32.000    20947031.789 1
R05  21161736.659 1 113121562.454 1        30.000                                                  
R15  20871907.414 1 111533152.334 1        39.000                                                  
R16  20132765.358 1 107545775.581 1        51.000    20132774.792 1  83646625.989 1        40.000  
E12  25467695.753 1 133833628.170 1        40.000  
E19  24298857.140 1 127691359.962 1        39.000  
E21  25747765.241 1 135305447.615 1        32.000  
C01  37821183.070 1 196944833.604 1        42.000                                                  
C02  38323452.822 1 199560281.633 1        39.000    38323450.964 1 154312664.696 1        31.000  
C03  37204343.307 1 193732786.780 1        43.000    37204344.433 1 149806474.327 1        33.000  
C04  38786355.580 1 201970723.800 1        37.000                                                  
C05  39958100.894 1 208072326.278 1        31.000                                                  
C06  36158231.431 1 188285490.969 1        45.000    36158230.324 1 145594207.440 1        33.000  
C08  35997942.579 1 187450732.453 1        46.000    35997939.291 1 144948789.632 1        31.000  
C09  37359012.603 1 194538203.973 1        43.000    37359014.586 1 150429273.753 1        32.000  
C13  35816729.243 1 186507100.654 1        50.000    35816734.336 1 144219143.988 1        32.000  
C14  21711747.116 1 113058766.805 1        43.000    21711747.187 1  87424219.818 1        36.000  
C16  36390948.152 1 189497220.183 1        46.000    36390951.743 1 146531285.482 1        30.000  
C24  22193342.963 1 115566563.288 1        51.000                                                  
C26  23318280.888 1 121424444.973 1        39.000                                                  
> 2023 08 04 09 50 09.1000000  0 22                     
G12  23189195.906 1 121860056.090 1        33.000    23189200.463 1  94955898.366 1        25.000    23189201.642 1
G23  20200280.709 1 106153209.988 1        50.000    20200282.067 1  82716775.472 1        36.000    20200281.049 1
G24  20947070.529 1 110077628.600 1        41.000    20947072.977 1  85774758.330 1        32.000    20947073.817 1
R05  21161772.701 1 113121753.583 1        30.000                                                  
R15  20871941.991 1 111533337.035 1        39.000                                                  
R16  20132721.382 1 107545540.704 1        51.000    20132730.835 1  83646443.305 1        40.000  
E12  25467739.067 1 133833855.493 1        40.000  
E19  24298869.148 1 127691423.050 1        39.000  
E21  25747731.576 1 135305270.556 1        32.000  
C01  37821184.250 1 196944839.788 1        42.000                                                  
C02  38323453.251 1 199560283.968 1        38.000    38323451.429 1 154312666.515 1        31.000  
C03  37204344.290 1 193732791.901 1        42.000    37204345.434 1 149806478.284 1        33.000  
C04  38786356.313 1 201970727.705 1        37.000                                                  
C05  39958100.787 1 208072326.214 1        31.000                                                  
C06  36158225.481 1 188285460.051 1        45.000    36158224.337 1 145594183.536 1        33.000  
C08  35997957.553 1 187450810.334 1        45.000    35997954.354 1 144948849.868 1        31.000  
C09  37359004.133 1 194538159.929 1        43.000    37359006.170 1 150429239.704 1        32.000  
C13  35816738.410 1 186507148.417 1        50.000    35816743.538 1 144219180.896 1        32.000  
C14  21711750.940 1 113058786.749 1        43.000    21711750.993 1  87424235.232 1        36.000  
C16  36390944.685 1 189497202.097 1        46.000    36390948.455 1 146531271.517 1        30.000  
C24  22193315.248 1 115566418.908 1        51.000                                                  
C26  23318309.961 1 121424596.497 1        39.000                                                  
> 2023 08 04 09 50 09.2000000  0 22                     
G12  23189146.248 1 121859795.252 1        33.000    23189150.823 1  94955695.091 1        25.000    23189151.591 1
G23  20200293.092 1 106153274.948 1        50.000    20200294.432 1  82716826.097 1        36.000    20200293.450 1
G24  20947112.485 1 110077849.370 1        41.000    20947115.005 1  85774930.363 1        32.000    20947115.845 1
R05  21161808.153 1 113121944.382 1        30.000                                                  
R15  20871976.585 1 111533521.455 1        39.000                                                  
R16  20132677.335 1 107545305.546 1        51.000    20132686.734 1  83646260.404 1        40.000  
E12  25467782.292 1 133834082.540 1        40.000  
E19  24298881.102 1 127691485.867 1        39.000  
E21  25747697.803 1 135305093.219 1        32.000  
C01  37821185.393 1 196944845.680 1        42.000                                                  
C02  38323453.591 1 199560286.027 1        39.000    38323451.911 1 154312668.098 1        31.000  
C03  37204345.219 1 193732796.733 1        43.000    37204346.434 1 149806482.010 1        33.000  
C04  38786357.028 1 201970731.287 1        37.000                                                  
C05  39958100.715 1 208072325.915 1        31.000                                                  
C06  36158219.513 1 188285428.859 1        45.000    36158218.244 1 145594159.406 1        33.000  
C08  35997972.456 1 187450887.934 1        45.000    35997969.007 1 144948909.903 1        31.000  
C09  37358995.645 1 194538115.606 1        43.000    37358997.593 1 150429205.447 1        32.000  
C13  35816747.559 1 186507195.910 1        50.000    35816752.776 1 144219217.623 1        32.000  
C14  21711754.674 1 113058806.400 1        43.000    21711754.674 1  87424250.449 1        36.000  
C16  36390941.165 1 189497183.728 1        46.000    36390944.453 1 146531257.344 1        30.000  
C24  22193287.479 1 115566274.255 1        51.000                                                  
C26  23318338.981 1 121424747.757 1        39.000                                                  
> 2023 08 04 09 50 09.3000000  0 22                     
G12  23189096.572 1 121859534.421 1        33.000    23189101.183 1  94955491.848 1        25.000    23189101.862 1
G23  20200305.458 1 106153339.961 1        50.000    20200306.798 1  82716876.786 1        36.000    20200305.744 1
G24  20947154.549 1 110078070.194 1        41.000    20947157.033 1  85775102.431 1        32.000    20947157.819 1
R05  21161843.730 1 113122135.246 1        29.000                                                  
R15  20872011.037 1 111533705.926 1        39.000                                                  
R16  20132633.305 1 107545070.448 1        51.000    20132642.687 1  83646077.541 1        40.000  
E12  25467825.482 1 133834309.613 1        40.000  
E19  24298893.021 1 127691548.735 1        39.000  
E21  25747664.066 1 135304915.978 1        32.000  
C01  37821186.519 1 196944851.635 1        42.000                                                  
C02  38323453.948 1 199560288.147 1        39.000    38323452.269 1 154312669.724 1        31.000  
C03  37204346.202 1 193732801.598 1        43.000    37204347.292 1 149806485.796 1        33.000  
C04  38786357.743 1 201970734.939 1        37.000                                                  
C05  39958100.608 1 208072325.668 1        31.000                                                  
C06  36158213.562 1 188285397.714 1        45.000    36158212.383 1 145594135.322 1        34.000  
C08  35997987.358 1 187450965.580 1        45.000    35997984.071 1 144948969.932 1        31.000  
C09  37358987.157 1 194538071.347 1        43.000    37358989.123 1 150429171.209 1        32.000  
C13  35816756.672 1 186507243.446 1        50.000    35816761.890 1 144219254.379 1        32.000  
C14  21711758.463 1 113058826.103 1        43.000    21711758.463 1  87424265.683 1        36.000  
C16  36390937.663 1 189497165.415 1        46.000    36390941.040 1 146531243.134 1        30.000  
C24  22193259.711 1 115566129.654 1        51.000                                                  
C26  23318367.982 1 121424899.074 1        39.000                                                  
> 2023 08 04 09 50 09.4000000  0 23                     
G12  23189046.879 1 121859273.557 1        32.000    23189051.542 1  94955288.573 1        25.000    23189052.436 1
G23  20200317.823 1 106153404.932 1        50.000    20200319.163 1  82716927.395 1        36.000    20200318.127 1
G24  20947196.541 1 110078290.967 1        41.000    20947199.043 1  85775274.439 1        32.000    20947199.811 1
R05  21161879.325 1 113122326.101 1        30.000                                                  
R15  20872045.631 1 111533890.365 1        39.000                                                  
R16  20132589.312 1 107544835.303 1        51.000    20132598.818 1  83645894.673 1        40.000  
R21  22307564.331 1              31        34.000                                                  
E12  25467868.689 1 133834536.655 1        40.000  
E19  24298905.011 1 127691611.532 1        39.000  
E21  25747630.365 1 135304738.623 1        32.000  
C01  37821187.680 1 196944857.526 1        42.000                                                  
C02  38323454.323 1 199560290.194 1        39.000    38323452.680 1 154312671.322 1        31.000  
C03  37204347.131 1 193732806.416 1        43.000    37204348.203 1 149806489.497 1        33.000  
C04  38786358.404 1 201970738.545 1        37.000                                                  
C05  39958100.608 1 208072325.310 1        31.000                                                  
C06  36158207.558 1 188285366.517 1        45.000    36158206.451 1 145594111.214 1        33.000  
C08  35998002.243 1 187451043.189 1        45.000    35997998.920 1 144949029.935 1        31.000  
C09  37358978.616 1 194538027.027 1        43.000    37358980.724 1 150429136.949 1        32.000  
C13  35816765.785 1 186507290.933 1        50.000    35816771.003 1 144219291.135 1        32.000  
C14  21711762.233 1 113058845.765 1        43.000    21711762.251 1  87424280.885 1        36.000  
C16  36390934.142 1 189497147.041 1        46.000    36390937.609 1 146531228.924 1        30.000  
C24  22193231.960 1 115565985.004 1        51.000                                                  
C26  23318396.966 1 121425050.325 1        39.000                                                  
> 2023 08 04 09 50 09.5000000  0 23                     
G12  23188997.274 1 121859012.723 1        33.000    23189001.902 1  94955079.617 1         8.000                  
G23  20200330.188 1 106153469.927 1        50.000    20200331.529 1  82716978.036 1        36.000    20200330.421 1
G24  20947238.551 1 110078511.772 1        41.000    20947241.053 1  85775446.491 1        32.000    20947241.643 1
R05  21161914.635 1 113122516.975 1        29.000                                                  
R15  20872080.244 1 111534074.827 1        39.000                                                  
R16  20132545.301 1 107544600.187 1        51.000    20132554.825 1  83645711.793 1        40.000  
R21  22307619.188 1              31        34.000                                                  
E12  25467911.896 1 133834763.737 1        40.000  
E19  24298916.947 1 127691674.379 1        39.000  
E21  25747596.736 1 135304561.318 1        32.000  
C01  37821188.806 1 196944863.452 1        42.000                                                  
C02  38323454.717 1 199560292.273 1        39.000    38323453.073 1 154312672.921 1        31.000  
C03  37204348.061 1 193732811.249 1        43.000    37204349.115 1 149806493.227 1        32.000  
C04  38786359.029 1 201970742.148 1        37.000                                                  
C05  39958100.554 1 208072324.987 1        31.000                                                  
C06  36158201.572 1 188285335.345 1        45.000    36158200.500 1 145594087.101 1        34.000  
C08  35998017.164 1 187451120.803 1        45.000    35998013.876 1 144949089.940 1        32.000  
C09  37358970.128 1 194537982.721 1        42.000    37358972.308 1 150429102.694 1        32.000  
C13  35816774.898 1 186507338.437 1        50.000    35816780.277 1 144219327.848 1        32.000  
C14  21711766.039 1 113058865.451 1        43.000    21711766.075 1  87424296.102 1        36.000  
C16  36390930.604 1 189497128.696 1        46.000    36390934.017 1 146531214.729 1        30.000  
C24  22193204.192 1 115565840.384 1        51.000                                                  
C26  23318426.003 1 121425201.613 1        39.000                                                  
> 2023 08 04 09 50 09.6000000  0 23                     
G12  23188947.670 1 121858751.921 1        33.000    23188952.280 1  94954882.092 1        25.000    23188953.888 1
G23  20200342.554 1 106153534.964 1        50.000    20200343.894 1  82717028.713 1        36.000    20200342.804 1
G24  20947280.633 1 110078732.610 1        41.000    20947283.081 1  85775618.597 1        32.000    20947283.635 1
R05  21161950.480 1 113122707.833 1        29.000                                                  
R15  20872114.838 1 111534259.355 1        39.000                                                  
R16  20132501.289 1 107544365.113 1        51.000    20132510.778 1  83645528.958 1        40.000  
R21  22307673.850 1              31        34.000                                                  
E12  25467955.139 1 133834990.831 1        40.000  
E19  24298928.938 1 127691737.250 1        39.000  
E21  25747562.981 1 135304384.063 1        32.000  
C01  37821189.968 1 196944869.410 1        42.000                                                  
C02  38323455.128 1 199560294.384 1        39.000    38323453.502 1 154312674.569 1        31.000  
C03  37204348.990 1 193732816.131 1        43.000    37204350.151 1 149806497.036 1        32.000  
C04  38786359.708 1 201970745.812 1        37.000                                                  
C05  39958100.572 1 208072324.685 1        31.000                                                  
C06  36158195.604 1 188285304.209 1        45.000    36158194.585 1 145594063.036 1        34.000  
C08  35998032.067 1 187451198.470 1        45.000    35998028.689 1 144949149.999 1        31.000  
C09  37358961.676 1 194537938.462 1        43.000    37358963.981 1 150429068.456 1        32.000  
C13  35816784.012 1 186507385.979 1        50.000    35816789.426 1 144219364.592 1        32.000  
C14  21711769.827 1 113058885.168 1        43.000    21711769.863 1  87424311.349 1        36.000  
C16  36390927.102 1 189497110.377 1        46.000    36390930.694 1 146531200.597 1        30.000  
C24  22193176.423 1 115565695.803 1        51.000                                                  
C26  23318455.076 1 121425352.951 1        39.000                                                  
> 2023 08 04 09 50 09.7000000  0 23                     
G12  23188898.101 1 121858491.087 1        33.000    23188902.640 1  94954678.858 1        25.000    23188904.427 1
G23  20200354.919 1 106153599.979 1        50.000    20200356.277 1  82717079.372 1        36.000    20200355.241 1
G24  20947322.661 1 110078953.427 1        41.000    20947325.109 1  85775790.644 1        32.000    20947325.645 1
R05  21161986.182 1 113122898.712 1        29.000                                                  
R15  20872149.289 1 111534443.850 1        39.000                                                  
R16  20132457.260 1 107544130.023 1        51.000    20132466.802 1  83645346.113 1        40.000  
R21  22307728.672 1              31        34.000                                                  
E12  25467998.347 1 133835217.922 1        40.000  
E19  24298940.838 1 127691800.091 1        39.000  
E21  25747529.227 1 135304206.760 1        32.000  
C01  37821191.075 1 196944875.336 1        42.000                                                  
C02  38323455.539 1 199560296.469 1        39.000    38323453.912 1 154312676.157 1        31.000  
C03  37204349.990 1 193732820.981 1        43.000    37204351.098 1 149806500.796 1        33.000  
C04  38786360.423 1 201970749.423 1        37.000                                                  
C05  39958100.519 1 208072324.385 1        31.000                                                  
C06  36158189.618 1 188285273.040 1        45.000    36158188.474 1 145594038.917 1        34.000  
C08  35998046.987 1 187451276.104 1        46.000    35998043.503 1 144949210.033 1        31.000  
C09  37358953.170 1 194537894.177 1        43.000    37358955.332 1 150429034.194 1        32.000  
C13  35816793.160 1 186507433.498 1        50.000    35816798.468 1 144219401.348 1        32.000  
C14  21711773.598 1 113058904.866 1        43.000    21711773.687 1  87424326.589 1        36.000  
C16  36390923.600 1 189497092.049 1        46.000    36390927.227 1 146531186.389 1        30.000  
C24  22193148.655 1 115565551.197 1        51.000                                                  
C26  23318484.113 1 121425504.246 1        39.000                                                  
> 2023 08 04 09 50 09.8000000  0 23                     
G12  23188848.407 1 121858230.405 1        33.000    23188853.036 1  94954475.720 1        25.000    23188854.644 1
G23  20200367.302 1 106153665.092 1        50.000    20200368.660 1  82717130.109 1        36.000    20200367.642 1
G24  20947364.689 1 110079174.347 1        41.000    20947367.155 1  85775962.810 1        32.000    20947367.673 1
R05  21162021.759 1 113123089.642 1        29.000                                                  
R15  20872183.955 1 111534628.438 1        39.000                                                  
R16  20132413.266 1 107543895.030 1        51.000    20132422.808 1  83645163.331 1        40.000  
R21  22307783.226 1              31        34.000                                                  
E12  25468041.554 1 133835445.095 1        40.000  
E19  24298952.828 1 127691863.035 1        39.000  
E21  25747495.472 1 135304029.605 1        32.000  
C01  37821192.237 1 196944881.364 1        42.000                                                  
C02  38323455.967 1 199560298.647 1        39.000    38323454.323 1 154312677.874 1        31.000  
C03  37204350.937 1 193732825.922 1        43.000    37204352.117 1 149806504.600 1        32.000  
C04  38786361.120 1 201970753.160 1        37.000                                                  
C05  39958100.465 1 208072324.193 1        31.000                                                  
C06  36158183.632 1 188285241.974 1        45.000    36158182.631 1 145594014.925 1        34.000  
C08  35998061.908 1 187451353.832 1        45.000    35998058.477 1 144949270.144 1        31.000  
C09  37358944.700 1 194537849.981 1        43.000    37358947.041 1 150429000.019 1        32.000  
C13  35816802.309 1 186507481.113 1        50.000    35816807.563 1 144219438.146 1        32.000  
C14  21711777.386 1 113058924.650 1        43.000    21711777.583 1  87424341.890 1        36.000  
C16  36390920.097 1 189497073.794 1        46.000    36390923.886 1 146531172.330 1        30.000  
C24  22193120.922 1 115565406.686 1        51.000                                                  
C26  23318513.186 1 121425655.645 1        39.000                                                  
> 2023 08 04 09 50 09.9000000  0 23                     
G12  23188798.767 1 121857969.600 1        33.000    23188803.395 1  94954272.491 1        25.000    23188804.539 1
G23  20200379.703 1 106153730.160 1        50.000    20200381.044 1  82717180.819 1        36.000    20200379.954 1
G24  20947406.735 1 110079395.220 1        41.000    20947409.183 1  85776134.912 1        32.000    20947409.665 1
R05  21162057.158 1 113123280.575 1        29.000                                                  
R15  20872218.550 1 111534812.977 1        40.000                                                  
R16  20132369.237 1 107543659.997 1        51.000    20132378.797 1  83644980.523 1        40.000  
R21  22307837.870 1              31        34.000                                                  
E12  25468084.761 1 133835672.225 1        40.000  
E19  24298964.765 1 127691925.932 1        39.000  
E21  25747461.825 1 135303852.338 1        32.000  
C01  37821193.345 1 196944887.325 1        42.000                                                  
C02  38323456.378 1 199560300.772 1        39.000    38323454.752 1 154312679.493 1        31.000  
C03  37204351.885 1 193732830.813 1        43.000    37204353.117 1 149806508.378 1        32.000  
C04  38786361.799 1 201970756.823 1        37.000                                                  
C05  39958100.590 1 208072323.946 1        31.000                                                  
C06  36158177.699 1 188285210.846 1        45.000    36158176.734 1 145593990.858 1        34.000  
C08  35998076.811 1 187451431.510 1        46.000    35998073.380 1 144949330.217 1        31.000  
C09  37358936.177 1 194537805.728 1        43.000    37358938.589 1 150428965.822 1        32.000  
C13  35816811.440 1 186507528.678 1        50.000    35816816.658 1 144219474.940 1        32.000  
C14  21711781.210 1 113058944.397 1        43.000    21711781.299 1  87424357.155 1        36.000  
C16  36390916.595 1 189497055.502 1        46.000    36390920.365 1 146531158.151 1        30.000  
C24  22193093.171 1 115565262.132 1        51.000                                                  
C26  23318542.205 1 121425807.009 1        39.000                                                  
> 2023 08 04 09 50 10.0000000  0 23                     
G12  23188749.145 1 121857708.842 1        33.000    23188753.773 1  94954069.298 1        25.000    23188754.917 1
G23  20200392.087 1 106153795.235 1        50.000    20200393.427 1  82717231.522 1        36.000    20200392.319 1
G24  20947448.709 1 110079616.099 1        42.000    20947451.229 1  85776307.026 1        32.000    20947451.622 1
R05  21162092.646 1 113123471.463 1        29.000                                                  
R15  20872253.162 1 111534997.538 1        40.000                                                  
R16  20132325.244 1 107543424.971 1        51.000    20132334.839 1  83644797.727 1        40.000  
R21  22307892.727 1              31        34.000                                                  
E12  25468127.969 1 133835899.357 1        40.000  
E19  24298976.737 1 127691988.838 1        39.000  
E21  25747428.142 1 135303675.109 1        32.000  
C01  37821194.488 1 196944893.294 1        42.000                                                  
C02  38323456.772 1 199560302.889 1        39.000    38323455.217 1 154312681.198 1        31.000  
C03  37204352.796 1 193732835.709 1        43.000    37204353.993 1 149806512.175 1        32.000  
C04  38786362.532 1 201970760.484 1        37.000                                                  
C05  39958100.519 1 208072323.684 1        31.000                                                  
C06  36158171.749 1 188285179.733 1        45.000    36158170.695 1 145593966.792 1        34.000  
C08  35998091.785 1 187451509.191 1        46.000    35998088.283 1 144949390.282 1        31.000  
C09  37358927.653 1 194537761.483 1        43.000    37358930.048 1 150428931.623 1        32.000  
C13  35816820.572 1 186507576.246 1        50.000    35816825.932 1 144219511.750 1        32.000  
C14  21711785.034 1 113058964.141 1        43.000    21711785.177 1  87424372.438 1        36.000  
C16  36390913.075 1 189497037.209 1        46.000    36390916.774 1 146531143.999 1        30.000  
C24  22193065.421 1 115565117.593 1        51.000                                                  
C26  23318571.260 1 121425958.373 1        39.000                                                  
> 2023 08 04 09 50 10.1000000  0 23                     
G12  23188699.541 1 121857448.110 1        33.000    23188704.169 1  94953860.459 1         7.000                  
G23  20200404.488 1 106153860.347 1        50.000    20200405.810 1  82717282.256 1        36.000    20200404.774 1
G24  20947490.737 1 110079837.010 1        42.000    20947493.274 1  85776479.169 1        32.000    20947493.685 1
R05  21162127.705 1 113123662.432 1        28.000                                                  
R15  20872287.649 1 111535182.126 1        39.000                                                  
R16  20132281.250 1 107543189.980 1        51.000    20132290.864 1  83644614.964 1        40.000  
R21  22307947.532 1 119374328.15611        34.000                                                  
E12  25468171.212 1 133836126.530 1        40.000  
E19  24298988.692 1 127692051.746 1        39.000  
E21  25747394.494 1 135303497.932 1        32.000  
C01  37821195.632 1 196944899.287 1        42.000                                                  
C02  38323457.218 1 199560305.035 1        39.000    38323455.628 1 154312682.826 1        31.000  
C03  37204353.743 1 193732840.629 1        43.000    37204354.851 1 149806515.971 1        32.000  
C04  38786363.246 1 201970764.180 1        37.000                                                  
C05  39958100.358 1 208072323.458 1        31.000                                                  
C06  36158165.745 1 188285148.643 1        45.000    36158164.744 1 145593942.736 1        34.000  
C08  35998106.706 1 187451586.901 1        46.000    35998103.221 1 144949450.377 1        31.000  
C09  37358919.183 1 194537717.271 1        43.000    37358921.471 1 150428897.415 1        32.000  
C13  35816829.720 1 186507623.844 1        50.000    35816835.188 1 144219548.531 1        32.000  
C14  21711788.733 1 113058983.922 1        43.000    21711789.019 1  87424387.730 1        37.000  
C16  36390909.572 1 189497018.939 1        46.000    36390913.253 1 146531129.874 1        30.000  
C24  22193037.670 1 115564973.080 1        51.000                                                  
C26  23318600.387 1 121426109.775 1        39.000                                                  
> 2023 08 04 09 50 10.2000000  0 22                     
G12  23188649.918 1 121857187.399 1        33.000    23188654.564 1  94953657.321 1         7.000                  
G23  20200416.871 1 106153925.504 1        50.000    20200418.211 1  82717333.018 1        36.000    20200417.175 1
G24  20947532.747 1 110080057.960 1        42.000    20947535.320 1  85776651.349 1        32.000    20947535.731 1
R15  20872322.476 1 111535366.785 1        40.000                                                  
R16  20132237.256 1 107542955.046 1        51.000    20132246.888 1  83644432.233 1        40.000  
R21  22308002.407 1 119374620.848 1        34.000                                                  
E12  25468214.437 1 133836353.741 1        40.000  
E19  24299000.646 1 127692114.722 1        39.000  
E21  25747360.865 1 135303320.777 1        32.000  
C01  37821196.811 1 196944905.332 1        42.000                                                  
C02  38323457.665 1 199560307.236 1        39.000    38323456.057 1 154312684.501 1        31.000  
C03  37204354.761 1 193732845.590 1        43.000    37204355.869 1 149806519.791 1        32.000  
C04  38786363.979 1 201970767.916 1        37.000                                                  
C05  39958100.215 1 208072323.234 1        31.000                                                  
C06  36158159.777 1 188285117.594 1        45.000    36158158.812 1 145593918.743 1        34.000  
C08  35998121.608 1 187451664.647 1        45.000    35998117.945 1 144949510.481 1        31.000  
C09  37358910.678 1 194537673.105 1        43.000    37358913.144 1 150428863.276 1        32.000  
C13  35816838.869 1 186507671.485 1        50.000    35816844.337 1 144219585.350 1        32.000  
C14  21711792.539 1 113059003.750 1        43.000    21711792.771 1  87424403.058 1        37.000  
C16  36390906.052 1 189497000.719 1        46.000    36390909.733 1 146531115.760 1        30.000  
C24  22193009.920 1 115564828.613 1        51.000                                                  
C26  23318629.495 1 121426261.203 1        39.000                                                  
> 2023 08 04 09 50 10.3000000  0 22                     
G12  23188600.403 1 121856926.688 1        33.000    23188604.942 1  94953459.805 1        25.000    23188605.943 1
G23  20200429.290 1 106153990.616 1        50.000    20200430.594 1  82717383.762 1        36.000    20200429.558 1
G24  20947574.775 1 110080278.879 1        41.000    20947577.348 1  85776823.494 1        32.000    20947577.688 1
R15  20872357.070 1 111535551.376 1        40.000                                                  
R16  20132193.263 1 107542720.065 1        51.000    20132202.876 1  83644249.483 1        40.000  
R21  22308057.247 1 119374913.475 1        34.000                                                  
E12  25468257.680 1 133836580.900 1        40.000  
E19  24299012.654 1 127692177.637 1        39.000  
E21  25747327.110 1 135303143.557 1        32.000  
C01  37821197.991 1 196944911.331 1        42.000                                                  
C02  38323458.076 1 199560309.411 1        39.000    38323456.361 1 154312686.169 1        31.000  
C03  37204355.726 1 193732850.513 1        43.000    37204356.781 1 149806523.598 1        32.000  
C04  38786364.658 1 201970771.612 1        37.000                                                  
C05  39958100.108 1 208072323.019 1        31.000                                                  
C06  36158153.773 1 188285086.501 1        45.000    36158152.915 1 145593894.693 1        34.000  
C08  35998136.565 1 187451742.354 1        46.000    35998132.955 1 144949570.587 1        31.000  
C09  37358902.261 1 194537628.880 1        43.000    37358904.834 1 150428829.075 1        32.000  
C13  35816848.018 1 186507719.076 1        50.000    35816853.611 1 144219622.159 1        32.000  
C14  21711796.363 1 113059023.526 1        43.000    21711796.577 1  87424418.347 1        37.000  
C16  36390902.550 1 189496982.453 1        46.000    36390906.052 1 146531101.665 1        30.000  
C24  22192982.187 1 115564684.099 1        51.000                                                  
C26  23318658.532 1 121426412.596 1        39.000                                                  
> 2023 08 04 09 50 10.4000000  0 22                     
G12  23188550.870 1 121856665.977 1        32.000    23188555.338 1  94953256.676 1        25.000    23188556.303 1
G23  20200441.673 1 106154055.761 1        50.000    20200442.995 1  82717434.511 1        36.000    20200441.923 1
G24  20947616.749 1 110080499.817 1        41.000    20947619.394 1  85776995.667 1        32.000    20947619.698 1
R15  20872391.629 1 111535736.023 1        40.000                                                  
R16  20132149.287 1 107542485.122 1        51.000    20132158.883 1  83644066.738 1        40.000  
R21  22308112.320 1 119375206.179 1        34.000                                                  
E12  25468300.905 1 133836808.091 1        40.000  
E19  24299024.626 1 127692240.587 1        39.000  
E21  25747293.409 1 135302966.404 1        32.000  
C01  37821199.170 1 196944917.344 1        42.000                                                  
C02  38323458.558 1 199560311.580 1        39.000    38323456.843 1 154312687.862 1        31.000  
C03  37204356.691 1 193732855.447 1        43.000    37204357.656 1 149806527.427 1        32.000  
C04  38786365.373 1 201970775.308 1        37.000                                                  
C05  39958100.125 1 208072322.803 1        30.000                                                  
C06  36158147.804 1 188285055.432 1        45.000    36158146.857 1 145593870.666 1        34.000  
C08  35998151.468 1 187451820.090 1        45.000    35998147.894 1 144949630.687 1        31.000  
C09  37358893.791 1 194537584.694 1        43.000    37358896.186 1 150428794.911 1        32.000  
C13  35816857.167 1 186507766.700 1        50.000    35816862.814 1 144219658.983 1        32.000  
C14  21711800.187 1 113059043.337 1        43.000    21711800.366 1  87424433.653 1        36.000  
C16  36390899.048 1 189496964.206 1        46.000    36390902.550 1 146531087.540 1        30.000  
C24  22192954.419 1 115564539.621 1        51.000                                                  
C26  23318687.641 1 121426564.027 1        39.000                                                  
> 2023 08 04 09 50 10.5000000  0 22                     
G12  23188501.141 1 121856405.210 1        33.000    23188505.715 1  94953053.486 1        25.000    23188506.466 1
G23  20200454.056 1 106154120.853 1        50.000    20200455.379 1  82717485.264 1        36.000    20200454.235 1
G24  20947658.795 1 110080720.702 1        41.000    20947661.422 1  85777167.753 1        32.000    20947661.672 1
R15  20872426.188 1 111535920.608 1        40.000                                                  
R16  20132105.276 1 107542250.119 1        51.000    20132114.925 1  83643883.965 1        40.000  
R21  22308167.356 1 119375498.808 1        34.000                                                  
E12  25468344.130 1 133837035.238 1        40.000  
E19  24299036.563 1 127692303.466 1        39.000  
E21  25747259.673 1 135302789.152 1        32.000  
C01  37821200.332 1 196944923.297 1        42.000                                                  
C02  38323458.969 1 199560313.674 1        39.000    38323457.343 1 154312689.503 1        31.000  
C03  37204357.603 1 193732860.323 1        43.000    37204358.657 1 149806531.186 1        32.000  
C04  38786366.087 1 201970778.978 1        37.000                                                  
C05  39958100.179 1 208072322.545 1        31.000                                                  
C06  36158141.818 1 188285024.295 1        45.000    36158140.835 1 145593846.573 1        33.000  
C08  35998166.352 1 187451897.754 1        45.000    35998162.975 1 144949690.737 1        31.000  
C09  37358885.268 1 194537540.435 1        43.000    37358887.734 1 150428760.676 1        32.000  
C13  35816866.316 1 186507814.256 1        50.000    35816871.981 1 144219695.786 1        32.000  
C14  21711804.011 1 113059063.080 1        43.000    21711804.118 1  87424448.913 1        36.000  
C16  36390895.545 1 189496945.896 1        46.000    36390899.244 1 146531073.404 1        30.000  
C24  22192926.668 1 115564395.084 1        51.000                                                  
C26  23318716.660 1 121426715.399 1        39.000                                                  
> 2023 08 04 09 50 10.6000000  0 22                     
G12  23188451.554 1 121856144.499 1        33.000    23188456.093 1  94952850.328 1        25.000    23188456.844 1
G23  20200466.475 1 106154185.986 1        50.000    20200467.762 1  82717536.001 1        36.000    20200466.654 1
G24  20947700.841 1 110080941.639 1        42.000    20947703.468 1  85777339.926 1        32.000    20947703.664 1
R15  20872460.818 1 111536105.237 1        40.000                                                  
R16  20132061.282 1 107542015.164 1        51.000    20132070.967 1  83643701.218 1        40.000  
R21  22308222.089 1 119375791.449 1        34.000                                                  
E12  25468387.355 1 133837262.414 1        40.000  
E19  24299048.553 1 127692366.398 1        39.000  
E21  25747225.954 1 135302611.999 1        32.000  
C01  37821201.475 1 196944929.298 1        42.000                                                  
C02  38323459.380 1 199560315.823 1        38.000    38323457.754 1 154312691.176 1        31.000  
C03  37204358.568 1 193732865.249 1        43.000    37204359.550 1 149806535.009 1        32.000  
C04  38786366.784 1 201970782.662 1        37.000                                                  
C05  39958100.090 1 208072322.297 1        31.000                                                  
C06  36158135.868 1 188284993.208 1        45.000    36158134.778 1 145593822.535 1        33.000  
C08  35998181.291 1 187451975.467 1        45.000    35998177.985 1 144949750.821 1        31.000  
C09  37358876.798 1 194537496.219 1        43.000    37358879.460 1 150428726.479 1        32.000  
C13  35816875.483 1 186507861.859 1        50.000    35816881.058 1 144219732.571 1        32.000  
C14  21711807.817 1 113059082.865 1        43.000    21711807.906 1  87424464.230 1        36.000  
C16  36390892.025 1 189496927.641 1        46.000    36390895.599 1 146531059.292 1        30.000  
C24  22192898.917 1 115564250.591 1        51.000                                                  
C26  23318745.697 1 121426866.819 1        39.000                                                  
> 2023 08 04 09 50 10.7000000  0 22                     
G12  23188401.932 1 121855883.771 1        33.000    23188406.471 1  94952641.515 1         7.000                  
G23  20200478.859 1 106154251.110 1        50.000    20200480.163 1  82717586.754 1        36.000    20200478.984 1
G24  20947742.869 1 110081162.553 1        42.000    20947745.496 1  85777512.069 1        32.000    20947745.781 1
R15  20872495.323 1 111536289.875 1        40.000                                                  
R16  20132017.289 1 107541780.200 1        51.000    20132026.867 1  83643518.471 1        40.000  
R21  22308276.840 1 119376084.109 1        34.000                                                  
E12  25468430.598 1 133837489.575 1        40.000  
E19  24299060.543 1 127692429.310 1        39.000  
E21  25747192.163 1 135302434.773 1        32.000  
C01  37821202.655 1 196944935.285 1        42.000                                                  
C02  38323459.791 1 199560317.963 1        38.000    38323458.094 1 154312692.791 1        31.000  
C03  37204359.532 1 193732870.140 1        43.000    37204360.533 1 149806538.799 1        32.000  
C04  38786367.463 1 201970786.349 1        37.000                                                  
C05  39958099.982 1 208072322.024 1        31.000                                                  
C06  36158129.918 1 188284962.107 1        45.000    36158128.917 1 145593798.487 1        34.000  
C08  35998196.212 1 187452053.166 1        45.000    35998192.852 1 144949810.906 1        31.000  
C09  37358868.346 1 194537452.000 1        43.000    37358870.776 1 150428692.293 1        32.000  
C13  35816884.650 1 186507909.448 1        50.000    35816890.261 1 144219769.380 1        32.000  
C14  21711811.623 1 113059102.652 1        43.000    21711811.730 1  87424479.533 1        36.000  
C16  36390888.523 1 189496909.354 1        46.000    36390892.007 1 146531045.131 1        30.000  
C24  22192871.149 1 115564106.090 1        51.000                                                  
C26  23318774.842 1 121427018.209 1        39.000                                                  
> 2023 08 04 09 50 10.8000000  0 22                     
G12  23188352.328 1 121855623.045 1        32.000    23188356.866 1  94952444.066 1        25.000    23188356.670 1
G23  20200491.278 1 106154316.275 1        50.000    20200492.564 1  82717637.520 1        36.000    20200491.367 1
G24  20947784.897 1 110081383.506 1        41.000    20947787.541 1  85777684.233 1        32.000    20947787.881 1
R15  20872530.025 1 111536474.547 1        40.000                                                  
R16  20131973.295 1 107541545.278 1        51.000    20131982.962 1  83643335.749 1        40.000  
R21  22308331.698 1 119376376.819 1        34.000                                                  
E12  25468473.824 1 133837716.778 1        40.000  
E19  24299072.515 1 127692492.254 1        39.000  
E21  25747158.409 1 135302257.614 1        32.000  
C01  37821203.762 1 196944941.287 1        42.000                                                  
C02  38323460.238 1 199560320.138 1        38.000    38323458.648 1 154312694.475 1        31.000  
C03  37204360.462 1 193732875.080 1        43.000    37204361.587 1 149806542.620 1        32.000  
C04  38786368.214 1 201970790.053 1        37.000                                                  
C05  39958099.911 1 208072321.838 1        31.000                                                  
C06  36158123.967 1 188284931.037 1        45.000    36158122.895 1 145593774.460 1        34.000  
C08  35998211.132 1 187452130.905 1        45.000    35998207.916 1 144949871.024 1        31.000  
C09  37358859.858 1 194537407.805 1        43.000    37358862.342 1 150428658.112 1        32.000  
C13  35816893.817 1 186507957.071 1        50.000    35816899.428 1 144219806.222 1        32.000  
C14  21711815.447 1 113059122.460 1        43.000    21711815.554 1  87424494.858 1        36.000  
C16  36390885.003 1 189496891.108 1        46.000    36390888.594 1 146531031.040 1        30.000  
C24  22192843.416 1 115563961.623 1        51.000                                                  
C26  23318803.879 1 121427169.663 1        38.000                                                  
> 2023 08 04 09 50 10.9000000  0 22                     
G12  23188302.777 1 121855362.375 1        32.000    23188307.262 1  94952240.889 1        25.000    23188307.190 1
G23  20200503.661 1 106154381.449 1        50.000    20200504.947 1  82717688.312 1        36.000    20200503.839 1
G24  20947826.925 1 110081604.481 1        41.000    20947829.605 1  85777856.431 1        32.000    20947830.123 1
R15  20872564.798 1 111536659.230 1        39.000                                                  
R16  20131929.320 1 107541310.377 1        51.000    20131938.987 1  83643153.057 1        40.000  
R21  22308386.663 1 119376669.529 1        34.000                                                  
E12  25468517.084 1 133837943.998 1        40.000  
E19  24299084.505 1 127692555.218 1        39.000  
E21  25747124.583 1 135302080.494 1        31.000  
C01  37821204.924 1 196944947.309 1        42.000                                                  
C02  38323460.685 1 199560322.319 1        38.000    38323459.023 1 154312696.181 1        31.000  
C03  37204361.427 1 193732880.024 1        43.000    37204362.642 1 149806546.420 1        32.000  
C04  38786368.893 1 201970793.772 1        37.000                                                  
C05  39958099.804 1 208072321.635 1        30.000                                                  
C06  36158118.035 1 188284899.970 1        45.000    36158116.945 1 145593750.447 1        34.000  
C08  35998226.071 1 187452208.653 1        45.000    35998222.693 1 144949931.139 1        31.000  
C09  37358851.370 1 194537363.616 1        42.000    37358853.872 1 150428623.935 1        32.000  
C13  35816902.966 1 186508004.707 1        50.000    35816908.487 1 144219843.045 1        32.000  
C14  21711819.217 1 113059142.282 1        42.000    21711819.378 1  87424510.182 1        36.000  
C16  36390881.518 1 189496872.879 1        46.000    36390885.128 1 146531016.940 1        30.000  
C24  22192815.683 1 115563817.173 1        51.000                                                  
C26  23318832.934 1 121427321.111 1        38.000                                                  
> 2023 08 04 09 50 11.0000000  0 22                     
G12  23188253.262 1 121855101.664 1        33.000    23188257.640 1  94952037.687 1        25.000    23188257.586 1
G23  20200516.080 1 106154446.588 1        50.000    20200517.348 1  82717739.061 1        36.000    20200516.312 1
G24  20947868.953 1 110081825.413 1        41.000    20947871.633 1  85778028.551 1        32.000    20947872.187 1
R15  20872599.321 1 111536843.862 1        39.000                                                  
R16  20131885.344 1 107541075.437 1        51.000    20131895.029 1  83642970.324 1        40.000  
R21  22308441.289 1 119376962.197 1        34.000                                                  
E12  25468560.310 1 133838171.174 1        40.000  
E19  24299096.460 1 127692618.121 1        39.000  
E21  25747090.757 1 135301903.292 1        32.000  
C01  37821206.068 1 196944953.299 1        42.000                                                  
C02  38323461.096 1 199560324.456 1        38.000    38323459.345 1 154312697.812 1        31.000  
C03  37204362.391 1 193732884.932 1        43.000    37204363.696 1 149806550.213 1        33.000  
C04  38786369.572 1 201970797.442 1        37.000                                                  
C05  39958099.643 1 208072321.347 1        30.000                                                  
C06  36158112.084 1 188284868.869 1        45.000    36158111.030 1 145593726.381 1        34.000  
C08  35998241.009 1 187452286.360 1        45.000    35998237.310 1 144949991.234 1        31.000  
C09  37358842.865 1 194537319.389 1        42.000    37358845.331 1 150428589.736 1        32.000  
C13  35816912.097 1 186508052.295 1        50.000    35816917.708 1 144219879.814 1        32.000  
C14  21711823.006 1 113059162.067 1        43.000    21711823.113 1  87424525.460 1        36.000  
C16  36390878.034 1 189496854.601 1        46.000    36390881.536 1 146531002.793 1        30.000  
C24  22192787.951 1 115563672.683 1        51.000                                                  
C26  23318862.025 1 121427472.519 1        38.000                                                  
> 2023 08 04 09 50 11.1000000  0 22                     
G12  23188203.568 1 121854841.009 1        33.000    23188208.035 1  94951828.946 1         6.000                  
G23  20200528.463 1 106154511.818 1        50.000    20200529.767 1  82717789.892 1        36.000    20200528.695 1
G24  20947910.998 1 110082046.424 1        41.000    20947913.697 1  85778200.792 1        32.000    20947914.215 1
R15  20872633.897 1 111537028.602 1        39.000                                                  
R16  20131841.386 1 107540840.587 1        51.000    20131851.107 1  83642787.665 1        40.000  
R21  22308496.021 1 119377254.958 1        34.000                                                  
E12  25468603.553 1 133838398.433 1        40.000  
E19  24299108.450 1 127692681.118 1        39.000  
E21  25747057.181 1 135301726.165 1        32.000  
C01  37821207.229 1 196944959.353 1        42.000                                                  
C02  38323461.560 1 199560326.660 1        38.000    38323459.756 1 154312699.538 1        31.000  
C03  37204363.356 1 193732889.907 1        43.000    37204364.554 1 149806554.071 1        33.000  
C04  38786370.269 1 201970801.205 1        37.000                                                  
C05  39958099.607 1 208072321.193 1        30.000                                                  
C06  36158106.116 1 188284837.843 1        45.000    36158105.151 1 145593702.442 1        34.000  
C08  35998255.948 1 187452364.152 1        45.000    35998252.106 1 144950051.385 1        31.000  
C09  37358834.377 1 194537275.243 1        43.000    37358836.932 1 150428555.627 1        32.000  
C13  35816921.246 1 186508099.962 1        50.000    35816926.803 1 144219916.718 1        32.000  
C14  21711826.794 1 113059181.941 1        42.000    21711826.973 1  87424540.846 1        36.000  
C16  36390874.549 1 189496836.404 1        46.000    36390878.069 1 146530988.762 1        30.000  
C24  22192760.218 1 115563528.283 1        51.000                                                  
C26  23318891.098 1 121427624.029 1        39.000                                                  
> 2023 08 04 09 50 11.2000000  0 22                     
G12  23188153.981 1 121854580.494 1        32.000    23188158.467 1  94951631.650 1        25.000    23188158.056 1
G23  20200540.882 1 106154577.151 1        50.000    20200542.186 1  82717840.802 1        36.000    20200541.204 1
G24  20947953.098 1 110082267.552 1        41.000    20947955.778 1  85778373.111 1        33.000    20947956.314 1
R15  20872668.545 1 111537213.461 1        39.000                                                  
R16  20131797.428 1 107540605.850 1        51.000    20131807.203 1  83642605.092 1        40.000  
R21  22308550.754 1 119377547.832 1        34.000                                                  
E12  25468646.796 1 133838625.791 1        40.000  
E19  24299120.476 1 127692744.229 1        39.000  
E21  25747023.480 1 135301549.186 1        32.000  
C01  37821208.426 1 196944965.515 1        42.000                                                  
C02  38323462.061 1 199560328.975 1        38.000    38323460.238 1 154312701.335 1        31.000  
C03  37204364.357 1 193732894.990 1        43.000    37204365.429 1 149806558.010 1        33.000  
C04  38786370.948 1 201970805.063 1        37.000                                                  
C05  39958099.589 1 208072321.137 1        31.000                                                  
C06  36158100.166 1 188284806.928 1        45.000    36158099.165 1 145593678.500 1        34.000  
C08  35998270.886 1 187452442.033 1        45.000    35998267.080 1 144950111.617 1        31.000  
C09  37358825.925 1 194537231.202 1        43.000    37358828.301 1 150428521.560 1        32.000  
C13  35816930.412 1 186508147.737 1        50.000    35816936.184 1 144219953.654 1        32.000  
C14  21711830.654 1 113059201.906 1        42.000    21711830.779 1  87424556.305 1        36.000  
C16  36390871.083 1 189496818.306 1        46.000    36390874.746 1 146530974.761 1        30.000  
C24  22192732.503 1 115563383.985 1        51.000                                                  
C26  23318920.278 1 121427775.649 1        38.000                                                  
> 2023 08 04 09 50 11.3000000  0 22                     
G12  23188104.377 1 121854319.792 1        33.000    23188108.844 1  94951428.416 1        25.000    23188108.130 1
G23  20200553.265 1 106154642.336 1        50.000    20200554.605 1  82717891.603 1        36.000    20200553.658 1
G24  20947995.144 1 110082488.540 1        41.000    20947997.824 1  85778545.298 1        32.000    20947998.235 1
R15  20872703.068 1 111537398.171 1        39.000                                                  
R16  20131753.471 1 107540370.958 1        51.000    20131763.245 1  83642422.405 1        40.000  
R21  22308605.416 1 119377840.533 1        34.000                                                  
E12  25468690.057 1 133838853.005 1        40.000  
E19  24299132.430 1 127692807.173 1        39.000  
E21  25746989.761 1 135301372.033 1        32.000  
C01  37821209.624 1 196944971.531 1        42.000                                                  
C02  38323462.507 1 199560331.118 1        38.000    38323460.506 1 154312702.976 1        31.000  
C03  37204365.322 1 193732899.924 1        43.000    37204366.466 1 149806561.810 1        32.000  
C04  38786371.609 1 201970808.776 1        37.000                                                  
C05  39958099.464 1 208072320.899 1        31.000                                                  
C06  36158094.197 1 188284775.855 1        45.000    36158093.268 1 145593654.464 1        34.000  
C08  35998285.825 1 187452519.773 1        45.000    35998281.822 1 144950171.706 1        31.000  
C09  37358817.455 1 194537187.009 1        43.000    37358819.706 1 150428487.394 1        32.000  
C13  35816939.561 1 186508195.357 1        50.000    35816945.369 1 144219990.495 1        32.000  
C14  21711834.513 1 113059221.728 1        42.000    21711834.567 1  87424571.608 1        36.000  
C16  36390867.580 1 189496800.057 1        46.000    36390871.226 1 146530960.652 1        30.000  
C24  22192704.806 1 115563239.539 1        51.000                                                  
C26  23318949.261 1 121427927.100 1        38.000                                                  
> 2023 08 04 09 50 11.4000000  0 22                     
G12  23188054.773 1 121854059.119 1        32.000    23188059.258 1  94951225.331 1        25.000    23188058.329 1
G23  20200565.684 1 106154707.513 1        50.000    20200567.006 1  82717942.400 1        36.000    20200566.024 1
G24  20948037.243 1 110082709.495 1        41.000    20948039.888 1  85778717.462 1        32.000    20948040.245 1
R15  20872737.824 1 111537582.860 1        40.000                                                  
R16  20131709.495 1 107540136.062 1        51.000    20131719.233 1  83642239.694 1        40.000  
R21  22308660.220 1 119378133.249 1        34.000                                                  
E12  25468733.318 1 133839080.205 1        40.000  
E19  24299144.384 1 127692870.096 1        39.000  
E21  25746956.096 1 135301194.866 1        32.000  
C01  37821210.767 1 196944977.518 1        42.000                                                  
C02  38323462.954 1 199560333.287 1        39.000    38323460.881 1 154312704.645 1        31.000  
C03  37204366.305 1 193732904.830 1        43.000    37204367.431 1 149806565.624 1        32.000  
C04  38786372.288 1 201970812.449 1        37.000                                                  
C05  39958099.482 1 208072320.672 1        31.000                                                  
C06  36158088.247 1 188284744.768 1        45.000    36158087.318 1 145593630.439 1        34.000  
C08  35998300.763 1 187452597.500 1        45.000    35998296.868 1 144950231.850 1        31.000  
C09  37358808.985 1 194537142.788 1        43.000    37358811.290 1 150428453.211 1        32.000  
C13  35816948.675 1 186508242.966 1        50.000    35816954.661 1 144220027.278 1        32.000  
C14  21711838.337 1 113059241.548 1        42.000    21711838.373 1  87424586.942 1        36.000  
C16  36390864.078 1 189496781.799 1        46.000    36390867.741 1 146530946.511 1        30.000  
C24  22192677.073 1 115563095.084 1        51.000                                                  
C26  23318978.316 1 121428078.548 1        38.000                                                  
> 2023 08 04 09 50 11.5000000  0 22                     
G12  23188005.329 1 121853798.455 1        32.000    23188009.653 1  94951022.257 1        25.000    23188008.992 1
G23  20200578.103 1 106154772.732 1        50.000    20200579.408 1  82717993.199 1        36.000    20200578.425 1
G24  20948079.289 1 110082930.488 1        41.000    20948081.934 1  85778889.680 1        32.000    20948082.416 1
R15  20872772.597 1 111537767.594 1        39.000                                                  
R16  20131665.519 1 107539901.215 1        51.000    20131675.276 1  83642057.042 1        40.000  
R21  22308715.024 1 119378425.998 1        34.000                                                  
E12  25468776.543 1 133839307.443 1        40.000  
E19  24299156.339 1 127692933.070 1        39.000  
E21  25746922.395 1 135301017.754 1        32.000  
C01  37821211.911 1 196944983.546 1        42.000                                                  
C02  38323463.365 1 199560335.482 1        39.000    38323461.417 1 154312706.354 1        31.000  
C03  37204367.270 1 193732909.785 1        43.000    37204368.324 1 149806569.453 1        32.000  
C04  38786372.931 1 201970816.168 1        37.000                                                  
C05  39958099.589 1 208072320.471 1        31.000                                                  
C06  36158082.279 1 188284713.722 1        45.000    36158081.350 1 145593606.423 1        34.000  
C08  35998315.684 1 187452675.263 1        45.000    35998312.039 1 144950291.983 1        31.000  
C09  37358800.533 1 194537098.619 1        43.000    37358802.802 1 150428419.036 1        32.000  
C13  35816957.859 1 186508290.616 1        50.000    35816963.899 1 144220064.101 1        31.000  
C14  21711842.161 1 113059261.393 1        42.000    21711842.179 1  87424602.268 1        36.000  
C16  36390860.593 1 189496763.573 1        46.000    36390864.292 1 146530932.427 1        30.000  
C24  22192649.323 1 115562950.669 1        51.000                                                  
C26  23319007.461 1 121428230.037 1        39.000                                                  
> 2023 08 04 09 50 11.6000000  0 22                     
G12  23187955.868 1 121853537.750 1        32.000    23187960.049 1  94950819.170 1        25.000    23187959.173 1
G23  20200590.504 1 106154837.920 1        50.000    20200591.809 1  82718044.002 1        36.000    20200590.862 1
G24  20948121.317 1 110083151.470 1        42.000    20948123.997 1  85779061.871 1        32.000    20948124.498 1
R15  20872807.263 1 111537952.307 1        40.000                                                  
R16  20131621.561 1 107539666.335 1        51.000    20131631.336 1  83641874.360 1        40.000  
R21  22308769.703 1 119378718.723 1        35.000                                                  
E12  25468819.768 1 133839534.651 1        40.000  
E19  24299168.311 1 127692996.008 1        39.000  
E21  25746888.640 1 135300840.610 1        32.000  
C01  37821213.072 1 196944989.527 1        42.000                                                  
C02  38323463.758 1 199560337.625 1        39.000    38323461.793 1 154312707.961 1        31.000  
C03  37204368.217 1 193732914.705 1        43.000    37204369.253 1 149806573.255 1        32.000  
C04  38786373.664 1 201970819.873 1        37.000                                                  
C05  39958099.571 1 208072320.227 1        30.000                                                  
C06  36158076.310 1 188284682.635 1        45.000    36158075.471 1 145593582.429 1        34.000  
C08  35998330.622 1 187452752.996 1        45.000    35998326.906 1 144950352.062 1        31.000  
C09  37358792.063 1 194537054.409 1        43.000    37358794.297 1 150428384.842 1        32.000  
C13  35816966.990 1 186508338.225 1        50.000    35816972.887 1 144220100.963 1        32.000  
C14  21711845.967 1 113059281.207 1        43.000    21711846.075 1  87424617.603 1        36.000  
C16  36390857.073 1 189496745.309 1        46.000    36390860.593 1 146530918.304 1        30.000  
C24  22192621.590 1 115562806.220 1        51.000                                                  
C26  23319036.587 1 121428381.521 1        39.000                                                  
> 2023 08 04 09 50 11.7000000  0 22                     
G12  23187906.227 1 121853277.050 1        33.000    23187910.445 1  94950615.929 1        25.000    23187909.891 1
G23  20200602.887 1 106154903.094 1        50.000    20200604.228 1  82718094.801 1        36.000    20200603.298 1
G24  20948163.381 1 110083372.434 1        41.000    20948166.061 1  85779234.049 1        32.000    20948166.579 1
R15  20872841.946 1 111538136.999 1        40.000                                                  
R16  20131577.586 1 107539431.442 1        51.000    20131587.378 1  83641691.668 1        40.000  
R21  22308824.418 1 119379011.425 1        35.000                                                  
E12  25468863.047 1 133839761.842 1        40.000  
E19  24299180.301 1 127693058.919 1        39.000  
E21  25746854.886 1 135300663.443 1        32.000  
C01  37821214.198 1 196944995.514 1        42.000                                                  
C02  38323464.169 1 199560339.751 1        39.000    38323462.186 1 154312709.654 1        31.000  
C03  37204369.182 1 193732919.587 1        43.000    37204370.129 1 149806577.003 1        32.000  
C04  38786374.432 1 201970823.539 1        37.000                                                  
C05  39958099.446 1 208072319.968 1        30.000                                                  
C06  36158070.360 1 188284651.530 1        45.000    36158069.520 1 145593558.366 1        34.000  
C08  35998345.525 1 187452830.718 1        45.000    35998341.826 1 144950412.160 1        31.000  
C09  37358783.540 1 194537010.182 1        43.000    37358785.845 1 150428350.669 1        32.000  
C13  35816976.139 1 186508385.825 1        50.000    35816981.982 1 144220137.755 1        32.000  
C14  21711849.738 1 113059301.006 1        43.000    21711849.809 1  87424632.912 1        37.000  
C16  36390853.553 1 189496727.031 1        46.000    36390856.912 1 146530904.152 1        30.000  
C24  22192593.857 1 115562661.759 1        51.000                                                  
C26  23319065.660 1 121428532.949 1        39.000                                                  
> 2023 08 04 09 50 11.8000000  0 22                     
G12  23187856.623 1 121853016.459 1        32.000    23187860.858 1  94950407.226 1         7.000                  
G23  20200615.324 1 106154968.377 1        50.000    20200616.647 1  82718145.661 1        36.000    20200615.717 1
G24  20948205.408 1 110083593.506 1        41.000    20948208.125 1  85779406.322 1        32.000    20948208.714 1
R15  20872876.559 1 111538321.819 1        40.000                                                  
R16  20131533.628 1 107539196.667 1        51.000    20131543.420 1  83641509.062 1        40.000  
R21  22308879.276 1 119379304.245 1        35.000                                                  
E12  25468906.272 1 133839989.144 1        40.000  
E19  24299192.273 1 127693121.934 1        39.000  
E21  25746821.167 1 135300486.376 1        32.000  
C01  37821215.377 1 196945001.588 1        42.000                                                  
C02  38323464.598 1 199560341.999 1        39.000    38323462.454 1 154312711.377 1        31.000  
C03  37204370.129 1 193732924.594 1        43.000    37204371.004 1 149806580.868 1        32.000  
C04  38786375.147 1 201970827.316 1        37.000                                                  
C05  39958099.536 1 208072319.797 1        31.000                                                  
C06  36158064.410 1 188284620.539 1        45.000    36158063.570 1 145593534.375 1        34.000  
C08  35998360.464 1 187452908.536 1        45.000    35998356.872 1 144950472.369 1        31.000  
C09  37358775.052 1 194536966.068 1        43.000    37358777.339 1 150428316.537 1        32.000  
C13  35816985.288 1 186508433.530 1        50.000    35816991.310 1 144220174.652 1        32.000  
C14  21711853.597 1 113059320.918 1        43.000    21711853.687 1  87424648.312 1        37.000  
C16  36390850.051 1 189496708.869 1        46.000    36390853.482 1 146530890.110 1        30.000  
C24  22192566.125 1 115562517.408 1        51.000                                                  
C26  23319094.787 1 121428684.507 1        39.000                                                  
> 2023 08 04 09 50 11.9000000  0 22                     
G12  23187807.072 1 121852755.813 1        32.000    23187811.254 1  94950209.779 1        24.000    23187810.843 1
G23  20200627.725 1 106155033.622 1        50.000    20200629.066 1  82718196.478 1        36.000    20200628.083 1
G24  20948247.454 1 110083814.529 1        42.000    20948250.188 1  85779578.557 1        32.000    20948250.528 1
R15  20872911.225 1 111538506.598 1        40.000                                                  
R16  20131489.706 1 107538961.843 1        51.000    20131499.498 1  83641326.415 1        40.000  
R21  22308934.170 1 119379597.021 1        35.000                                                  
E12  25468949.551 1 133840216.400 1        40.000  
E19  24299204.281 1 127693184.913 1        39.000  
E21  25746787.430 1 135300309.258 1        32.000  
C01  37821216.503 1 196945007.607 1        42.000                                                  
C02  38323465.045 1 199560344.177 1        39.000    38323462.865 1 154312713.061 1        31.000  
C03  37204371.076 1 193732929.546 1        43.000    37204371.934 1 149806584.747 1        32.000  
C04  38786375.951 1 201970831.041 1        37.000                                                  
C05  39958099.500 1 208072319.628 1        31.000                                                  
C06  36158058.477 1 188284589.484 1        45.000    36158057.566 1 145593510.370 1        34.000  
C08  35998375.366 1 187452986.301 1        45.000    35998371.757 1 144950532.487 1        31.000  
C09  37358766.600 1 194536921.893 1        43.000    37358768.941 1 150428282.406 1        32.000  
C13  35816994.473 1 186508481.180 1        50.000    35817000.352 1 144220211.482 1        32.000  
C14  21711857.439 1 113059340.770 1        43.000    21711857.511 1  87424663.658 1        37.000  
C16  36390846.584 1 189496690.652 1        46.000    36390849.961 1 146530876.008 1        30.000  
C24  22192538.410 1 115562373.011 1        51.000                                                  
C26  23319123.949 1 121428836.026 1        39.000                                                  
> 2023 08 04 09 50 12.0000000  0 22                     
G12  23187757.539 1 121852495.172 1        32.000    23187761.667 1  94950001.024 1         7.000                  
G23  20200640.127 1 106155098.863 1        50.000    20200641.485 1  82718247.332 1        36.000    20200640.466 1
G24  20948289.482 1 110084035.546 1        42.000    20948292.252 1  85779750.766 1        32.000    20948292.574 1
R15  20872945.694 1 111538691.367 1        40.000                                                  
R16  20131445.748 1 107538727.022 1        51.000    20131455.630 1  83641143.779 1        40.000  
R21  22308989.206 1 119379889.782 1        35.000                                                  
E12  25468992.776 1 133840443.647 1        40.000  
E19  24299216.289 1 127693247.886 1        39.000  
E21  25746753.622 1 135300132.132 1        32.000  
C01  37821217.718 1 196945013.635 1        42.000                                                  
C02  38323465.509 1 199560346.349 1        39.000    38323463.294 1 154312714.718 1        31.000  
C03  37204372.023 1 193732934.480 1        43.000    37204372.881 1 149806588.524 1        33.000  
C04  38786376.648 1 201970834.769 1        37.000                                                  
C05  39958099.482 1 208072319.425 1        31.000                                                  
C06  36158052.509 1 188284558.435 1        45.000    36158051.669 1 145593486.366 1        34.000  
C08  35998390.305 1 187453064.070 1        45.000    35998386.803 1 144950592.624 1        31.000  
C09  37358758.183 1 194536877.716 1        43.000    37358760.685 1 150428248.258 1        31.000  
C13  35817003.604 1 186508528.832 1        50.000    35817009.394 1 144220248.305 1        32.000  
C14  21711861.227 1 113059360.633 1        43.000    21711861.388 1  87424679.022 1        37.000  
C16  36390843.100 1 189496672.423 1        46.000    36390846.370 1 146530861.950 1        30.000  
C24  22192510.659 1 115562228.620 1        51.000                                                  
C26  23319153.058 1 121428987.529 1        39.000                                                  
> 2023 08 04 09 50 12.1000000  0 22                     
G12  23187707.935 1 121852234.593 1        32.000    23187712.081 1  94949803.655 1        25.000    23187712.045 1
G23  20200652.546 1 106155164.169 1        50.000    20200653.904 1  82718298.210 1        36.000    20200652.814 1
G24  20948331.528 1 110084256.645 1        42.000    20948334.334 1  85779923.047 1        32.000    20948334.619 1
R15  20872980.324 1 111538876.206 1        40.000                                                  
R16  20131401.790 1 107538492.276 1        51.000    20131411.708 1  83640961.208 1        40.000  
R21  22309044.189 1 119380182.638 1        35.000                                                  
E12  25469036.037 1 133840670.961 1        40.000  
E19  24299228.262 1 127693310.927 1        39.000  
E21  25746719.939 1 135299955.117 1        32.000  
C01  37821218.898 1 196945019.724 1        42.000                                                  
C02  38323465.956 1 199560348.605 1        39.000    38323463.794 1 154312716.496 1        31.000  
C03  37204372.970 1 193732939.493 1        43.000    37204373.971 1 149806592.392 1        33.000  
C04  38786377.363 1 201970838.532 1        37.000                                                  
C05  39958099.393 1 208072319.253 1        31.000                                                  
C06  36158046.576 1 188284527.456 1        45.000    36158045.772 1 145593462.392 1        34.000  
C08  35998405.243 1 187453141.908 1        45.000    35998401.705 1 144950652.798 1        31.000  
C09  37358749.749 1 194536833.602 1        43.000    37358752.412 1 150428214.090 1        32.000  
C13  35817012.771 1 186508576.549 1        50.000    35817018.668 1 144220285.232 1        32.000  
C14  21711865.051 1 113059380.554 1        43.000    21711865.248 1  87424694.419 1        37.000  
C16  36390839.615 1 189496654.264 1        46.000    36390842.939 1 146530847.861 1        30.000  
C24  22192482.944 1 115562084.293 1        51.000                                                  
C26  23319182.184 1 121429139.097 1        38.000                                                  
> 2023 08 04 09 50 12.2000000  0 22                     
G12  23187658.330 1 121851973.976 1        32.000    23187662.494 1  94949600.597 1        25.000    23187661.904 1
G23  20200664.964 1 106155229.429 1        50.000    20200666.323 1  82718349.082 1        36.000    20200665.090 1
G24  20948373.592 1 110084477.688 1        42.000    20948376.415 1  85780095.284 1        32.000    20948376.683 1
R15  20873015.062 1 111539061.008 1        40.000                                                  
R16  20131357.815 1 107538257.482 1        51.000    20131367.660 1  83640778.588 1        40.000  
R21  22309099.012 1 119380475.426 1        35.000                                                  
E12  25469079.262 1 133840898.234 1        40.000  
E19  24299240.216 1 127693373.909 1        39.000  
E21  25746686.113 1 135299778.041 1        32.000  
C01  37821220.095 1 196945025.749 1        42.000                                                  
C02  38323466.403 1 199560350.786 1        39.000    38323464.277 1 154312718.183 1        31.000  
C03  37204373.935 1 193732944.442 1        43.000    37204374.989 1 149806596.239 1        33.000  
C04  38786378.131 1 201970842.277 1        37.000                                                  
C05  39958099.250 1 208072319.084 1        31.000                                                  
C06  36158040.644 1 188284496.407 1        45.000    36158039.768 1 145593438.410 1        34.000  
C08  35998420.128 1 187453219.682 1        45.000    35998416.769 1 144950712.947 1        31.000  
C09  37358741.244 1 194536789.447 1        43.000    37358743.924 1 150428179.979 1        31.000  
C13  35817021.920 1 186508624.213 1        50.000    35817027.638 1 144220322.062 1        32.000  
C14  21711868.875 1 113059400.423 1        43.000    21711869.036 1  87424709.774 1        37.000  
C16  36390836.131 1 189496636.047 1        46.000    36390839.437 1 146530833.786 1        30.000  
C24  22192455.212 1 115561939.913 1        51.000                                                  
C26  23319211.257 1 121429290.627 1        38.000                                                  
> 2023 08 04 09 50 12.3000000  0 22                     
G12  23187608.637 1 121851713.321 1        32.000    23187612.890 1  94949397.470 1        25.000    23187612.604 1
G23  20200677.366 1 106155294.676 1        50.000    20200678.741 1  82718399.911 1        36.000    20200677.366 1
G24  20948415.673 1 110084698.716 1        41.000    20948418.479 1  85780267.514 1        32.000    20948418.747 1
R15  20873049.602 1 111539245.796 1        40.000                                                  
R16  20131313.839 1 107538022.677 1        51.000    20131323.631 1  83640595.959 1        40.000  
R21  22309153.887 1 119380768.178 1        35.000                                                  
E12  25469122.487 1 133841125.477 1        40.000  
E19  24299252.224 1 127693436.873 1        39.000  
E21  25746652.537 1 135299600.938 1        32.000  
C01  37821221.292 1 196945031.765 1        42.000                                                  
C02  38323466.885 1 199560352.941 1        38.000    38323464.741 1 154312719.842 1        31.000  
C03  37204374.846 1 193732949.380 1        43.000    37204375.918 1 149806600.068 1        33.000  
C04  38786378.864 1 201970845.979 1        37.000                                                  
C05  39958099.268 1 208072318.849 1        31.000                                                  
C06  36158034.693 1 188284465.349 1        45.000    36158033.675 1 145593414.365 1        34.000  
C08  35998435.031 1 187453297.445 1        45.000    35998431.636 1 144950773.085 1        31.000  
C09  37358732.720 1 194536745.272 1        43.000    37358735.311 1 150428145.804 1        31.000  
C13  35817031.069 1 186508671.857 1        50.000    35817036.751 1 144220358.912 1        32.000  
C14  21711872.699 1 113059420.274 1        43.000    21711872.807 1  87424725.147 1        37.000  
C16  36390832.646 1 189496617.809 1        46.000    36390835.952 1 146530819.695 1        30.000  
C24  22192427.497 1 115561795.522 1        51.000                                                  
C26  23319240.383 1 121429442.148 1        39.000                                                  
> 2023 08 04 09 50 12.4000000  0 22                     
G12  23187559.032 1 121851452.754 1        32.000    23187563.303 1  94949194.406 1        25.000    23187563.303 1
G23  20200689.785 1 106155359.976 1        50.000    20200691.160 1  82718450.808 1        36.000    20200689.731 1
G24  20948457.755 1 110084919.786 1        41.000    20948460.542 1  85780439.819 1        32.000    20948460.846 1
R15  20873084.340 1 111539430.634 1        40.000                                                  
R16  20131269.899 1 107537787.922 1        51.000    20131279.656 1  83640413.377 1        40.000  
R21  22309208.781 1 119381061.022 1        35.000                                                  
E12  25469165.730 1 133841352.774 1        40.000  
E19  24299264.214 1 127693499.888 1        39.000  
E21  25746618.764 1 135299423.850 1        32.000  
C01  37821222.453 1 196945037.802 1        42.000                                                  
C02  38323467.368 1 199560355.153 1        38.000    38323465.277 1 154312721.594 1        31.000  
C03  37204375.811 1 193732954.358 1        43.000    37204376.955 1 149806603.909 1        32.000  
C04  38786379.561 1 201970849.738 1        37.000                                                  
C05  39958099.214 1 208072318.680 1        31.000                                                  
C06  36158028.725 1 188284434.334 1        45.000    36158027.850 1 145593390.410 1        34.000  
C08  35998449.987 1 187453375.259 1        45.000    35998446.664 1 144950833.251 1        31.000  
C09  37358724.250 1 194536701.127 1        43.000    37358726.859 1 150428111.695 1        32.000  
C13  35817040.218 1 186508719.553 1        50.000    35817046.168 1 144220395.805 1        32.000  
C14  21711876.505 1 113059440.175 1        43.000    21711876.702 1  87424740.545 1        37.000  
C16  36390829.180 1 189496599.615 1        46.000    36390832.575 1 146530805.633 1        30.000  
C24  22192399.782 1 115561651.183 1        51.000                                                  
C26  23319269.474 1 121429593.689 1        38.000                                                  
> 2023 08 04 09 50 12.5000000  0 22                     
G12  23187509.339 1 121851192.116 1        33.000    23187513.699 1  94948985.646 1         8.000                  
G23  20200702.204 1 106155425.244 1        50.000    20200703.579 1  82718501.655 1        36.000    20200702.204 1
G24  20948499.819 1 110085140.841 1        41.000    20948502.606 1  85780612.022 1        32.000    20948502.999 1
R15  20873119.077 1 111539615.451 1        40.000                                                  
R16  20131225.923 1 107537553.143 1        51.000    20131235.716 1  83640230.752 1        40.000  
R21  22309263.567 1 119381353.825 1        35.000                                                  
E12  25469208.991 1 133841580.044 1        40.000  
E19  24299276.222 1 127693562.867 1        39.000  
E21  25746585.117 1 135299246.782 1        32.000  
C01  37821223.615 1 196945043.841 1        42.000                                                  
C02  38323467.761 1 199560357.352 1        38.000    38323465.724 1 154312723.267 1        31.000  
C03  37204376.776 1 193732959.304 1        43.000    37204377.902 1 149806607.742 1        33.000  
C04  38786380.240 1 201970853.437 1        37.000                                                  
C05  39958099.286 1 208072318.485 1        31.000                                                  
C06  36158022.775 1 188284403.282 1        45.000    36158021.864 1 145593366.389 1        34.000  
C08  35998464.944 1 187453453.034 1        45.000    35998461.584 1 144950893.425 1        31.000  
C09  37358715.762 1 194536656.946 1        43.000    37358718.175 1 150428077.527 1        32.000  
C13  35817049.384 1 186508767.211 1        50.000    35817055.299 1 144220432.653 1        32.000  
C14  21711880.312 1 113059460.052 1        43.000    21711880.455 1  87424755.888 1        37.000  
C16  36390825.677 1 189496581.398 1        46.000    36390828.930 1 146530791.535 1        30.000  
C24  22192372.067 1 115561506.812 1        51.000                                                  
C26  23319298.529 1 121429745.228 1        38.000                                                  
> 2023 08 04 09 50 12.6000000  0 22                     
G12  23187459.698 1 121850931.528 1        33.000    23187464.112 1  94948788.329 1        24.000    23187465.148 1
G23  20200714.622 1 106155490.568 1        50.000    20200716.016 1  82718552.547 1        36.000    20200714.587 1
G24  20948541.864 1 110085361.946 1        42.000    20948544.688 1  85780784.320 1        32.000    20948545.152 1
R15  20873153.689 1 111539800.319 1        40.000                                                  
R16  20131181.983 1 107537318.421 1        51.000    20131191.811 1  83640048.214 1        40.000  
R21  22309318.461 1 119381646.682 1        35.000                                                  
E12  25469252.234 1 133841807.358 1        40.000  
E19  24299288.248 1 127693625.890 1        39.000  
E21  25746551.398 1 135299069.712 1        32.000  
C01  37821224.794 1 196945049.913 1        42.000                                                  
C02  38323468.190 1 199560359.573 1        38.000    38323466.117 1 154312725.007 1        31.000  
C03  37204377.723 1 193732964.294 1        43.000    37204378.849 1 149806611.612 1        33.000  
C04  38786380.990 1 201970857.205 1        37.000                                                  
C05  39958099.232 1 208072318.305 1        31.000                                                  
C06  36158016.824 1 188284372.291 1        45.000    36158015.895 1 145593342.414 1        34.000  
C08  35998479.900 1 187453530.857 1        45.000    35998476.505 1 144950953.574 1        31.000  
C09  37358707.292 1 194536612.832 1        42.000    37358709.580 1 150428043.395 1        32.000  
C13  35817058.551 1 186508814.919 1        50.000    35817064.591 1 144220469.539 1        32.000  
C14  21711884.153 1 113059479.973 1        43.000    21711884.332 1  87424771.293 1        37.000  
C16  36390822.175 1 189496563.222 1        46.000    36390825.177 1 146530777.462 1        30.000  
C24  22192344.370 1 115561362.494 1        51.000                                                  
C26  23319327.620 1 121429896.830 1        38.000                                                  
> 2023 08 04 09 50 12.7000000  0 22                     
G12  23187410.112 1 121850670.928 1        33.000    23187414.526 1  94948585.237 1        24.000    23187415.866 1
G23  20200727.041 1 106155555.860 1        50.000    20200728.435 1  82718603.433 1        36.000    20200726.970 1
G24  20948583.928 1 110085583.012 1        42.000    20948586.751 1  85780956.582 1        32.000    20948587.270 1
R15  20873188.302 1 111539985.167 1        40.000                                                  
R16  20131138.061 1 107537083.675 1        51.000    20131147.907 1  83639865.613 1        40.000  
R21  22309373.337 1 119381939.481 1        35.000                                                  
E12  25469295.495 1 133842034.646 1        40.000  
E19  24299300.166 1 127693688.890 1        39.000  
E21  25746517.804 1 135298892.656 1        32.000  
C01  37821225.956 1 196945055.949 1        42.000                                                  
C02  38323468.601 1 199560361.769 1        38.000    38323466.474 1 154312726.684 1        31.000  
C03  37204378.670 1 193732969.260 1        43.000    37204379.850 1 149806615.432 1        33.000  
C04  38786381.759 1 201970860.956 1        37.000                                                  
C05  39958099.178 1 208072318.116 1        31.000                                                  
C06  36158010.838 1 188284341.260 1        45.000    36158009.998 1 145593318.411 1        34.000  
C08  35998494.857 1 187453608.655 1        45.000    35998491.658 1 144951013.725 1        31.000  
C09  37358698.823 1 194536568.683 1        43.000    37358700.967 1 150428009.250 1        32.000  
C13  35817067.682 1 186508862.601 1        50.000    35817073.686 1 144220506.423 1        32.000  
C14  21711887.960 1 113059499.863 1        43.000    21711888.192 1  87424786.692 1        37.000  
C16  36390818.691 1 189496545.013 1        46.000    36390821.889 1 146530763.416 1        30.000  
C24  22192316.619 1 115561218.149 1        51.000                                                  
C26  23319356.800 1 121430048.380 1        38.000                                                  
> 2023 08 04 09 50 12.8000000  0 22                     
G12  23187360.561 1 121850410.341 1        33.000    23187364.921 1  94948376.466 1         8.000                  
G23  20200739.478 1 106155621.189 1        50.000    20200740.872 1  82718654.332 1        36.000    20200739.425 1
G24  20948626.010 1 110085804.123 1        42.000    20948628.833 1  85781128.897 1        32.000    20948629.369 1
R15  20873223.039 1 111540170.047 1        40.000                                                  
R16  20131094.104 1 107536848.958 1        51.000    20131104.021 1  83639683.063 1        40.000  
R21  22309428.320 1 119382232.335 1        35.000                                                  
E12  25469338.774 1 133842261.966 1        40.000  
E19  24299312.210 1 127693751.901 1        39.000  
E21  25746484.157 1 135298715.624 1        32.000  
C01  37821227.099 1 196945062.006 1        42.000                                                  
C02  38323469.012 1 199560363.990 1        38.000    38323466.975 1 154312728.382 1        31.000  
C03  37204379.617 1 193732974.238 1        43.000    37204380.832 1 149806619.288 1        33.000  
C04  38786382.509 1 201970864.719 1        37.000                                                  
C05  39958099.232 1 208072317.939 1        31.000                                                  
C06  36158004.888 1 188284310.254 1        45.000    36158003.959 1 145593294.440 1        34.000  
C08  35998509.813 1 187453686.478 1        45.000    35998506.757 1 144951073.899 1        31.000  
C09  37358690.406 1 194536524.552 1        43.000    37358692.479 1 150427975.134 1        32.000  
C13  35817076.831 1 186508910.315 1        50.000    35817082.960 1 144220543.314 1        32.000  
C14  21711891.819 1 113059519.781 1        43.000    21711891.998 1  87424802.090 1        36.000  
C16  36390815.188 1 189496526.828 1        46.000    36390818.297 1 146530749.340 1        30.000  
C24  22192288.923 1 115561073.833 1        51.000                                                  
C26  23319385.944 1 121430199.971 1        39.000                                                  
> 2023 08 04 09 50 12.9000000  0 22                     
G12  23187310.975 1 121850149.765 1        33.000    23187315.335 1  94948179.115 1        25.000    23187316.925 1
G23  20200751.879 1 106155686.492 1        50.000    20200753.291 1  82718705.229 1        36.000    20200751.826 1
G24  20948668.038 1 110086025.193 1        41.000    20948670.897 1  85781301.148 1        32.000    20948671.593 1
R15  20873257.759 1 111540354.912 1        40.000                                                  
R16  20131050.146 1 107536614.215 1        51.000    20131060.135 1  83639500.494 1        40.000  
R21  22309483.196 1 119382525.143 1        35.000                                                  
E12  25469382.052 1 133842489.253 1        40.000  
E19  24299324.200 1 127693814.901 1        39.000  
E21  25746450.599 1 135298538.533 1        32.000  
C01  37821228.279 1 196945068.037 1        42.000                                                  
C02  38323469.459 1 199560366.180 1        38.000    38323467.547 1 154312730.079 1        31.000  
C03  37204380.600 1 193732979.190 1        43.000    37204381.762 1 149806623.122 1        33.000  
C04  38786383.260 1 201970868.444 1        37.000                                                  
C05  39958099.232 1 208072317.741 1        31.000                                                  
C06  36157998.938 1 188284279.214 1        45.000    36157997.812 1 145593270.469 1        34.000  
C08  35998524.734 1 187453764.279 1        45.000    35998521.642 1 144951134.088 1        31.000  
C09  37358681.901 1 194536480.401 1        43.000    37358684.063 1 150427941.006 1        32.000  
C13  35817085.998 1 186508957.990 1        50.000    35817092.073 1 144220580.196 1        32.000  
C14  21711895.679 1 113059539.676 1        43.000    21711895.875 1  87424817.476 1        36.000  
C16  36390811.686 1 189496508.620 1        46.000    36390814.634 1 146530735.247 1        30.000  
C24  22192261.208 1 115560929.492 1        51.000                                                  
C26  23319415.053 1 121430351.536 1        38.000                                                  
> 2023 08 04 09 50 13.0000000  0 22                     
G12  23187261.388 1 121849889.177 1        33.000    23187265.748 1  94947976.046 1        25.000    23187267.070 1
G23  20200764.298 1 106155751.825 1        50.000    20200765.728 1  82718756.122 1        36.000    20200764.316 1
G24  20948710.119 1 110086246.300 1        42.000    20948712.960 1  85781473.432 1        32.000    20948713.693 1
R15  20873292.496 1 111540539.798 1        40.000                                                  
R16  20131006.170 1 107536379.511 1        51.000    20131016.248 1  83639317.944 1        40.000  
R21  22309537.839 1 119382818.012 1        35.000                                                  
E12  25469425.295 1 133842716.562 1        40.000  
E19  24299336.173 1 127693877.927 1        39.000  
E21  25746416.862 1 135298361.530 1        32.000  
C01  37821229.458 1 196945074.105 1        42.000                                                  
C02  38323469.870 1 199560368.395 1        38.000    38323468.083 1 154312731.797 1        31.000  
C03  37204381.565 1 193732984.174 1        43.000    37204382.691 1 149806626.960 1        33.000  
C04  38786383.992 1 201970872.198 1        37.000                                                  
C05  39958099.268 1 208072317.558 1        31.000                                                  
C06  36157992.987 1 188284248.211 1        45.000    36157991.790 1 145593246.492 1        34.000  
C08  35998539.690 1 187453842.093 1        45.000    35998536.545 1 144951194.242 1        31.000  
C09  37358673.413 1 194536436.258 1        43.000    37358675.629 1 150427906.917 1        32.000  
C13  35817095.183 1 186509005.692 1        50.000    35817101.151 1 144220617.053 1        32.000  
C14  21711899.503 1 113059559.600 1        43.000    21711899.682 1  87424832.871 1        36.000  
C16  36390808.201 1 189496490.443 1        46.000    36390811.221 1 146530721.196 1        30.000  
C24  22192233.511 1 115560785.182 1        51.000                                                  
C26  23319444.198 1 121430503.106 1        38.000                                                  
> 2023 08 04 09 50 13.1000000  0 22                     
G12  23187211.801 1 121849628.653 1        33.000    23187216.179 1  94947767.350 1         8.000                  
G23  20200776.771 1 106155817.205 1        50.000    20200778.165 1  82718807.069 1        36.000    20200776.717 1
G24  20948752.165 1 110086467.449 1        41.000    20948755.060 1  85781645.742 1        32.000    20948755.631 1
R15  20873327.144 1 111540724.743 1        40.000                                                  
R16  20130962.230 1 107536144.857 1        51.000    20130972.290 1  83639135.429 1        40.000  
R21  22309592.625 1 119383110.901 1        35.000                                                  
E12  25469468.610 1 133842943.937 1        40.000  
E19  24299348.145 1 127693941.003 1        39.000  
E21  25746383.126 1 135298184.527 1        32.000  
C01  37821230.602 1 196945080.203 1        42.000                                                  
C02  38323470.352 1 199560370.646 1        39.000    38323468.726 1 154312733.562 1        31.000  
C03  37204382.512 1 193732989.187 1        43.000    37204383.531 1 149806630.834 1        33.000  
C04  38786384.689 1 201970875.990 1        37.000                                                  
C05  39958099.214 1 208072317.444 1        31.000                                                  
C06  36157987.037 1 188284217.246 1        45.000    36157985.929 1 145593222.532 1        34.000  
C08  35998554.628 1 187453919.958 1        45.000    35998551.555 1 144951254.433 1        31.000  
C09  37358664.979 1 194536392.176 1        42.000    37358667.051 1 150427872.785 1        32.000  
C13  35817104.332 1 186509053.444 1        50.000    35817110.389 1 144220653.982 1        32.000  
C14  21711903.273 1 113059579.562 1        43.000    21711903.506 1  87424848.314 1        36.000  
C16  36390804.717 1 189496472.296 1        46.000    36390807.576 1 146530707.118 1        30.000  
C24  22192205.814 1 115560640.919 1        51.000                                                  
C26  23319473.378 1 121430654.749 1        38.000                                                  
> 2023 08 04 09 50 13.2000000  0 22                     
G12  23187162.322 1 121849368.116 1        33.000    23187166.593 1  94947570.070 1        25.000    23187167.343 1
G23  20200789.190 1 106155882.575 1        50.000    20200790.602 1  82718858.014 1        36.000    20200789.172 1
G24  20948794.193 1 110086688.598 1        42.000    20948797.141 1  85781818.062 1        32.000    20948797.731 1
R15  20873361.738 1 111540909.662 1        40.000                                                  
R16  20130918.272 1 107535910.192 1        51.000    20130928.279 1  83638952.927 1        40.000  
R21  22309647.501 1 119383403.812 1        35.000                                                  
E12  25469511.853 1 133843171.290 1        40.000  
E19  24299360.153 1 127694004.049 1        39.000  
E21  25746349.568 1 135298007.503 1        32.000  
C01  37821231.710 1 196945086.280 1        42.000                                                  
C02  38323470.745 1 199560372.879 1        39.000    38323469.280 1 154312735.280 1        31.000  
C03  37204383.441 1 193732994.203 1        43.000    37204384.460 1 149806634.737 1        33.000  
C04  38786385.404 1 201970879.755 1        37.000                                                  
C05  39958099.053 1 208072317.290 1        31.000                                                  
C06  36157981.086 1 188284186.264 1        45.000    36157979.889 1 145593198.586 1        34.000  
C08  35998569.531 1 187453997.808 1        45.000    35998566.243 1 144951314.618 1        31.000  
C09  37358656.491 1 194536348.082 1        42.000    37358658.367 1 150427838.674 1        32.000  
C13  35817113.516 1 186509101.178 1        50.000    35817119.770 1 144220690.922 1        31.000  
C14  21711907.097 1 113059599.527 1        43.000    21711907.419 1  87424863.752 1        36.000  
C16  36390801.250 1 189496454.131 1        46.000    36390803.663 1 146530693.088 1        30.000  
C24  22192178.117 1 115560496.647 1        51.000                                                  
C26  23319502.486 1 121430806.381 1        39.000                                                  
> 2023 08 04 09 50 13.3000000  0 22                     
G12  23187112.682 1 121849107.566 1        33.000    23187117.006 1  94947367.060 1        25.000    23187117.632 1
G23  20200801.645 1 106155947.961 1        50.000    20200803.038 1  82718908.968 1        36.000    20200801.716 1
G24  20948836.328 1 110086909.756 1        42.000    20948839.223 1  85781990.395 1        32.000    20948839.634 1
R15  20873396.440 1 111541094.617 1        40.000                                                  
R16  20130874.332 1 107535675.547 1        51.000    20130884.178 1  83638770.410 1        40.000  
R21  22309698.767 1 119383696.758 1        35.000                                                  
E12  25469555.096 1 133843398.642 1        40.000  
E19  24299372.161 1 127694067.090 1        39.000  
E21  25746315.920 1 135297830.527 1        31.000  
C01  37821232.853 1 196945092.372 1        42.000                                                  
C02  38323471.174 1 199560375.141 1        39.000    38323469.798 1 154312737.009 1        32.000  
C03  37204384.406 1 193732999.216 1        43.000    37204385.300 1 149806638.591 1        33.000  
C04  38786386.101 1 201970883.553 1        37.000                                                  
C05  39958099.035 1 208072317.177 1        31.000                                                  
C06  36157975.154 1 188284155.290 1        45.000    36157973.885 1 145593174.628 1        34.000  
C08  35998584.470 1 187454075.672 1        45.000    35998581.325 1 144951374.864 1        31.000  
C09  37358648.003 1 194536303.995 1        42.000    37358650.022 1 150427804.573 1        32.000  
C13  35817122.701 1 186509148.920 1        50.000    35817128.955 1 144220727.812 1        32.000  
C14  21711910.939 1 113059619.483 1        43.000    21711911.207 1  87424879.170 1        37.000  
C16  36390797.748 1 189496435.986 1        46.000    36390800.357 1 146530679.100 1        30.000  
C24  22192150.384 1 115560352.386 1        51.000                                                  
C26  23319531.595 1 121430958.027 1        39.000                                                  
> 2023 08 04 09 50 13.4000000  0 22                     
G12  23187063.078 1 121848847.025 1        33.000    23187067.420 1  94947163.986 1        25.000    23187068.045 1
G23  20200814.081 1 106156013.311 1        50.000    20200815.475 1  82718959.884 1        36.000    20200814.153 1
G24  20948878.445 1 110087130.866 1        42.000    20948881.304 1  85782162.689 1        32.000    20948881.751 1
R15  20873431.124 1 111541279.533 1        40.000                                                  
R16  20130830.410 1 107535440.864 1        51.000    20130840.149 1  83638587.880 1        40.000  
R21  22309753.607 1 119383989.647 1        35.000                                                  
E12  25469598.375 1 133843625.971 1        40.000  
E19  24299384.205 1 127694130.122 1        39.000  
E21  25746282.291 1 135297653.494 1        32.000  
C01  37821234.050 1 196945098.426 1        42.000                                                  
C02  38323471.639 1 199560377.346 1        39.000    38323470.173 1 154312738.673 1        31.000  
C03  37204385.371 1 193733004.191 1        43.000    37204386.336 1 149806642.434 1        33.000  
C04  38786386.851 1 201970887.301 1        37.000                                                  
C05  39958098.857 1 208072317.011 1        30.000                                                  
C06  36157969.221 1 188284124.282 1        45.000    36157967.810 1 145593150.651 1        34.000  
C08  35998599.390 1 187454153.495 1        45.000    35998595.924 1 144951435.037 1        31.000  
C09  37358639.533 1 194536259.843 1        43.000    37358641.409 1 150427770.453 1        32.000  
C13  35817131.850 1 186509196.628 1        50.000    35817138.265 1 144220764.714 1        32.000  
C14  21711914.745 1 113059639.407 1        43.000    21711915.013 1  87424894.599 1        37.000  
C16  36390794.282 1 189496417.798 1        46.000    36390796.819 1 146530665.056 1        30.000  
C24  22192122.687 1 115560208.088 1        51.000                                                  
C26  23319560.775 1 121431109.638 1        39.000                                                  
