     3.03           OBSERVATION DATA    M: Mixed            RINEX VERSION / TYPE
RTKCONV demo5 b34d                      20231019 091324 UTC PGM / RUN BY / DATE 
format: RTCM 3                                              COMMENT             
log: F:\rosbag_1019\base\dataset1\base_lowrate              COMMENT             
0000                                                        MARKER NAME         
                                                            MARKER NUMBER       
                                                            MARKER TYPE         
                                                            OBSERVER / AGENCY   
                                                            REC # / TYPE / VERS 
                                                            ANT # / TYPE        
 -2170102.3037  4385072.0168  4078164.1454                  APPROX POSITION XYZ 
        0.0000        0.0000        0.0000                  ANTENNA: DELTA H/E/N
G    6 C1C L1C S1C C2X L2X S2X                              SYS / # / OBS TYPES 
R    6 C1C L1C S1C C2C L2C S2C                              SYS / # / OBS TYPES 
C    6 C2I L2I S2I C7I L7I S7I                              SYS / # / OBS TYPES 
  2023    10    19    02    22   12.0000000     GPS         TIME OF FIRST OBS   
  2023    10    19    02    31   32.0000000     GPS         TIME OF LAST OBS    
G L1C                                                       SYS / PHASE SHIFT   
G L2X -0.25000                                              SYS / PHASE SHIFT   
R L1C                                                       SYS / PHASE SHIFT   
R L2C                                                       SYS / PHASE SHIFT   
C L2I                                                       SYS / PHASE SHIFT   
C L7I                                                       SYS / PHASE SHIFT   
  9 R01  1 R02 -4 R08  6 R09 -2 R10 -7 R11  0 R17  4 R23  3 GLONASS SLOT / FRQ #
    R24  2                                                  GLONASS SLOT / FRQ #
 C1C    0.000 C1P    0.000 C2C    0.000 C2P    0.000        GLONASS COD/PHS/BIS 
                                                            END OF HEADER       
> 2023 10 19 02 22 12.0000000  0 31                     
G05  22456673.751   118010530.6731         45.000    22456713.170    91956352.0821         40.000  
G13  21632094.910   113677389.9331         46.000                                                  
G15  19891321.639   104529626.7951         50.000    19891357.019    81451799.4081         44.000  
G18  20788905.964   109246463.8881         46.000    20788943.042    85127257.0691         44.000  
G23  22080011.740   116031293.9221         47.000    22080049.658    90414130.9191         43.000  
G24  21463112.491   112789482.8661         45.000    21463153.554    87888118.5111         43.000  
G29  24791716.689   130281178.1601         40.000    24791760.129   101518067.0951         34.000  
C01  37782737.474   196744530.6891         44.000    37782775.285   152135529.9991         44.000  
C02  38196233.170   198897727.6331         41.000    38196266.085   153800524.5641         43.000  
C03  37456118.806   195043761.3011         45.000    37456153.865   150820335.1971         45.000  
C04  38770726.493   201889240.6851         40.000    38770767.467   156113765.9461         44.000  
C05  39816336.017   207333982.0421         34.000    39816374.847   160323866.2561         40.000  
C06  37951308.351   197622461.0761         43.000    37951342.963   152814352.9831         43.000  
C08  35801490.129   186427746.7821         47.000    35801522.651   144157883.6061         49.000  
C09  38976791.155   202962400.3421         39.000    38976830.609   156943560.5501         42.000  
C13  35944427.231   187172067.6861         48.000    35944468.348   144733475.1561         49.000  
C14  22082850.860   114991170.7361         47.000    22082886.669    88918588.9161         51.000  
C16  37395800.025   194729779.8281         45.000    37395841.356   150577576.2501         45.000  
C24  24058880.915   125280967.5421         45.000                                                  
C26  24723844.529   128743582.9281         43.000                                                  
C27  24731161.126   128781668.6211         41.000                                                  
C28  23168306.590   120643434.0421         47.000                                                  
C33  22150610.231   115344030.8861         50.000                                                  
R01  20018401.073   107009847.0751         48.000    20018438.366    83230056.7831         44.000  
R02  23179317.160   123689316.6191         44.000    23179356.936    96202957.9421         39.000  
R08  21044346.113   112691479.8161         46.000    21044380.528    87648996.7721         43.000  
R09  23454608.293   125246300.5171         38.000    23454645.013    97413960.0581         35.000  
R10  22061615.634   117600887.8781         48.000                                                  
R17  22626187.272   121077323.3721         43.000    22626229.157    94171414.8071         41.000  
R23  21392876.277   114437383.8201         45.000                                                  
R24  20002414.999   106961930.9981         51.000    20002452.595    83192761.9261         47.000  
> 2023 10 19 02 22 13.0000000  0 31                     
G05  22457133.056   118012944.260          45.000    22457172.171    91958232.803          40.000  
G13  21632622.439   113680161.766          46.000                                                  
G15  19891437.180   104530233.739          50.000    19891472.418    81452272.349          44.000  
G18  20788750.271   109245645.324          46.000    20788787.170    85126619.224          44.000  
G23  22079555.758   116028897.308          47.000    22079593.408    90412263.430          43.000  
G24  21462566.128   112786611.039          45.000    21462606.923    87885880.730          43.000  
G29  24792329.990   130284401.402          40.000    24792373.912   101520578.712          34.000  
C01  37782742.692   196744558.173          44.000    37782780.467   152135551.262          44.000  
C02  38196230.490   198897713.801          41.000    38196263.422   153800513.868          43.000  
C03  37456123.327   195043785.226          45.000    37456158.422   150820353.700          45.000  
C04  38770733.337   201889275.625          40.000    38770774.275   156113792.961          44.000  
C05  39816329.316   207333945.779          34.000    39816367.771   160323838.228          40.000  
C06  37951055.379   197621142.320          43.000    37951089.741   152813333.233          43.000  
C08  35801437.005   186427470.189          47.000    35801469.580   144157669.727          49.000  
C09  38976540.595   202961096.588          38.000    38976580.068   156942552.415          42.000  
C13  35944342.479   187171626.848          48.000    35944383.738   144733134.274          49.000  
C14  22083056.693   114992242.529          47.000    22083092.467    88919417.690          51.000  
C16  37395579.807   194728631.942          45.000    37395620.959   150576688.627          45.000  
C24  24058463.780   125278795.047          45.000                                                  
C26  24723887.022   128743805.707          43.000                                                  
C27  24730888.713   128780248.398          40.000                                                  
C28  23168529.666   120644596.145          47.000                                                  
C33  22150573.331   115343839.005          50.000                                                  
R01  20018268.038   107009136.277          48.000    20018305.528    83229503.935          44.000  
R02  23178814.594   123686636.432          44.000    23178854.656    96200873.380          39.000  
R08  21044753.348   112693660.568          46.000    21044788.085    87650692.896          43.000  
R09  23454931.257   125248031.231          39.000    23454969.569    97415306.160          35.000  
R10  22061411.445   117599799.639          48.000                                                  
R17  22625551.492   121073919.411          43.000    22625593.288    94168767.283          40.000  
R23  21393614.143   114441333.582          45.000                                                  
R24  20002465.586   106962200.158          51.000    20002502.843    83192971.272          47.000  
> 2023 10 19 02 22 14.0000000  0 31                     
G05  22457592.379   118015358.078          45.000    22457631.405    91960113.696          40.000  
G13  21633149.879   113682933.831          46.000                                                  
G15  19891552.757   104530841.132          50.000    19891588.102    81452745.651          44.000  
G18  20788594.792   109244827.370          46.000    20788631.495    85125981.855          44.000  
G23  22079099.830   116026500.797          47.000    22079137.176    90410396.016          43.000  
G24  21462019.836   112783739.669          45.000    21462060.578    87883643.295          43.000  
G29  24792943.112   130287624.592          40.000    24792987.892   101523090.272          34.000  
C01  37782747.999   196744585.631          44.000    37782785.863   152135572.501          44.000  
C02  38196227.881   198897699.960          41.000    38196260.652   153800503.163          43.000  
C03  37456127.991   195043809.140          45.000    37456163.067   150820372.178          45.000  
C04  38770740.109   201889310.542          40.000    38770781.065   156113819.956          44.000  
C05  39816322.455   207333910.456          34.000    39816360.730   160323810.138          40.000  
C06  37950802.122   197619823.655          43.000    37950836.216   152812313.541          43.000  
C08  35801383.809   186427193.619          47.000    35801416.455   144157455.864          49.000  
C09  38976290.375   202959792.906          39.000    38976329.616   156941544.330          42.000  
C13  35944257.851   187171185.998          48.000    35944299.039   144732793.383          49.000  
C14  22083262.544   114993314.450          47.000    22083298.425    88920246.567          51.000  
C16  37395359.178   194727484.160          45.000    37395400.473   150575801.089          45.000  
C24  24058046.735   125276622.857          45.000                                                  
C26  24723929.818   128744028.986          43.000                                                  
C27  24730615.513   128778828.653          41.000                                                  
C28  23168752.994   120645758.727          47.000                                                  
C33  22150536.574   115343647.307          50.000                                                  
R01  20018135.182   107008425.780          48.000    20018172.653    83228951.322          44.000  
R02  23178311.831   123683956.400          44.000    23178352.733    96198788.904          39.000  
R08  21045160.100   112695841.443          46.000    21045195.356    87652389.130          43.000  
R09  23455256.009   125249762.674          39.000    23455293.391    97416652.874          35.000  
R10  22061207.577   117598712.186          48.000                                                  
R17  22624915.230   121070515.973          44.000    22624957.883    94166120.172          40.000  
R23  21394352.759   114445283.769          45.000                                                  
R24  20002516.209   106962470.244          51.000    20002553.591    83193181.332          47.000  
> 2023 10 19 02 22 15.0000000  0 31                     
G05  22458051.792   118017772.155          45.000    22458090.711    91961994.784          40.000  
G13  21633677.497   113685706.201          46.000                                                  
G15  19891668.405   104531449.026          50.000    19891703.750    81453219.331          44.000  
G18  20788439.296   109244010.108          46.000    20788475.928    85125345.028          44.000  
G23  22078643.938   116024104.470          47.000    22078681.052    90408528.747          43.000  
G24  21461473.580   112780868.819          45.000    21461514.429    87881406.267          43.000  
G29  24793556.466   130290847.822          40.000    24793600.942   101525601.851          35.000  
C01  37782753.181   196744613.141          44.000    37782791.296   152135593.763          44.000  
C02  38196225.343   198897686.153          41.000    38196258.169   153800492.496          43.000  
C03  37456132.619   195043833.103          45.000    37456167.660   150820390.712          45.000  
C04  38770746.792   201889345.496          40.000    38770787.820   156113846.990          44.000  
C05  39816315.521   207333874.236          34.000    39816353.851   160323782.106          40.000  
C06  37950549.114   197618505.108          43.000    37950582.922   152811293.976          43.000  
C08  35801330.773   186426917.159          47.000    35801363.420   144157242.079          49.000  
C09  38976039.655   202958489.349          38.000    38976079.289   156940536.351          42.000  
C13  35944173.027   187170745.223          48.000    35944214.429   144732452.542          49.000  
C14  22083468.449   114994386.594          47.000    22083504.312    88921075.609          51.000  
C16  37395138.782   194726336.547          45.000    37395179.630   150574913.675          45.000  
C24  24057629.636   125274451.022          45.000                                                  
C26  24723973.258   128744252.855          43.000                                                  
C27  24730342.671   128777409.456          40.000                                                  
C28  23168976.338   120646921.873          48.000                                                  
C33  22150499.854   115343455.862          50.000                                                  
R01  20018002.397   107007715.653          49.000    20018039.779    83228399.008          44.000  
R02  23177809.050   123681276.586          44.000    23177850.292    96196704.618          40.000  
R08  21045566.960   112698022.506          46.000    21045603.091    87654085.517          43.000  
R09  23455580.886   125251494.906          39.000    23455617.070    97418000.154          35.000  
R10  22061004.014   117597625.606          48.000                                                  
R17  22624279.093   121067113.144          44.000    22624322.354    94163473.527          40.000  
R23  21395091.071   114449234.431          45.000                                                  
R24  20002567.082   106962741.288          51.000    20002604.696    83193392.142          47.000  
> 2023 10 19 02 22 16.0000000  0 31                     
G05  22458511.044   118020185.754          45.000    22458550.302    91963875.507          40.000  
G13  21634205.045   113688478.116          46.000                                                  
G15  19891784.089   104532056.683          50.000    19891819.202    81453692.825          44.000  
G18  20788283.585   109243192.776          46.000    20788320.521    85124708.148          44.000  
G23  22078187.867   116021707.560          47.000    22078225.070    90406661.022          43.000  
G24  21460927.271   112777997.720          45.000    21460968.351    87879169.051          43.000  
G29  24794169.856   130294070.304          40.000    24794214.618   101528112.866          35.000  
C01  37782758.345   196744639.939          44.000    37782796.335   152135614.478          44.000  
C02  38196222.484   198897671.655          41.000    38196255.327   153800481.258          43.000  
C03  37456137.175   195043856.359          46.000    37456172.091   150820408.691          45.000  
C04  38770753.386   201889379.735          40.000    38770794.360   156113873.454          44.000  
C05  39816308.231   207333836.255          34.000    39816346.667   160323753.533          40.000  
C06  37950295.606   197617185.966          43.000    37950329.540   152810273.929          43.000  
C08  35801277.470   186426640.031          47.000    35801310.188   144157027.790          49.000  
C09  38975789.364   202957185.158          39.000    38975828.604   156939527.857          42.000  
C13  35944088.399   187170303.794          48.000    35944129.641   144732111.203          49.000  
C14  22083674.264   114995458.210          47.000    22083710.038    88921904.248          51.000  
C16  37394918.331   194725188.341          45.000    37394959.323   150574025.825          45.000  
C24  24057212.359   125272278.815          45.000                                                  
C26  24724015.786   128744476.538          43.000                                                  
C27  24730070.276   128775990.045          41.000                                                  
C28  23169199.773   120648084.822          48.000                                                  
C33  22150462.990   115343263.915          50.000                                                  
R01  20017869.488   107007005.117          49.000    20017906.298    83227846.374          44.000  
R02  23177306.520   123678596.235          44.000    23177348.011    96194619.907          40.000  
R08  21045974.034   112700202.983          46.000    21046010.666    87655781.422          43.000  
R09  23455905.459   125253227.138          39.000    23455942.269    97419347.441          35.000  
R10  22060800.074   117596539.103          47.000                                                  
R17  22623643.331   121063710.112          43.000    22623685.913    94160826.727          40.000  
R23  21395829.366   114453184.797          45.000                                                  
R24  20002618.205   106963012.511          51.000    20002655.158    83193603.093          47.000  
> 2023 10 19 02 22 17.0000000  0 31                     
G05  22458970.599   118022600.608          45.000    22459009.607    91965757.208          40.000  
G13  21634732.860   113691251.302          46.000                                                  
G15  19891900.005   104532665.807          50.000    19891935.136    81454167.465          44.000  
G18  20788128.322   109242377.105          46.000    20788165.239    85124072.551          44.000  
G23  22077732.028   116019311.797          47.000    22077769.106    90404794.201          43.000  
G24  21460381.157   112775128.126          45.000    21460422.453    87876933.006          43.000  
G29  24794783.192   130297293.787          40.000    24794828.222   101530624.662          34.000  
C01  37782763.652   196744667.741          44.000    37782801.713   152135635.987          44.000  
C02  38196219.840   198897658.155          41.000    38196252.665   153800470.832          43.000  
C03  37456141.821   195043880.625          46.000    37456176.755   150820427.456          45.000  
C04  38770760.337   201889415.000          40.000    38770801.150   156113900.724          44.000  
C05  39816301.298   207333800.321          34.000    39816339.877   160323725.730          40.000  
C06  37950042.223   197615867.948          43.000    37950076.675   152809254.741          43.000  
C08  35801224.381   186426363.944          47.000    35801257.171   144156814.300          49.000  
C09  38975539.662   202955882.052          38.000    38975578.098   156938520.210          42.000  
C13  35944003.968   187169863.404          48.000    35944045.120   144731770.656          49.000  
C14  22083880.098   114996530.980          47.000    22083916.068    88922733.784          51.000  
C16  37394698.114   194724041.266          45.000    37394739.105   150573138.845          45.000  
C24  24056795.885   125270107.930          45.000                                                  
C26  24724059.422   128744701.783          43.000                                                  
C27  24729798.023   128774572.134          41.000                                                  
C28  23169423.350   120649249.292          48.000                                                  
C33  22150426.197   115343073.176          50.000                                                  
R01  20017736.953   107006295.943          49.000    20017774.174    83227294.791          44.000  
R02  23176804.614   123675917.070          44.000    23176846.803    96192536.113          40.000  
R08  21046381.609   112702384.608          46.000    21046418.240    87657478.244          43.000  
R09  23456230.889   125254961.118          40.000    23456267.950    97420696.106          36.000  
R10  22060596.189   117595454.415          48.000                                                  
R17  22623007.354   121060308.631          44.000    22623050.008    94158181.137          40.000  
R23  21396568.518   114457136.627          45.000                                                  
R24  20002669.525   106963285.696          52.000    20002706.246    83193815.568          47.000  
> 2023 10 19 02 22 18.0000000  0 31                     
G05  22459430.173   118025014.975          45.000    22459469.181    91967638.531          40.000  
G13  21635260.425   113694024.024          46.000                                                  
G15  19892015.815   104533274.670          50.000    19892051.124    81454641.901          44.000  
G18  20787973.379   109241561.352          46.000    20788009.921    85123436.899          44.000  
G23  22077275.993   116016915.439          47.000    22077313.232    90402926.922          43.000  
G24  21459835.116   112772258.270          45.000    21459876.358    87874696.768          43.000  
G29  24795396.886   130300516.542          40.000    24795441.970   101533135.895          35.000  
C01  37782768.995   196744694.824          44.000    37782807.002   152135656.929          44.000  
C02  38196216.748   198897643.938          41.000    38196249.985   153800459.832          43.000  
C03  37456146.271   195043904.157          45.000    37456181.276   150820445.649          45.000  
C04  38770767.092   201889449.516          40.000    38770807.815   156113927.427          44.000  
C05  39816294.204   207333764.614          34.000    39816332.997   160323697.361          40.000  
C06  37949789.002   197614549.315          43.000    37949823.471   152808235.096          43.000  
C08  35801171.221   186426087.197          47.000    35801204.046   144156600.297          49.000  
C09  38975289.442   202954578.300          39.000    38975327.485   156937512.073          42.000  
C13  35943919.251   187169422.306          48.000    35943960.385   144731429.581          49.000  
C14  22084086.092   114997603.203          47.000    22084122.080    88923562.890          51.000  
C16  37394477.806   194722893.609          45.000    37394518.816   150572251.388          45.000  
C24  24056379.126   125267936.657          45.000                                                  
C26  24724102.415   128744926.839          43.000                                                  
C27  24729525.646   128773154.000          40.000                                                  
C28  23169647.070   120650413.552          48.000                                                  
C33  22150389.441   115342881.927          50.000                                                  
R01  20017604.186   107005586.347          48.000    20017641.747    83226742.884          44.000  
R02  23176302.173   123673237.298          44.000    23176343.647    96190451.870          40.000  
R08  21046788.522   112704565.614          46.000    21046825.207    87659174.577          43.000  
R09  23456555.444   125256695.085          40.000    23456592.969    97422044.727          36.000  
R10  22060392.571   117594369.781          47.000                                                  
R17  22622371.271   121056906.961          44.000    22622414.514    94155535.392          40.000  
R23  21397307.491   114461088.137          46.000                                                  
R24  20002720.809   106963559.084          52.000    20002757.423    83194028.203          47.000  
> 2023 10 19 02 22 19.0000000  0 31                     
G05  22459889.639   118027429.727          45.000    22459928.593    91969520.130          40.000  
G13  21635788.061   113696797.140          46.000                                                  
G15  19892131.838   104533884.134          50.000    19892167.165    81455116.811          44.000  
G18  20787818.276   109240746.377          46.000    20787854.783    85122801.869          43.000  
G23  22076819.975   116014519.373          47.000    22076857.375    90401059.849          43.000  
G24  21459289.199   112769389.049          45.000    21459330.316    87872461.000          43.000  
G29  24796010.240   130303739.379          40.000    24796055.056   101535647.195          34.000  
C01  37782774.106   196744722.055          44.000    37782812.310   152135677.968          44.000  
C02  38196214.264   198897629.882          41.000    38196247.251   153800448.968          43.000  
C03  37456150.881   195043927.844          46.000    37456185.850   150820463.978          45.000  
C04  38770773.596   201889484.214          40.000    38770814.266   156113954.244          44.000  
C05  39816287.110   207333727.074          34.000    39816325.635   160323669.114          40.000  
C06  37949536.155   197613230.902          43.000    37949570.267   152807215.622          43.000  
C08  35801118.221   186425810.633          47.000    35801151.011   144156386.449          49.000  
C09  38975039.079   202953274.790          38.000    38975077.319   156936504.094          42.000  
C13  35943834.570   187168981.392          48.000    35943875.650   144731088.638          49.000  
C14  22084292.104   114998675.749          47.000    22084328.038    88924392.249          51.000  
C16  37394257.392   194721746.217          45.000    37394298.133   150571364.140          45.000  
C24  24055962.206   125265765.871          45.000                                                  
C26  24724145.604   128745152.575          43.000                                                  
C27  24729252.893   128771736.522          40.000                                                  
C28  23169870.755   120651578.466          48.000                                                  
C33  22150352.702   115342691.020          50.000                                                  
R01  20017471.312   107004877.211          48.000    20017508.926    83226191.343          44.000  
R02  23175800.911   123670557.859          44.000    23175841.421    96188367.842          40.000  
R08  21047195.364   112706746.917          46.000    21047232.139    87660871.139          43.000  
R09  23456881.215   125258429.942          40.000    23456917.900    97423394.066          36.000  
R10  22060189.240   117593286.064          47.000                                                  
R17  22621736.420   121053505.988          44.000    22621778.859    94152890.205          40.000  
R23  21398046.054   114465040.239          45.000                                                  
R24  20002772.343   106963833.565          52.000    20002808.903    83194241.681          47.000  
> 2023 10 19 02 22 20.0000000  0 31                     
G05  22460349.284   118029845.230          45.000    22460388.077    91971402.349          40.000  
G13  21636315.912   113699571.056          46.000                                                  
G15  19892248.023   104534494.596          50.000    19892283.135    81455592.489          44.000  
G18  20787663.316   109239932.584          46.000    20787699.804    85122167.736          43.000  
G23  22076364.190   116012123.971          47.000    22076401.751    90399193.302          43.000  
G24  21458743.408   112766520.843          45.000    21458784.632    87870226.050          43.000  
G29  24796623.773   130306962.780          40.000    24796668.839   101538158.929          34.000  
C01  37782779.377   196744749.818          44.000    37782817.527   152135699.441          44.000  
C02  38196211.638   198897616.344          41.000    38196244.660   153800438.497          43.000  
C03  37456155.491   195043952.077          46.000    37456190.443   150820482.701          45.000  
C04  38770780.618   201889519.418          40.000    38770821.056   156113981.469          44.000  
C05  39816279.926   207333691.073          34.000    39816318.702   160323641.285          40.000  
C06  37949283.415   197611913.132          43.000    37949317.206   152806196.630          43.000  
C08  35801065.168   186425534.636          47.000    35801098.011   144156173.031          49.000  
C09  38974789.181   202951971.887          39.000    38974827.331   156935496.611          42.000  
C13  35943749.924   187168541.030          48.000    35943791.166   144730748.120          49.000  
C14  22084498.473   114999748.985          47.000    22084534.157    88925222.147          51.000  
C16  37394037.299   194720599.450          46.000    37394078.023   150570477.405          45.000  
C24  24055545.447   125263595.921          46.000                                                  
C26  24724188.901   128745379.378          43.000                                                  
C27  24728980.962   128770320.071          40.000                                                  
C28  23170094.725   120652744.416          48.000                                                  
C33  22150316.303   115342500.851          50.000                                                  
R01  20017338.635   107004168.947          48.000    20017376.446    83225640.455          44.000  
R02  23175298.881   123667879.096          44.000    23175340.409    96186284.387          40.000  
R08  21047603.117   112708928.925          46.000    21047639.427    87662568.256          43.000  
R09  23457204.894   125260166.098          40.000    23457242.330    97424744.385          36.000  
R10  22059985.997   117592203.689          47.000                                                  
R17  22621101.194   121050106.130          43.000    22621144.080    94150245.873          40.000  
R23  21398784.956   114468993.326          45.000                                                  
R24  20002824.128   106964109.500          51.000    20002860.473    83194456.302          47.000  
> 2023 10 19 02 22 21.0000000  0 31                     
G05  22460808.893   118032260.410          45.000    22460847.454    91973284.290          40.000  
G13  21636843.745   113702344.650          46.000                                                  
G15  19892364.118   104535104.953          50.000    19892399.463    81456068.089          44.000  
G18  20787508.445   109239118.864          46.000    20787545.059    85121533.666          43.000  
G23  22075908.244   116009728.123          47.000    22075945.876    90397326.394          43.000  
G24  21458197.616   112763652.540          45.000    21458238.876    87867991.000          43.000  
G29  24797236.949   130310185.552          40.000    24797282.318   101540670.164          35.000  
C01  37782784.666   196744777.012          44.000    37782822.817   152135720.467          44.000  
C02  38196209.082   198897602.232          41.000    38196242.033   153800427.578          43.000  
C03  37456160.048   195043975.729          45.000    37456195.035   150820500.975          45.000  
C04  38770787.194   201889554.065          40.000    38770827.757   156114008.248          44.000  
C05  39816273.172   207333655.520          34.000    39816311.840   160323612.983          40.000  
C06  37949029.872   197610594.896          43.000    37949064.073   152805177.294          43.000  
C08  35801011.990   186425258.107          47.000    35801045.048   144155959.199          49.000  
C09  38974538.157   202950668.452          39.000    38974576.933   156934488.733          42.000  
C13  35943665.350   187168100.145          48.000    35943706.359   144730407.193          49.000  
C14  22084704.360   115000821.833          47.000    22084740.134    88926051.728          51.000  
C16  37393816.831   194719452.258          45.000    37393857.555   150569590.322          45.000  
C24  24055128.741   125261425.723          45.000                                                  
C26  24724232.716   128745606.146          43.000                                                  
C27  24728708.638   128768903.541          40.000                                                  
C28  23170318.785   120653910.316          48.000                                                  
C33  22150279.671   115342310.317          50.000                                                  
R01  20017206.154   107003460.414          48.000    20017244.036    83225089.383          44.000  
R02  23174797.298   123665199.967          45.000    23174838.790    96184200.620          40.000  
R08  21048010.728   112711110.496          46.000    21048046.662    87664265.036          43.000  
R09  23457529.181   125261902.398          40.000    23457566.742    97426094.845          35.000  
R10  22059782.898   117591121.520          48.000                                                  
R17  22620465.754   121046706.199          43.000    22620508.497    94147601.480          40.000  
R23  21399523.607   114472946.276          45.000                                                  
R24  20002875.841   106964385.764          51.000    20002911.847    83194671.174          47.000  
> 2023 10 19 02 22 22.0000000  0 31                     
G05  22461268.752   118034676.239          45.000    22461307.153    91975166.763          40.000  
G13  21637371.686   113705118.921          46.000                                                  
G15  19892480.373   104535716.178          50.000    19892515.701    81456544.375          44.000  
G18  20787353.932   109238306.204          46.000    20787390.206    85120900.427          43.000  
G23  22075452.280   116007332.827          47.000    22075490.180    90395459.945          43.000  
G24  21457651.879   112760785.120          45.000    21457693.245    87865756.638          43.000  
G29  24797850.196   130313408.730          40.000    24797895.958   101543181.724          34.000  
C01  37782790.063   196744804.606          44.000    37782828.142   152135741.807          44.000  
C02  38196206.509   198897588.528          41.000    38196239.513   153800416.986          43.000  
C03  37456164.640   195043999.791          46.000    37456199.788   150820519.585          45.000  
C04  38770794.110   201889589.115          40.000    38770834.494   156114035.354          44.000  
C05  39816266.042   207333619.382          34.000    39816304.925   160323585.039          40.000  
C06  37948776.936   197609277.173          43.000    37948810.994   152804158.351          43.000  
C08  35800959.062   186424982.067          47.000    35800992.030   144155745.740          49.000  
C09  38974288.044   202949365.544          39.000    38974326.302   156933481.221          42.000  
C13  35943580.704   187167659.688          48.000    35943621.785   144730066.605          49.000  
C14  22084910.604   115001895.255          47.000    22084946.271    88926881.768          51.000  
C16  37393596.792   194718305.599          45.000    37393637.569   150568703.650          45.000  
C24  24054712.143   125259256.263          46.000                                                  
C26  24724276.406   128745833.866          43.000                                                  
C27  24728436.529   128767487.936          40.000                                                  
C28  23170542.862   120655077.138          48.000                                                  
C33  22150243.219   115342120.396          50.000                                                  
R01  20017074.155   107002752.631          48.000    20017111.823    83224538.880          44.000  
R02  23174295.875   123662521.452          45.000    23174337.296    96182117.340          39.000  
R08  21048418.374   112713292.632          46.000    21048454.255    87665962.251          43.000  
R09  23457854.451   125263639.830          40.000    23457890.082    97427446.151          35.000  
R10  22059579.763   117590040.559          48.000                                                  
R17  22619830.993   121043307.210          44.000    22619873.289    94144957.843          41.000  
R23  21400262.831   114476900.104          45.000                                                  
R24  20002927.625   106964663.365          51.000    20002963.470    83194887.077          47.000  
> 2023 10 19 02 22 23.0000000  0 31                     
G05  22461728.468   118037092.437          45.000    22461767.316    91977049.501          40.000  
G13  21637899.662   113707893.580          46.000                                                  
G15  19892596.844   104536328.001          50.000    19892632.171    81457021.118          44.000  
G18  20787199.561   109237494.324          46.000    20787235.532    85120267.784          43.000  
G23  22074996.602   116004937.795          46.000    22075034.377    90393593.686          43.000  
G24  21457106.337   112757918.310          45.000    21457147.668    87863522.772          43.000  
G29  24798463.514   130316632.019          40.000    24798509.152   101545693.362          35.000  
C01  37782795.370   196744832.347          44.000    37782833.341   152135763.248          44.000  
C02  38196203.847   198897574.931          41.000    38196236.672   153800406.474          43.000  
C03  37456169.232   195044023.984          45.000    37456204.381   150820538.302          45.000  
C04  38770800.936   201889624.287          40.000    38770841.266   156114062.547          44.000  
C05  39816259.020   207333583.349          34.000    39816298.063   160323557.171          40.000  
C06  37948523.803   197607959.699          43.000    37948558.058   152803139.588          43.000  
C08  35800906.027   186424706.200          47.000    35800939.031   144155532.423          49.000  
C09  38974037.610   202948062.842          38.000    38974076.117   156932473.894          42.000  
C13  35943496.166   187167219.390          48.000    35943537.247   144729726.137          49.000  
C14  22085116.991   115002968.973          47.000    22085152.354    88927712.034          51.000  
C16  37393376.521   194717159.184          45.000    37393417.369   150567817.167          45.000  
C24  24054295.723   125257087.266          45.000                                                  
C26  24724320.274   128746062.251          43.000                                                  
C27  24728164.598   128766072.959          40.000                                                  
C28  23170766.904   120656244.599          48.000                                                  
C33  22150206.748   115341930.812          50.000                                                  
R01  20016941.996   107002045.304          48.000    20016979.235    83223988.739          44.000  
R02  23173795.346   123659843.220          45.000    23173834.694    96180034.273          39.000  
R08  21048826.020   112715475.059          46.000    21048861.829    87667659.694          43.000  
R09  23458179.756   125265378.128          39.000    23458215.762    97428798.146          35.000  
R10  22059377.200   117588960.533          48.000                                                  
R17  22619195.660   121039908.918          43.000    22619238.331    94142314.717          41.000  
R23  21401001.519   114480854.508          45.000                                                  
R24  20002979.803   106964942.036          52.000    20003015.451    83195103.825          47.000  
> 2023 10 19 02 22 24.0000000  0 31                     
G05  22462188.095   118039508.697          45.000    22462227.211    91978932.306          40.000  
G13  21638427.584   113710668.336          46.000                                                  
G15  19892713.350   104536940.119          50.000    19892748.641    81457498.097          44.000  
G18  20787045.155   109236682.923          46.000    20787081.250    85119635.525          43.000  
G23  22074540.746   116002542.745          47.000    22074578.628    90391727.423          43.000  
G24  21456561.011   112755051.818          45.000    21456602.234    87861289.141          43.000  
G29  24799076.636   130319855.138          40.000    24799121.791   101548204.890          35.000  
C01  37782800.605   196744859.930          44.000    37782838.684   152135784.580          44.000  
C02  38196201.238   198897561.218          41.000    38196233.938   153800395.854          43.000  
C03  37456173.985   195044048.031          46.000    37456209.062   150820556.899          45.000  
C04  38770807.511   201889659.308          40.000    38770847.895   156114089.636          44.000  
C05  39816251.979   207333547.141          34.000    39816291.202   160323529.180          40.000  
C06  37948271.082   197606642.162          43.000    37948305.283   152802120.800          43.000  
C08  35800852.902   186424430.209          47.000    35800886.120   144155319.000          49.000  
C09  38973786.943   202946760.041          38.000    38973826.040   156931466.506          42.000  
C13  35943411.628   187166778.973          48.000    35943452.655   144729385.577          49.000  
C14  22085323.182   115004042.708          47.000    22085358.634    88928542.317          51.000  
C16  37393156.410   194716012.745          45.000    37393197.187   150566930.668          45.000  
C24  24053879.250   125254918.435          45.000                                                  
C26  24724364.232   128746291.025          43.000                                                  
C27  24727892.703   128764658.308          40.000                                                  
C28  23170991.357   120657412.421          48.000                                                  
C33  22150170.420   115341741.283          50.000                                                  
R01  20016809.354   107001338.147          48.000    20016847.344    83223438.733          44.000  
R02  23173294.138   123657164.946          45.000    23173331.984    96177951.169          39.000  
R08  21049233.934   112717657.474          46.000    21049269.440    87669357.118          43.000  
R09  23458503.847   125267116.974          39.000    23458540.478    97430150.638          35.000  
R10  22059174.512   117587881.132          48.000                                                  
R17  22618560.505   121036510.986          43.000    22618604.070    94139671.893          41.000  
R23  21401741.385   114484809.203          45.000                                                  
R24  20003032.087   106965221.491          52.000    20003067.718    83195321.177          47.000  
> 2023 10 19 02 22 25.0000000  0 31                     
G05  22462647.919   118041925.462          45.000    22462687.124    91980815.492          40.000  
G13  21638955.721   113713443.602          46.000                                                  
G15  19892830.017   104537552.975          50.000    19892865.236    81457975.646          44.000  
G18  20786890.999   109235872.437          46.000    20786926.969    85119003.983          43.000  
G23  22074085.014   116000148.091          47.000    22074122.950    90389861.459          43.000  
G24  21456015.630   112752186.059          45.000    21456057.140    87859056.096          43.000  
G29  24799689.830   130323078.486          40.000    24799735.485   101550716.585          34.000  
C01  37782806.073   196744887.777          44.000    37782844.045   152135806.118          44.000  
C02  38196198.629   198897547.752          41.000    38196231.347   153800385.446          43.000  
C03  37456178.631   195044072.337          46.000    37456213.726   150820575.687          45.000  
C04  38770814.230   201889694.606          40.000    38770854.703   156114116.930          44.000  
C05  39816245.189   207333511.222          34.000    39816284.161   160323501.403          40.000  
C06  37948017.806   197605325.008          43.000    37948052.275   152801102.282          43.000  
C08  35800800.224   186424154.512          47.000    35800833.175   144155105.829          49.000  
C09  38973536.598   202945457.624          38.000    38973576.035   156930459.376          42.000  
C13  35943327.036   187166338.850          48.000    35943368.045   144729045.248          49.000  
C14  22085529.373   115005116.879          47.000    22085564.932    88929372.928          51.000  
C16  37392936.282   194714866.691          45.000    37392977.112   150566044.464          45.000  
C24  24053462.759   125252750.194          45.000                                                  
C26  24724408.440   128746520.582          43.000                                                  
C27  24727621.237   128763244.436          40.000                                                  
C28  23171215.613   120658581.017          48.000                                                  
C33  22150134.039   115341552.223          50.000                                                  
R01  20016676.873   107000631.585          48.000    20016715.846    83222889.180          44.000  
R02  23172792.465   123654487.108          45.000    23172829.847    96175868.415          39.000  
R08  21049641.848   112719840.307          46.000    21049676.818    87671054.871          43.000  
R09  23458830.403   125268856.863          40.000    23458866.320    97431503.862          35.000  
R10  22058972.341   117586802.806          48.000                                                  
R17  22617925.797   121033113.841          43.000    22617969.398    94137029.657          41.000  
R23  21402480.734   114488764.602          45.000                                                  
R24  20003084.426   106965502.165          52.000    20003120.074    83195539.475          47.000  
> 2023 10 19 02 22 26.0000000  0 31                     
G05  22463107.617   118044341.458          45.000    22463146.876    91982698.079          40.000  
G13  21639483.715   113716218.135          46.000                                                  
G15  19892946.594   104538165.274          50.000    19892981.921    81458452.766          44.000  
G18  20786736.771   109235061.584          46.000    20786772.492    85118372.145          43.000  
G23  22073629.265   115997752.575          46.000    22073666.950    90387994.818          43.000  
G24  21455470.303   112749319.787          45.000    21455511.652    87856822.632          43.000  
G29  24800302.701   130326300.821          40.000    24800349.125   101553227.459          34.000  
C01  37782811.202   196744914.622          44.000    37782849.245   152135826.882          44.000  
C02  38196195.841   198897533.298          41.000    38196228.631   153800374.278          43.000  
C03  37456183.188   195044095.669          45.000    37456218.104   150820593.722          45.000  
C04  38770820.895   201889728.897          40.000    38770861.422   156114143.440          44.000  
C05  39816238.077   207333473.293          34.000    39816277.175   160323472.874          40.000  
C06  37947764.656   197604006.953          43.000    37947799.339   152800083.085          43.000  
C08  35800746.742   186423877.881          47.000    35800779.907   144154891.911          49.000  
C09  38973286.235   202944154.273          38.000    38973325.601   156929451.539          42.000  
C13  35943242.337   187165897.776          48.000    35943283.310   144728704.177          49.000  
C14  22085735.402   115006190.225          47.000    22085771.123    88930202.904          51.000  
C16  37392715.760   194713719.764          45.000    37392756.519   150565157.598          45.000  
C24  24053046.357   125250581.276          45.000                                                  
C26  24724452.469   128746749.692          43.000                                                  
C27  24727349.931   128761830.070          40.000                                                  
C28  23171439.976   120659749.127          48.000                                                  
C33  22150097.586   115341362.366          50.000                                                  
R01  20016544.500   106999924.323          48.000    20016583.579    83222339.085          44.000  
R02  23172290.292   123651808.426          45.000    23172328.299    96173784.986          39.000  
R08  21050049.208   112722022.258          46.000    21050084.088    87672751.944          43.000  
R09  23459157.460   125270596.479          40.000    23459191.375    97432856.889          35.000  
R10  22058770.457   117585724.268          48.000                                                  
R17  22617291.143   121029716.218          43.000    22617335.441    94134387.075          41.000  
R23  21403219.886   114492719.416          45.000                                                  
R24  20003137.014   106965782.741          52.000    20003172.895    83195757.702          47.000  
> 2023 10 19 02 22 27.0000000  0 31                     
G05  22463567.602   118046758.446          45.000    22463606.932    91984581.440          40.000  
G13  21640011.905   113718993.677          46.000                                                  
G15  19893063.368   104538778.794          50.000    19893098.534    81458930.820          44.000  
G18  20786582.687   109234252.122          46.000    20786618.532    85117741.405          43.000  
G23  22073173.640   115995357.939          47.000    22073211.165    90386128.868          43.000  
G24  21454925.084   112746454.738          45.000    21454966.522    87854590.122          43.000  
G29  24800916.002   130329523.911          40.000    24800963.248   101555738.962          35.000  
C01  37782816.652   196744942.225          44.000    37782854.588   152135848.216          44.000  
C02  38196193.054   198897519.593          41.000    38196226.147   153800363.665          43.000  
C03  37456187.780   195044119.722          45.000    37456222.661   150820612.328          45.000  
C04  38770827.739   201889763.939          40.000    38770868.105   156114170.532          44.000  
C05  39816231.412   207333437.149          34.000    39816270.081   160323444.894          40.000  
C06  37947511.720   197602689.733          43.000    37947546.171   152799064.524          43.000  
C08  35800693.975   186423602.058          47.000    35800727.015   144154678.619          49.000  
C09  38973036.230   202942851.746          38.000    38973075.845   156928444.346          42.000  
C13  35943157.816   187165457.443          48.000    35943198.879   144728363.688          49.000  
C14  22085941.629   115007264.487          47.000    22085977.367    88931033.587          51.000  
C16  37392495.953   194712573.718          45.000    37392536.623   150564271.387          45.000  
C24  24052629.991   125248413.451          45.000                                                  
C26  24724496.677   128746980.098          43.000                                                  
C27  24727078.251   128760416.939          40.000                                                  
C28  23171664.697   120660918.502          48.000                                                  
C33  22150061.276   115341173.459          50.000                                                  
R01  20016412.305   106999218.152          48.000    20016451.527    83221789.843          44.000  
R02  23171787.993   123649130.703          45.000    23171826.698    96171702.313          39.000  
R08  21050457.033   112724205.082          46.000    21050491.806    87674449.682          43.000  
R09  23459483.945   125272337.594          40.000    23459518.432    97434211.092          36.000  
R10  22058568.537   117584647.308          47.000                                                  
R17  22616656.400   121026319.936          43.000    22616700.322    94131745.523          41.000  
R23  21403959.467   114496675.440          45.000                                                  
R24  20003189.924   106966064.974          52.000    20003225.627    83195977.219          47.000  
> 2023 10 19 02 22 28.0000000  0 31                     
G05  22464027.425   118049175.413          45.000    22464066.827    91986464.784          40.000  
G13  21640540.149   113721769.217          46.000                                                  
G15  19893180.178   104539392.540          50.000    19893215.451    81459409.070          44.000  
G18  20786428.692   109233443.066          46.000    20786464.733    85117110.975          43.000  
G23  22072717.837   115992963.185          47.000    22072755.451    90384262.824          43.000  
G24  21454379.918   112743589.909          45.000    21454421.106    87852357.797          43.000  
G29  24801529.124   130332746.683          40.000    24801576.638   101558250.223          35.000  
C01  37782821.709   196744969.564          44.000    37782859.698   152135869.358          44.000  
C02  38196190.463   198897505.651          41.000    38196223.592   153800352.879          43.000  
C03  37456192.337   195044143.534          45.000    37456227.182   150820630.736          45.000  
C04  38770834.190   201889798.733          40.000    38770874.949   156114197.428          44.000  
C05  39816224.175   207333401.756          34.000    39816263.255   160323416.739          40.000  
C06  37947258.730   197601372.378          43.000    37947293.235   152798045.857          43.000  
C08  35800640.940   186423326.027          47.000    35800673.854   144154465.173          49.000  
C09  38972786.260   202941549.032          38.000    38972825.876   156927436.999          42.000  
C13  35943073.171   187165016.907          48.000    35943114.198   144728023.040          49.000  
C14  22086147.962   115008338.670          47.000    22086183.611    88931864.212          51.000  
C16  37392275.789   194711427.535          45.000    37392316.459   150563385.095          45.000  
C24  24052213.678   125246245.684          46.000                                                  
C26  24724540.617   128747210.771          43.000                                                  
C27  24726806.641   128759004.079          40.000                                                  
C28  23171889.436   120662088.135          48.000                                                  
C33  22150024.931   115340984.510          50.000                                                  
R01  20016280.574   106998512.037          48.000    20016319.457    83221240.647          44.000  
R02  23171285.767   123646452.888          45.000    23171324.167    96169619.601          39.000  
R08  21050864.375   112726387.781          46.000    21050899.541    87676147.334          43.000  
R09  23459809.769   125274079.132          40.000    23459846.114    97435565.634          36.000  
R10  22058366.903   117583570.889          47.000                                                  
R17  22616021.871   121022923.938          43.000    22616065.918    94129104.196          41.000  
R23  21404699.281   114500631.628          45.000                                                  
R24  20003242.978   106966347.881          51.000    20003278.644    83196197.244          47.000  
> 2023 10 19 02 22 29.0000000  0 31                     
G05  22464487.356   118051592.900          45.000    22464526.793    91988348.531          40.000  
G13  21641068.429   113724545.299          46.000                                                  
G15  19893297.166   104540007.005          50.000    19893332.422    81459887.874          44.000  
G18  20786274.821   109232634.921          46.000    20786310.953    85116481.250          43.000  
G23  22072262.195   115990568.851          47.000    22072299.845    90382397.109          43.000  
G24  21453835.002   112740725.841          45.000    21453876.065    87850126.056          43.000  
G29  24802142.532   130335969.761          40.000    24802190.117   101560761.666          35.000  
C01  37782827.069   196744997.179          44.000    37782864.952   152135890.712          44.000  
C02  38196188.104   198897491.984          41.000    38196221.126   153800342.327          43.000  
C03  37456196.822   195044167.625          45.000    37456231.756   150820649.360          45.000  
C04  38770840.873   201889833.783          40.000    38770881.686   156114224.545          44.000  
C05  39816217.385   207333365.597          34.000    39816256.429   160323388.785          40.000  
C06  37947005.776   197600055.390          43.000    37947040.388   152797027.479          43.000  
C08  35800588.137   186423050.306          47.000    35800620.873   144154251.971          49.000  
C09  38972536.326   202940246.682          38.000    38972576.192   156926429.943          42.000  
C13  35942988.561   187164576.708          48.000    35943029.659   144727682.641          49.000  
C14  22086354.457   115009413.301          47.000    22086389.945    88932695.178          51.000  
C16  37392055.982   194710281.751          45.000    37392096.545   150562499.100          45.000  
C24  24051797.294   125244078.527          45.000                                                  
C26  24724584.861   128747442.265          43.000                                                  
C27  24726535.997   128757591.981          40.000                                                  
C28  23172114.264   120663258.554          48.000                                                  
C33  22149988.817   115340796.042          50.000                                                  
R01  20016148.593   106997806.525          48.000    20016187.137    83220691.916          44.000  
R02  23170783.665   123643775.514          45.000    23170822.584    96167537.194          39.000  
R08  21051271.985   112728570.889          45.000    21051306.776    87677845.300          43.000  
R09  23460135.878   125275821.724          40.000    23460172.367    97436920.980          36.000  
R10  22058165.394   117582495.554          47.000                                                  
R17  22615387.342   121019528.747          43.000    22615431.460    94126463.494          41.000  
R23  21405439.523   114504588.547          45.000                                                  
R24  20003296.138   106966631.986          51.000    20003331.894    83196418.217          47.000  
> 2023 10 19 02 22 30.0000000  0 31                     
G05  22464947.412   118054010.416          45.000    22464986.867    91990232.305          40.000  
G13  21641596.673   113727321.425          46.000                                                  
G15  19893414.084   104540621.730          50.000    19893449.321    81460366.874          44.000  
G18  20786121.237   109231827.217          46.000    20786157.368    85115851.871          43.000  
G23  22071806.624   115988174.432          47.000    22071844.113    90380531.331          43.000  
G24  21453290.193   112737862.039          45.000    21453330.952    87847894.517          43.000  
G29  24802755.761   130339192.575          40.000    24802803.382   101563272.947          35.000  
C01  37782832.162   196745024.600          44.000    37782870.312   152135911.915          44.000  
C02  38196185.477   198897478.102          41.000    38196218.517   153800331.597          43.000  
C03  37456201.325   195044191.506          45.000    37456236.259   150820667.829          45.000  
C04  38770847.734   201889868.636          40.000    38770888.422   156114251.493          44.000  
C05  39816209.951   207333329.233          34.000    39816249.513   160323360.684          40.000  
C06  37946752.769   197598738.312          43.000    37946787.345   152796009.019          43.000  
C08  35800535.012   186422774.419          47.000    35800567.998   144154038.634          49.000  
C09  38972285.498   202938944.198          38.000    38972326.472   156925422.785          42.000  
C13  35942904.112   187164136.312          48.000    35942945.210   144727342.103          49.000  
C14  22086560.594   115010487.888          47.000    22086596.350    88933526.119          51.000  
C16  37391835.764   194709135.886          45.000    37391876.613   150561613.044          45.000  
C24  24051381.161   125241911.484          45.000                                                  
C26  24724629.426   128747674.095          43.000                                                  
C27  24726264.942   128756180.182          40.000                                                  
C28  23172339.235   120664429.273          47.000                                                  
C33  22149952.668   115340607.572          50.000                                                  
R01  20016016.506   106997101.129          48.000    20016054.960    83220143.256          44.000  
R02  23170281.742   123641098.042          45.000    23170320.786    96165454.709          39.000  
R08  21051679.238   112730753.929          46.000    21051714.172    87679543.222          43.000  
R09  23460463.882   125277564.813          40.000    23460498.727    97438276.698          36.000  
R10  22057963.742   117581420.794          47.000                                                  
R17  22614752.992   121016133.882          43.000    22614796.181    94123823.036          41.000  
R23  21406179.372   114508545.685          45.000                                                  
R24  20003349.584   106966916.832          51.000    20003385.322    83196639.768          47.000  
> 2023 10 19 02 22 31.0000000  0 31                     
G05  22465407.504   118056428.219          45.000    22465447.084    91992116.303          40.000  
G13  21642125.078   113730097.856          46.000                                                  
G15  19893531.215   104541236.973          50.000    19893566.345    81460846.284          44.000  
G18  20785967.689   109231020.221          46.000    20786003.766    85115223.028          43.000  
G23  22071350.982   115985780.216          47.000    22071388.453    90378665.701          43.000  
G24  21452745.349   112734998.780          45.000    21452786.108    87845663.416          43.000  
G29  24803369.329   130342415.450          40.000    24803416.539   101565784.249          35.000  
C01  37782837.380   196745052.078          44.000    37782875.530   152135933.150          44.000  
C02  38196182.672   198897464.276          41.000    38196215.783   153800320.902          43.000  
C03  37456205.971   195044215.452          45.000    37456240.816   150820686.346          45.000  
C04  38770854.507   201889903.553          40.000    38770894.998   156114278.488          44.000  
C05  39816203.393   207333292.956          34.000    39816242.777   160323332.614          40.000  
C06  37946499.886   197597421.380          43.000    37946534.284   152794990.704          43.000  
C08  35800482.013   186422498.652          47.000    35800514.963   144153825.400          49.000  
C09  38972035.332   202937641.839          38.000    38972076.073   156924415.731          42.000  
C13  35942819.520   187163696.008          48.000    35942860.565   144727001.635          49.000  
C14  22086767.124   115011562.694          47.000    22086802.809    88934357.229          51.000  
C16  37391615.689   194707990.195          45.000    37391656.699   150560727.127          45.000  
C24  24050965.062   125239744.822          45.000                                                  
C26  24724673.938   128747906.508          43.000                                                  
C27  24725994.101   128754768.939          40.000                                                  
C28  23172564.099   120665600.561          48.000                                                  
C33  22149916.466   115340419.364          50.000                                                  
R01  20015884.757   106996396.122          48.000    20015923.051    83219594.921          44.000  
R02  23169780.427   123638420.808          45.000    23169819.578    96163372.427          39.000  
R08  21052086.974   112732937.175          46.000    21052121.479    87681241.298          43.000  
R09  23460789.188   125279308.737          40.000    23460825.319    97439633.065          36.000  
R10  22057762.501   117580346.902          48.000                                                  
R17  22614119.052   121012739.626          43.000    22614161.884    94121183.071          41.000  
R23  21406918.774   114512503.325          45.000                                                  
R24  20003403.138   106967202.666          51.000    20003438.894    83196862.072          47.000  
> 2023 10 19 02 22 32.0000000  0 31                     
G05  22465867.595   118058846.266          45.000    22465906.871    91994000.493          40.000  
G13  21642653.554   113732874.546          46.000                                                  
G15  19893648.418   104541852.673          50.000    19893683.495    81461326.046          44.000  
G18  20785814.194   109230213.861          46.000    20785850.182    85114594.696          43.000  
G23  22070895.429   115983386.126          47.000    22070932.883    90376800.189          43.000  
G24  21452200.415   112732136.000          45.000    21452241.192    87843432.669          43.000  
G29  24803982.666   130345638.296          40.000    24804029.733   101568295.567          35.000  
C01  37782842.830   196745079.539          44.000    37782880.748   152135954.384          44.000  
C02  38196180.081   198897450.458          41.000    38196213.049   153800310.212          43.000  
C03  37456210.563   195044239.386          45.000    37456245.301   150820704.859          45.000  
C04  38770861.011   201889938.469          40.000    38770901.806   156114305.469          44.000  
C05  39816196.478   207333256.658          34.000    39816235.629   160323304.567          40.000  
C06  37946246.968   197596104.560          43.000    37946281.187   152793972.435          43.000  
C08  35800429.120   186422222.949          47.000    35800461.981   144153612.202          49.000  
C09  38971785.738   202936339.567          38.000    38971825.711   156923408.735          42.000  
C13  35942735.017   187163255.728          48.000    35942776.116   144726661.173          49.000  
C14  22086973.762   115012637.682          47.000    22087009.089    88935188.472          51.000  
C16  37391395.561   194706844.626          45.000    37391436.499   150559841.308          45.000  
C24  24050549.018   125237578.498          45.000                                                  
C26  24724718.771   128748139.461          42.000                                                  
C27  24725723.153   128753358.184          40.000                                                  
C28  23172789.195   120666772.367          47.000                                                  
C33  22149880.335   115340231.365          50.000                                                  
R01  20015752.830   106995691.440          48.000    20015791.159    83219046.840          44.000  
R02  23169279.754   123635743.768          45.000    23169317.923    96161290.287          39.000  
R08  21052494.798   112735120.585          46.000    21052529.214    87682939.503          43.000  
R09  23461115.083   125281053.377          40.000    23461152.965    97440989.983          36.000  
R10  22057561.028   117579273.803          48.000                                                  
R17  22613484.934   121009345.908          43.000    22613527.212    94118543.503          41.000  
R23  21407658.980   114516461.395          45.000                                                  
R24  20003456.369   106967489.402          51.000    20003492.376    83197085.087          47.000  
> 2023 10 19 02 22 33.0000000  0 31                     
G05  22466327.830   118061264.513          45.000    22466367.142    91995884.830          40.000  
G13  21643181.959   113735651.458          46.000                                                  
G15  19893765.639   104542468.804          50.000    19893800.841    81461806.150          44.000  
G18  20785660.735   109229408.108          46.000    20785696.758    85113966.846          43.000  
G23  22070440.019   115980992.138          47.000    22070477.437    90374934.733          43.000  
G24  21451655.624   112729273.648          45.000    21451696.669    87841202.271          43.000  
G29  24804596.145   130348861.087          40.000    24804642.587   101570806.798          35.000  
C01  37782847.994   196745106.974          44.000    37782885.805   152135975.608          44.000  
C02  38196177.365   198897436.617          41.000    38196210.298   153800299.501          43.000  
C03  37456215.209   195044263.305          45.000    37456249.893   150820723.337          45.000  
C04  38770867.676   201889973.342          40.000    38770908.489   156114332.444          44.000  
C05  39816189.330   207333220.351          34.000    39816228.642   160323276.459          40.000  
C06  37945994.086   197594787.799          43.000    37946028.466   152792954.243          43.000  
C08  35800376.335   186421947.240          47.000    35800408.946   144153399.006          49.000  
C09  38971535.357   202935037.357          38.000    38971575.580   156922401.772          42.000  
C13  35942650.443   187162815.398          48.000    35942691.417   144726320.691          49.000  
C14  22087180.131   115013712.799          47.000    22087215.601    88936019.822          51.000  
C16  37391175.682   194705699.150          45.000    37391216.424   150558955.533          45.000  
C24  24050133.242   125235412.455          45.000                                                  
C26  24724763.605   128748372.917          43.000                                                  
C27  24725451.973   128751947.903          40.000                                                  
C28  23173014.362   120667944.640          48.000                                                  
C33  22149844.096   115340043.520          50.000                                                  
R01  20015620.832   106994987.047          48.000    20015659.679    83218498.979          44.000  
R02  23168778.100   123633066.892          45.000    23168816.464    96159208.284          39.000  
R08  21052902.730   112737304.133          46.000    21052936.824    87684637.812          43.000  
R09  23461441.872   125282798.696          40.000    23461480.022    97442347.477          36.000  
R10  22057359.698   117578201.471          48.000                                                  
R17  22612850.512   121005952.698          43.000    22612892.916    94115904.354          41.000  
R23  21408398.758   114520419.850          45.000                                                  
R24  20003509.905   106967777.033          51.000    20003546.304    83197308.800          47.000  
> 2023 10 19 02 22 34.0000000  0 31                     
G05  22466788.064   118063682.930          45.000    22466827.466    91997769.306          40.000  
G13  21643710.346   113738428.567          46.000                                                  
G15  19893882.967   104543085.347          50.000    19893918.204    81462286.573          44.000  
G18  20785507.758   109228602.936          46.000    20785543.657    85113339.430          43.000  
G23  22069984.502   115978598.230          47.000    22070021.795    90373069.355          43.000  
G24  21451111.048   112726411.736          45.000    21451152.075    87838972.215          43.000  
G29  24805209.624   130352083.783          40.000    24805255.423   101573317.992          35.000  
C01  37782853.373   196745134.359          44.000    37782891.041   152135996.770          44.000  
C02  38196174.595   198897422.698          41.000    38196207.832   153800288.733          43.000  
C03  37456219.784   195044287.151          45.000    37456254.450   150820741.786          45.000  
C04  38770874.359   201890008.165          40.000    38770915.279   156114359.368          44.000  
C05  39816182.093   207333183.975          34.000    39816221.745   160323248.332          40.000  
C06  37945741.185   197593471.082          43.000    37945775.583   152791936.081          43.000  
C08  35800323.461   186421671.516          47.000    35800356.107   144153185.803          49.000  
C09  38971285.137   202933735.146          38.000    38971325.503   156921394.817          42.000  
C13  35942565.905   187162375.109          48.000    35942606.878   144725980.232          49.000  
C14  22087386.536   115014788.029          47.000    22087421.988    88936851.254          51.000  
C16  37390955.750   194704553.738          45.000    37390996.456   150558069.836          45.000  
C24  24049717.412   125233246.688          45.000                                                  
C26  24724808.384   128748606.845          43.000                                                  
C27  24725181.454   128750538.067          40.000                                                  
C28  23173239.691   120669117.374          48.000                                                  
C33  22149808.090   115339855.832          50.000                                                  
R01  20015488.619   106994282.914          48.000    20015528.413    83217951.313          44.000  
R02  23168276.623   123630390.096          45.000    23168315.185    96157126.336          39.000  
R08  21053310.448   112739487.782          46.000    21053344.720    87686336.208          43.000  
R09  23461770.090   125284544.678          40.000    23461806.668    97443705.435          36.000  
R10  22057158.582   117577129.896          48.000                                                  
R17  22612216.662   121002559.972          43.000    22612258.762    94113265.565          41.000  
R23  21409138.768   114524378.711          45.000                                                  
R24  20003563.923   106968065.546          51.000    20003600.412    83197533.192          47.000  
> 2023 10 19 02 22 35.0000000  0 31                     
G05  22467248.388   118066102.042          45.000    22467287.807    91999654.335          40.000  
G13  21644238.948   113741206.404          46.000                                                  
G15  19894000.527   104543702.819          50.000    19894035.532    81462767.713          44.000  
G18  20785354.781   109227798.886          46.000    20785390.555    85112712.899          43.000  
G23  22069529.003   115976204.917          47.000    22069566.474    90371204.438          43.000  
G24  21450566.597   112723550.743          45.000    21450607.624    87836742.867          43.000  
G29  24805822.961   130355306.931          40.000    24805868.830   101575829.534          35.000  
C01  37782858.644   196745162.193          44.000    37782896.365   152136018.295          44.000  
C02  38196171.718   198897409.243          41.000    38196205.115   153800278.329          43.000  
C03  37456224.501   195044311.475          45.000    37456259.185   150820760.588          45.000  
C04  38770881.132   201890043.454          40.000    38770921.980   156114386.646          44.000  
C05  39816175.142   207333148.044          34.000    39816214.955   160323220.539          40.000  
C06  37945488.696   197592154.946          43.000    37945523.058   152790918.354          43.000  
C08  35800270.443   186421396.290          47.000    35800303.287   144152972.976          49.000  
C09  38971035.364   202932433.491          38.000    38971075.730   156920388.291          42.000  
C13  35942481.438   187161935.248          48.000    35942522.376   144725640.105          49.000  
C14  22087593.245   115015863.890          48.000    22087628.625    88937683.175          51.000  
C16  37390735.908   194703408.913          45.000    37390776.614   150557184.583          45.000  
C24  24049301.510   125231081.704          45.000                                                  
C26  24724853.575   128748841.787          43.000                                                  
C27  24724911.238   128749129.188          40.000                                                  
C28  23173465.055   120670291.078          48.000                                                  
C33  22149772.227   115339668.813          50.000                                                  
R01  20015357.264   106993579.572          48.000    20015396.629    83217404.279          44.000  
R02  23167774.539   123627713.899          45.000    23167813.297    96155044.854          39.000  
R08  21053718.576   112741672.066          46.000    21053752.885    87688035.081          43.000  
R09  23462096.843   125286291.864          39.000    23462133.867    97445064.381          36.000  
R10  22056957.966   117576059.586          48.000                                                  
R17  22611582.509   120999168.235          44.000    22611624.108    94110627.564          41.000  
R23  21409878.742   114528338.468          45.000                                                  
R24  20003618.102   106968355.464          51.000    20003654.394    83197758.691          47.000  
> 2023 10 19 02 22 36.0000000  0 31                     
G05  22467708.551   118068520.301          45.000    22467748.060    92001538.674          40.000  
G13  21644767.263   113743983.411          46.000                                                  
G15  19894117.873   104544319.667          50.000    19894153.003    81463248.378          44.000  
G18  20785201.644   109226994.395          46.000    20785237.453    85112086.012          43.000  
G23  22069073.557   115973810.665          47.000    22069110.868    90369338.776          43.000  
G24  21450022.181   112720689.163          45.000    21450063.280    87834513.062          43.000  
G29  24806436.261   130358528.997          40.000    24806482.095   101578340.197          35.000  
C01  37782863.862   196745188.973          43.000    37782901.637   152136039.001          44.000  
C02  38196168.966   198897394.710          41.000    38196202.399   153800267.102          43.000  
C03  37456228.861   195044334.708          45.000    37456263.795   150820778.564          45.000  
C04  38770887.582   201890077.667          40.000    38770928.467   156114413.099          44.000  
C05  39816168.120   207333111.051          34.000    39816207.968   160323191.938          40.000  
C06  37945235.671   197590837.821          43.000    37945270.319   152789899.879          43.000  
C08  35800217.372   186421120.046          47.000    35800250.162   144152759.362          49.000  
C09  38970785.162   202931130.824          38.000    38970825.456   156919380.990          42.000  
C13  35942396.614   187161494.392          48.000    35942437.659   144725299.196          49.000  
C14  22087799.704   115016938.847          47.000    22087835.174    88938514.402          51.000  
C16  37390516.012   194702263.138          45.000    37390556.646   150556298.597          45.000  
C24  24048885.394   125228915.978          45.000                                                  
C26  24724898.962   128749076.185          42.000                                                  
C27  24724640.844   128747719.739          40.000                                                  
C28  23173690.348   120671464.216          48.000                                                  
C33  22149736.275   115339480.921          50.000                                                  
R01  20015225.283   106992875.448          48.000    20015265.185    83216856.615          44.000  
R02  23167272.974   123625036.734          45.000    23167310.874    96152962.619          39.000  
R08  21054126.597   112743855.384          46.000    21054160.709    87689733.226          43.000  
R09  23462423.256   125288038.690          40.000    23462462.211    97446423.000          36.000  
R10  22056757.226   117574989.001          48.000                                                  
R17  22610947.908   120995775.934          44.000    22610990.526    94107989.107          41.000  
R23  21410618.662   114532297.602          45.000                                                  
R24  20003672.102   106968645.198          51.000    20003708.376    83197984.037          47.000  
> 2023 10 19 02 22 37.0000000  0 31                     
G05  22468168.929   118070939.768          45.000    22468208.437    92003423.974          41.000  
G13  21645295.972   113746761.658          46.000                                                  
G15  19894235.558   104544937.955          50.000    19894270.707    81463730.157          44.000  
G18  20785048.899   109226191.524          46.000    20785084.744    85111460.403          43.000  
G23  22068618.237   115971417.517          47.000    22068655.315    90367473.994          43.000  
G24  21449477.819   112717829.026          45.000    21449518.811    87832284.405          43.000  
G29  24807049.562   130361751.989          40.000    24807096.540   101580851.611          35.000  
C01  37782869.187   196745216.710          43.000    37782907.087   152136060.452          44.000  
C02  38196166.233   198897381.160          41.000    38196199.558   153800256.613          43.000  
C03  37456233.686   195044358.933          45.000    37456268.423   150820797.299          45.000  
C04  38770894.319   201890112.828          40.000    38770935.043   156114440.315          44.000  
C05  39816161.348   207333074.015          34.000    39816201.088   160323164.084          40.000  
C06  37944983.092   197589521.787          43.000    37945017.740   152788882.233          43.000  
C08  35800164.373   186420844.779          47.000    35800197.252   144152546.515          49.000  
C09  38970535.496   202929829.224          38.000    38970574.986   156918374.508          42.000  
C13  35942312.343   187161054.513          48.000    35942353.192   144724959.054          49.000  
C14  22088006.234   115018014.955          47.000    22088041.757    88939346.513          51.000  
C16  37390296.169   194701118.453          45.000    37390336.714   150555413.456          45.000  
C24  24048469.653   125226751.538          45.000                                                  
C26  24724944.189   128749312.095          43.000                                                  
C27  24724370.164   128746311.761          41.000                                                  
C28  23173915.855   120672638.851          48.000                                                  
C33  22149700.340   115339294.213          50.000                                                  
R01  20015093.749   106992172.632          48.000    20015133.633    83216309.985          44.000  
R02  23166771.230   123622360.766          45.000    23166810.005    96150881.300          39.000  
R08  21054534.190   112746039.826          46.000    21054568.999    87691432.218          43.000  
R09  23462752.475   125289787.295          40.000    23462790.554    97447783.015          36.000  
R10  22056557.307   117573920.218          48.000                                                  
R17  22610314.934   120992385.174          44.000    22610356.747    94105351.859          41.000  
R23  21411359.101   114536258.157          45.000                                                  
R24  20003726.513   106968936.858          51.000    20003762.752    83198210.874          47.000  
> 2023 10 19 02 22 38.0000000  0 31                     
G05  22468629.378   118073359.397          45.000    22468668.815    92005309.387          40.000  
G13  21645824.663   113749540.068          46.000                                                  
G15  19894353.315   104545556.610          50.000    19894388.303    81464212.233          44.000  
G18  20784896.369   109225389.222          46.000    20784932.107    85110835.219          43.000  
G23  22068162.880   115969024.425          47.000    22068200.119    90365609.251          43.000  
G24  21448933.654   112714969.298          45.000    21448974.788    87830056.031          43.000  
G29  24807662.916   130364974.871          40.000    24807710.126   101583362.965          35.000  
C01  37782874.494   196745244.366          44.000    37782912.555   152136081.821          44.000  
C02  38196163.767   198897367.517          41.000    38196196.860   153800246.075          43.000  
C03  37456238.153   195044383.070          45.000    37456273.033   150820815.957          45.000  
C04  38770901.091   201890147.942          40.000    38770941.726   156114467.443          44.000  
C05  39816154.522   207333038.921          34.000    39816194.209   160323136.158          40.000  
C06  37944730.317   197588205.750          43.000    37944764.625   152787864.594          43.000  
C08  35800111.534   186420569.509          47.000    35800144.574   144152333.652          49.000  
C09  38970285.204   202928527.592          38.000    38970325.231   156917368.020          42.000  
C13  35942227.769   187160614.590          48.000    35942268.814   144724618.880          49.000  
C14  22088212.853   115019091.133          47.000    22088248.359    88940178.677          51.000  
C16  37390076.577   194699973.803          45.000    37390116.961   150554528.331          45.000  
C24  24048053.966   125224587.356          45.000                                                  
C26  24724989.701   128749548.442          43.000                                                  
C27  24724099.985   128744904.207          41.000                                                  
C28  23174141.701   120673813.893          48.000                                                  
C33  22149664.655   115339107.613          50.000                                                  
R01  20014961.965   106991470.033          48.000    20015002.063    83215763.519          44.000  
R02  23166269.360   123619684.897          44.000    23166309.280    96148800.077          39.000  
R08  21054941.925   112748224.274          46.000    21054977.502    87693131.229          43.000  
R09  23463080.997   125291536.506          40.000    23463118.111    97449143.489          36.000  
R10  22056356.906   117572852.146          48.000                                                  
R17  22609681.584   120988994.902          44.000    22609723.719    94102714.982          41.000  
R23  21412099.558   114540219.046          45.000                                                  
R24  20003781.228   106969229.342          51.000    20003817.431    83198438.371          47.000  
> 2023 10 19 02 22 39.0000000  0 31                     
G05  22469089.702   118075778.794          45.000    22469128.996    92007194.625          41.000  
G13  21646353.389   113752318.268          46.000                                                  
G15  19894471.090   104546175.265          50.000    19894506.095    81464694.288          44.000  
G18  20784743.804   109224587.082          46.000    20784779.381    85110210.188          43.000  
G23  22067707.417   115966630.994          47.000    22067744.834    90363744.238          43.000  
G24  21448389.471   112712109.566          45.000    21448430.659    87827827.674          43.000  
G29  24808276.127   130368197.279          40.000    24808323.981   101585873.924          35.000  
C01  37782879.569   196745271.565          44.000    37782917.773   152136102.874          44.000  
C02  38196161.086   198897353.420          41.000    38196194.144   153800235.156          43.000  
C03  37456242.710   195044406.748          45.000    37456277.733   150820834.252          45.000  
C04  38770907.899   201890182.562          40.000    38770948.373   156114494.220          44.000  
C05  39816147.606   207333001.353          34.000    39816187.293   160323107.890          40.000  
C06  37944477.613   197586889.355          43.000    37944511.421   152786846.681          43.000  
C08  35800058.695   186420293.823          47.000    35800091.539   144152120.472          49.000  
C09  38970035.610   202927225.587          38.000    38970075.136   156916361.232          42.000  
C13  35942143.195   187160174.223          48.000    35942184.151   144724278.365          49.000  
C14  22088419.526   115020167.017          47.000    22088454.871    88941010.617          51.000  
C16  37389856.502   194698828.836          45.000    37389897.136   150553642.968          45.000  
C24  24047638.118   125222423.023          45.000                                                  
C26  24725035.267   128749784.879          43.000                                                  
C27  24723829.573   128743496.669          41.000                                                  
C28  23174367.387   120674988.991          48.000                                                  
C33  22149628.685   115338920.768          50.000                                                  
R01  20014830.110   106990767.291          48.000    20014870.655    83215216.940          44.000  
R02  23165767.598   123617008.784          44.000    23165808.536    96146718.649          39.000  
R08  21055349.768   112750408.369          46.000    21055385.488    87694829.967          43.000  
R09  23463408.072   125293285.959          39.000    23463445.400    97450504.156          36.000  
R10  22056156.398   117571784.398          48.000                                                  
R17  22609047.609   120985604.710          44.000    22609090.656    94100078.166          41.000  
R23  21412839.979   114544179.903          45.000                                                  
R24  20003836.140   106969522.312          51.000    20003872.378    83198666.225          47.000  
> 2023 10 19 02 22 40.0000000  0 31                     
G05  22469550.044   118078198.519          45.000    22469589.409    92009080.139          40.000  
G13  21646882.080   113755096.842          46.000                                                  
G15  19894588.972   104546794.489          50.000    19894623.852    81465176.814          44.000  
G18  20784591.148   109223785.714          46.000    20784626.976    85109585.739          43.000  
G23  22067252.114   115964237.814          47.000    22067289.425    90361879.427          43.000  
G24  21447845.323   112709250.439          45.000    21447886.636    87825599.783          43.000  
G29  24808889.678   130371419.797          40.000    24808936.745   101588384.977          35.000  
C01  37782884.858   196745298.872          44.000    37782923.169   152136123.985          44.000  
C02  38196158.352   198897339.422          41.000    38196191.571   153800224.332          43.000  
C03  37456247.213   195044430.534          46.000    37456282.397   150820852.649          45.000  
C04  38770914.582   201890217.310          40.000    38770955.038   156114521.091          44.000  
C05  39816140.691   207332965.886          34.000    39816180.396   160323079.697          40.000  
C06  37944224.713   197585573.193          43.000    37944258.861   152785828.925          43.000  
C08  35800005.910   186420018.294          47.000    35800038.575   144151907.420          49.000  
C09  38969785.193   202925923.787          38.000    38969825.470   156915354.590          42.000  
C13  35942058.746   187159734.004          48.000    35942099.863   144723937.955          49.000  
C14  22088626.235   115021243.186          48.000    22088661.598    88941842.777          51.000  
C16  37389636.623   194697684.072          46.000    37389677.293   150552757.777          45.000  
C24  24047222.431   125220259.141          45.000                                                  
C26  24725080.655   128750021.961          43.000                                                  
C27  24723559.393   128742089.761          41.000                                                  
C28  23174592.858   120676164.707          48.000                                                  
C33  22149592.858   115338734.232          50.000                                                  
R01  20014698.951   106990064.994          48.000    20014739.067    83214670.702          44.000  
R02  23165265.925   123614332.903          44.000    23165307.346    96144637.431          40.000  
R08  21055757.235   112752592.694          46.000    21055793.420    87696528.882          43.000  
R09  23463734.610   125295036.252          40.000    23463773.011    97451865.537          36.000  
R10  22055956.443   117570717.559          48.000                                                  
R17  22608414.134   120982215.148          44.000    22608457.038    94097441.843          41.000  
R23  21413580.507   114548141.283          45.000                                                  
R24  20003891.230   106969816.337          51.000    20003927.647    83198894.914          47.000  
> 2023 10 19 02 22 41.0000000  0 31                     
G05  22470010.600   118080618.838          45.000    22470050.340    92010966.076          41.000  
G13  21647410.932   113757876.002          46.000                                                  
G15  19894706.997   104547414.515          50.000    19894741.698    81465659.935          44.000  
G18  20784438.797   109222985.311          46.000    20784474.678    85108962.043          44.000  
G23  22066796.847   115961845.097          47.000    22066834.247    90360014.972          43.000  
G24  21447301.408   112706392.113          45.000    21447342.721    87823372.518          44.000  
G29  24809503.050   130374642.599          40.000    24809549.671   101590896.242          34.000  
C01  37782890.147   196745326.508          44.000    37782928.440   152136145.350          44.000  
C02  38196155.886   198897325.788          41.000    38196188.747   153800213.795          43.000  
C03  37456252.091   195044454.654          45.000    37456286.953   150820871.285          45.000  
C04  38770921.051   201890252.369          40.000    38770961.757   156114548.197          44.000  
C05  39816133.651   207332929.740          34.000    39816173.230   160323051.742          40.000  
C06  37943972.313   197584257.447          43.000    37944006.550   152784811.514          43.000  
C08  35799953.018   186419743.129          47.000    35799985.736   144151694.643          49.000  
C09  38969535.188   202924622.393          38.000    38969575.482   156914348.259          42.000  
C13  35941974.261   187159294.151          48.000    35942015.360   144723597.828          49.000  
C14  22088833.158   115022319.844          48.000    22088868.396    88942675.319          51.000  
C16  37389416.834   194696539.774          45.000    37389457.344   150551872.927          45.000  
C24  24046807.012   125218095.904          45.000                                                  
C26  24725126.471   128750259.907          43.000                                                  
C27  24723289.535   128740683.687          41.000                                                  
C28  23174818.776   120677341.270          48.000                                                  
C33  22149557.048   115338548.227          50.000                                                  
R01  20014567.721   106989363.336          48.000    20014608.016    83214124.965          44.000  
R02  23164764.431   123611657.498          43.000    23164806.334    96142556.540          40.000  
R08  21056165.042   112754777.510          46.000    21056202.084    87698228.190          43.000  
R09  23464062.703   125296787.640          39.000    23464101.515    97453227.695          36.000  
R10  22055756.507   117569651.847          48.000                                                  
R17  22607781.285   120978826.441          44.000    22607823.849    94094806.194          41.000  
R23  21414321.231   114552103.415          45.000                                                  
R24  20003946.302   106970111.604          51.000    20003982.916    83199124.561          47.000  
> 2023 10 19 02 22 42.0000000  0 31                     
G05  22470471.156   118083039.077          44.000    22470511.200    92012851.977          41.000  
G13  21647939.783   113760655.119          46.000                                                  
G15  19894825.004   104548034.687          50.000    19894859.848    81466143.195          44.000  
G18  20784286.625   109222185.251          46.000    20784322.577    85108338.629          44.000  
G23  22066341.473   115959452.230          47.000    22066378.998    90358150.401          43.000  
G24  21446757.618   112703533.964          45.000    21446798.752    87821145.388          44.000  
G29  24810116.387   130377865.087          41.000    24810163.043   101593407.235          34.000  
C01  37782895.508   196745353.853          44.000    37782933.747   152136166.478          44.000  
C02  38196153.295   198897311.827          41.000    38196185.996   153800202.985          43.000  
C03  37456256.719   195044478.465          45.000    37456291.510   150820889.720          45.000  
C04  38770928.002   201890287.128          40.000    38770968.404   156114575.082          44.000  
C05  39816126.717   207332893.311          34.000    39816165.994   160323023.591          40.000  
C06  37943719.448   197582941.512          43.000    37943753.453   152783793.940          43.000  
C08  35799900.054   186419467.745          47.000    35799932.897   144151481.694          49.000  
C09  38969285.129   202923320.729          38.000    38969325.584   156913341.759          42.000  
C13  35941889.759   187158854.025          48.000    35941930.840   144723257.497          49.000  
C14  22089039.903   115023396.379          48.000    22089075.230    88943507.758          51.000  
C16  37389196.885   194695395.295          45.000    37389237.644   150550987.946          45.000  
C24  24046391.647   125215932.702          45.000                                                  
C26  24725171.715   128750498.088          42.000                                                  
C27  24723019.624   128739277.800          41.000                                                  
C28  23175044.855   120678518.042          48.000                                                  
C33  22149521.239   115338362.133          50.000                                                  
R01  20014436.187   106988661.699          48.000    20014476.732    83213579.250          44.000  
R02  23164262.651   123608981.877          43.000    23164305.894    96140475.529          40.000  
R08  21056573.224   112756962.185          46.000    21056609.927    87699927.373          43.000  
R09  23464389.903   125298539.424          39.000    23464429.715    97454590.203          36.000  
R10  22055556.302   117568586.624          48.000                                                  
R17  22607147.971   120975437.983          44.000    22607190.213    94092170.724          41.000  
R23  21415062.152   114556065.687          45.000                                                  
R24  20004001.678   106970407.465          51.000    20004038.649    83199354.680          47.000  
> 2023 10 19 02 22 43.0000000  0 30                     
G05  22470931.873   118085459.706          44.000    22470971.667    92014738.172          41.000  
G13  21648468.653   113763434.619          46.000                                                  
G15  19894943.118   104548655.473          50.000    19894977.891    81466626.917          44.000  
G18  20784134.363   109221385.992          46.000    20784170.387    85107715.823          44.000  
G23  22065886.367   115957059.616          47.000    22065923.927    90356286.026          43.000  
G24  21446213.828   112700676.448          45.000    21446254.766    87818918.752          44.000  
G29  24810729.705   130381087.689          41.000    24810775.700   101595918.363          34.000  
C01  37782900.726   196745381.319          44.000    37782939.001   152136187.740          44.000  
C02  38196150.615   198897298.018          41.000    38196183.423   153800192.320          43.000  
C03  37456261.240   195044502.431          45.000    37456296.138   150820908.238          45.000  
C04  38770934.721   201890322.054          40.000    38770975.141   156114602.081          44.000  
C06  37943466.637   197581625.823          43.000    37943501.053   152782776.578          43.000  
C08  35799847.269   186419192.513          47.000    35799880.005   144151268.863          49.000  
C09  38969035.195   202922019.362          38.000    38969075.811   156912335.441          42.000  
C13  35941805.238   187158414.064          48.000    35941846.266   144722917.296          49.000  
C14  22089246.648   115024473.226          48.000    22089281.975    88944340.447          51.000  
C16  37388977.239   194694251.093          45.000    37389017.837   150550103.178          45.000  
C24  24045976.281   125213769.963          45.000                                                  
C26  24725217.817   128750736.962          42.000                                                  
C27  24722749.748   128737872.567          41.000                                                  
C28  23175271.006   120679695.463          48.000                                                  
C33  22149485.501   115338176.379          50.000                                                  
R01  20014304.832   106987960.536          48.000    20014345.984    83213033.903          44.000  
R02  23163761.407   123606306.597          44.000    23163804.489    96138394.759          40.000  
R08  21056981.478   112759147.180          46.000    21057017.787    87701626.809          43.000  
R09  23464717.675   125300292.064          39.000    23464756.647    97455953.356          35.000  
R10  22055356.670   117567522.347          48.000                                                  
R17  22606515.175   120972050.235          44.000    22606557.364    94089535.814          41.000  
R23  21415802.931   114560028.561          45.000                                                  
R24  20004057.162   106970704.428          51.000    20004094.383    83199585.649          47.000  
> 2023 10 19 02 22 44.0000000  0 31                     
G05  22471392.465   118087880.215          44.000    22471432.688    92016624.283          40.000  
G13  21648997.629   113766214.055          46.000                                                  
G15  19895061.268   104549276.381          50.000    19895096.005    81467110.747          44.000  
G18  20783982.387   109220587.027          46.000    20784018.339    85107093.265          43.000  
G23  22065431.153   115954666.820          47.000    22065468.428    90354421.510          43.000  
G24  21445670.181   112697819.078          45.000    21445710.833    87816692.242          43.000  
G29  24811342.916   130384309.934          41.000    24811388.322   101598429.187          34.000  
C01  37782906.050   196745408.469          44.000    37782944.094   152136208.727          44.000  
C02  38196147.774   198897283.878          41.000    38196180.563   153800181.379          43.000  
C03  37456265.725   195044526.057          45.000    37456300.713   150820926.512          45.000  
C04  38770941.350   201890356.633          40.000    38770982.002   156114628.813          44.000  
C05  39816112.494   207332820.390          34.000    39816152.288   160322967.201          40.000  
C06  37943214.184   197580309.888          43.000    37943248.385   152781759.022          43.000  
C08  35799794.395   186418916.993          47.000    35799827.006   144151055.818          49.000  
C09  38968785.028   202920717.713          38.000    38968825.662   156911328.903          42.000  
C13  35941720.682   187157973.796          48.000    35941761.763   144722576.853          49.000  
C14  22089453.428   115025549.913          48.000    22089488.701    88945173.005          51.000  
C16  37388757.593   194693106.678          45.000    37388798.405   150549218.242          45.000  
C24  24045561.041   125211607.215          45.000                                                  
C26  24725263.723   128750976.036          43.000                                                  
C27  24722480.086   128736467.497          41.000                                                  
C28  23175497.210   120680873.073          48.000                                                  
C33  22149449.798   115337990.505          50.000                                                  
R01  20014173.798   106987259.358          48.000    20014214.593    83212488.538          44.000  
R02  23163259.895   123603631.166          44.000    23163303.370    96136313.868          40.000  
R08  21057389.910   112761332.002          46.000    21057425.809    87703326.112          43.000  
R09  23465045.928   125302045.122          39.000    23465083.650    97457316.831          35.000  
R10  22055156.965   117566458.520          48.000                                                  
R17  22605882.362   120968662.673          44.000    22605924.408    94086901.048          41.000  
R23  21416543.780   114563991.526          45.000                                                  
R24  20004112.556   106971002.009          51.000    20004150.009    83199817.098          47.000  
> 2023 10 19 02 22 45.0000000  0 31                     
G05  22471853.307   118090301.535          44.000    22471893.423    92018511.021          40.000  
G13  21649526.570   113768994.304          46.000                                                  
G15  19895179.543   104549898.317          50.000    19895214.352    81467595.370          44.000  
G18  20783830.571   109219789.271          46.000    20783866.470    85106471.634          43.000  
G23  22064975.940   115952274.719          47.000    22065013.268    90352557.537          43.000  
G24  21445126.623   112694962.733          45.000    21445167.436    87814466.510          43.000  
G29  24811956.253   130387532.727          41.000    24812001.318   101600940.461          34.000  
C01  37782911.501   196745436.172          44.000    37782949.436   152136230.142          44.000  
C02  38196145.236   198897270.304          41.000    38196177.919   153800170.888          43.000  
C03  37456270.425   195044550.250          45.000    37456305.430   150820945.226          45.000  
C04  38770948.158   201890391.767          40.000    38770988.775   156114655.991          44.000  
C05  39816105.632   207332784.354          34.000    39816145.158   160322939.318          40.000  
C06  37942961.462   197578994.624          43.000    37942995.735   152780741.974          43.000  
C08  35799741.627   186418642.086          47.000    35799774.238   144150843.245          49.000  
C09  38968534.540   202919416.703          37.000    38968576.139   156910322.907          42.000  
C13  35941636.108   187157534.135          48.000    35941677.242   144722236.877          49.000  
C14  22089660.262   115026627.321          47.000    22089695.571    88946006.127          51.000  
C16  37388537.929   194691962.933          45.000    37388578.670   150548333.825          45.000  
C24  24045146.015   125209445.368          45.000                                                  
C26  24725309.628   128751216.194          42.000                                                  
C27  24722210.550   128735063.500          41.000                                                  
C28  23175723.592   120682051.744          48.000                                                  
C33  22149414.025   115337805.399          50.000                                                  
R01  20014042.622   106986559.085          48.000    20014083.989    83211943.883          44.000  
R02  23162759.277   123600956.510          44.000    23162802.663    96134233.587          40.000  
R08  21057797.520   112763517.559          46.000    21057833.580    87705025.981          43.000  
R09  23465375.201   125303799.486          39.000    23465411.600    97458681.346          35.000  
R10  22054957.386   117565396.070          48.000                                                  
R17  22605249.012   120965276.204          44.000    22605291.344    94084267.137          41.000  
R23  21417284.702   114567955.516          45.000                                                  
R24  20004168.664   106971301.089          51.000    20004205.957    83200049.721          47.000  
> 2023 10 19 02 22 46.0000000  0 31                     
G05  22472314.024   118092722.378          45.000    22472353.943    92020397.390          40.000  
G13  21650055.672   113771774.096          46.000                                                  
G15  19895297.872   104550520.012          50.000    19895332.681    81468079.803          44.000  
G18  20783678.720   109218991.471          46.000    20783714.387    85105849.967          43.000  
G23  22064520.637   115949882.043          47.000    22064557.930    90350693.124          43.000  
G24  21444583.029   112692106.171          45.000    21444624.092    87812240.624          43.000  
G29  24812569.428   130390754.798          40.000    24812614.833   101603451.150          34.000  
C01  37782916.486   196745463.191          44.000    37782954.636   152136251.037          44.000  
C02  38196142.610   198897256.033          41.000    38196175.203   153800159.837          43.000  
C03  37456274.928   195044573.747          45.000    37456309.879   150820963.380          45.000  
C04  38770954.502   201890426.201          40.000    38770995.333   156114682.608          44.000  
C05  39816098.234   207332747.585          34.000    39816137.868   160322910.875          40.000  
C06  37942708.830   197577678.773          43.000    37942743.264   152779724.468          43.000  
C08  35799688.682   186418366.531          47.000    35799721.400   144150630.161          49.000  
C09  38968284.892   202918115.080          38.000    38968325.848   156909316.393          42.000  
C13  35941551.534   187157093.805          48.000    35941592.597   144721896.381          49.000  
C14  22089867.024   115027704.202          47.000    22089902.387    88946838.840          51.000  
C16  37388318.140   194690818.626          45.000    37388358.917   150547448.974          45.000  
C24  24044730.793   125207283.137          45.000                                                  
C26  24725355.713   128751456.211          42.000                                                  
C27  24721940.496   128733659.288          41.000                                                  
C28  23175949.939   120683230.232          48.000                                                  
C33  22149378.519   115337619.790          50.000                                                  
R01  20013911.588   106985858.414          48.000    20013952.776    83211398.908          44.000  
R02  23162258.461   123598281.329          45.000    23162301.347    96132152.897          40.000  
R08  21058205.309   112765702.522          46.000    21058241.476    87706725.403          43.000  
R09  23465704.027   125305553.825          40.000    23465739.765    97460045.825          35.000  
R10  22054757.914   117564333.708          48.000                                                  
R17  22604616.824   120961889.577          44.000    22604658.977    94081633.103          41.000  
R23  21418025.408   114571919.232          45.000                                                  
R24  20004224.416   106971600.316          51.000    20004261.834    83200282.448          47.000  
> 2023 10 19 02 22 47.0000000  0 31                     
G05  22472774.848   118095144.090          45.000    22472814.643    92022284.427          40.000  
G13  21650584.810   113774554.788          46.000                                                  
G15  19895416.397   104551142.808          50.000    19895451.438    81468565.100          44.000  
G18  20783527.137   109218194.944          46.000    20783562.715    85105229.295          43.000  
G23  22064065.406   115947490.151          47.000    22064102.609    90348829.302          43.000  
G24  21444039.757   112689250.735          45.000    21444080.677    87810015.609          43.000  
G29  24813182.407   130393977.465          40.000    24813227.830   101605962.307          34.000  
C01  37782921.811   196745490.835          44.000    37782959.997   152136272.413          44.000  
C02  38196140.090   198897242.393          41.000    38196172.558   153800149.282          43.000  
C03  37456279.627   195044597.879          45.000    37456314.400   150820982.047          45.000  
C04  38770961.381   201890461.292          40.000    38771001.998   156114709.736          44.000  
C05  39816091.462   207332711.471          34.000    39816131.042   160322882.953          40.000  
C06  37942456.216   197576363.647          43.000    37942490.471   152778707.542          43.000  
C08  35799635.825   186418091.651          47.000    35799668.615   144150417.606          49.000  
C09  38968034.922   202916814.148          38.000    38968075.807   156908310.438          42.000  
C13  35941467.210   187156654.130          48.000    35941508.380   144721556.399          49.000  
C14  22090074.055   115028781.895          47.000    22090109.132    88947672.176          51.000  
C16  37388098.726   194689675.069          45.000    37388139.503   150546564.699          45.000  
C24  24044315.785   125205121.875          45.000                                                  
C26  24725402.029   128751697.387          42.000                                                  
C27  24721671.495   128732256.221          41.000                                                  
C28  23176176.679   120684409.857          48.000                                                  
C33  22149342.906   115337435.022          50.000                                                  
R01  20013781.073   106985158.714          48.000    20013821.779    83210854.702          44.000  
R02  23161757.450   123595606.968          44.000    23161800.425    96130072.841          40.000  
R08  21058613.330   112767888.264          46.000    21058649.747    87708425.411          43.000  
R09  23466032.656   125307309.558          39.000    23466068.930    97461411.365          36.000  
R10  22054558.800   117563272.791          48.000                                                  
R17  22603983.939   120958504.172          44.000    22604025.931    94078999.998          41.000  
R23  21418766.758   114575884.023          45.000                                                  
R24  20004280.757   106971901.092          51.000    20004318.246    83200516.380          47.000  
> 2023 10 19 02 22 48.0000000  0 31                     
G05  22473235.708   118097566.014          45.000    22473275.467    92024171.645          40.000  
G13  21651114.001   113777335.709          46.000                                                  
G15  19895535.011   104551766.044          50.000    19895570.053    81469050.736          44.000  
G18  20783375.894   109217399.036          46.000    20783411.239    85104609.100          43.000  
G23  22063610.336   115945098.361          47.000    22063647.646    90346965.575          43.000  
G24  21443496.414   112686395.734          45.000    21443537.245    87807790.947          43.000  
G29  24813795.547   130397200.103          41.000    24813841.256   101608473.426          34.000  
C01  37782927.154   196745518.456          44.000    37782965.286   152136293.765          44.000  
C02  38196137.535   198897228.723          41.000    38196170.056   153800138.728          43.000  
C03  37456284.273   195044621.984          45.000    37456319.064   150821000.693          45.000  
C04  38770968.261   201890496.342          40.000    38771008.734   156114736.848          44.000  
C05  39816084.797   207332675.319          34.000    39816123.590   160322854.993          40.000  
C06  37942203.923   197575048.613          43.000    37942238.017   152777690.672          43.000  
C08  35799582.986   186417816.794          47.000    35799615.812   144150205.074          49.000  
C09  38967785.256   202915513.264          38.000    38967825.694   156907304.522          42.000  
C13  35941382.797   187156214.484          48.000    35941424.003   144721216.434          49.000  
C14  22090281.068   115029859.730          48.000    22090316.073    88948505.622          51.000  
C16  37387878.848   194688531.617          45.000    37387919.678   150545680.512          45.000  
C24  24043900.955   125202960.918          45.000                                                  
C26  24725448.631   128751939.064          43.000                                                  
C27  24721402.120   128730853.622          41.000                                                  
C28  23176403.258   120685589.979          48.000                                                  
C33  22149307.329   115337250.434          50.000                                                  
R01  20013650.004   106984459.301          48.000    20013691.674    83210310.713          44.000  
R02  23161256.492   123592932.720          44.000    23161299.002    96127992.872          40.000  
R08  21059021.119   112770074.103          46.000    21059058.448    87710125.498          43.000  
R09  23466361.696   125309065.979          40.000    23466397.470    97462777.484          36.000  
R10  22054360.132   117562212.670          48.000                                                  
R17  22603351.483   120955119.284          44.000    22603393.850    94076367.317          41.000  
R23  21419507.947   114579849.238          45.000                                                  
R24  20004336.776   106972202.806          51.000    20004374.373    83200751.044          47.000  
> 2023 10 19 02 22 49.0000000  0 31                     
G05  22473696.800   118099987.911          45.000    22473736.291    92026058.826          40.000  
G13  21651643.138   113780116.606          46.000                                                  
G15  19895653.626   104552389.455          50.000    19895688.792    81469536.510          44.000  
G18  20783224.526   109216603.507          46.000    20783259.585    85103989.207          43.000  
G23  22063155.176   115942706.439          47.000    22063192.433    90345101.744          43.000  
G24  21442953.213   112683540.956          45.000    21442994.187    87805566.426          43.000  
G29  24814408.991   130400422.430          40.000    24814454.699   101610984.332          34.000  
C01  37782932.479   196745545.815          44.000    37782970.647   152136314.914          44.000  
C02  38196134.712   198897214.815          41.000    38196167.394   153800127.967          43.000  
C03  37456288.687   195044645.819          46.000    37456323.746   150821019.113          45.000  
C04  38770974.819   201890531.117          40.000    38771015.292   156114763.717          44.000  
C05  39816077.846   207332638.922          34.000    39816116.657   160322826.822          40.000  
C06  37941950.969   197573733.407          43.000    37941985.492   152776673.665          43.000  
C08  35799530.183   186417541.722          47.000    35799563.009   144149992.362          49.000  
C09  38967535.144   202914212.236          38.000    38967575.867   156906298.468          42.000  
C13  35941298.383   187155774.593          48.000    35941339.429   144720876.280          49.000  
C14  22090488.027   115030937.464          48.000    22090523.139    88949338.994          51.000  
C16  37387659.398   194687388.019          45.000    37387699.925   150544796.209          45.000  
C24  24043485.804   125200800.016          45.000                                                  
C26  24725494.930   128752181.028          43.000                                                  
C27  24721132.583   128729451.256          41.000                                                  
C28  23176630.088   120686770.339          48.000                                                  
C33  22149271.984   115337065.784          50.000                                                  
R01  20013519.220   106983759.920          48.000    20013561.695    83209766.746          44.000  
R02  23160755.605   123590258.326          44.000    23160798.026    96125912.772          40.000  
R08  21059429.784   112772259.786          46.000    21059467.005    87711825.474          43.000  
R09  23466692.148   125310822.880          40.000    23466727.368    97464143.970          36.000  
R10  22054161.321   117561153.078          48.000                                                  
R17  22602719.098   120951734.659          44.000    22602761.537    94073734.840          41.000  
R23  21420249.244   114583814.590          45.000                                                  
R24  20004393.296   106972505.224          51.000    20004430.928    83200986.256          47.000  
> 2023 10 19 02 22 50.0000000  0 31                     
G05  22474157.571   118102410.090          45.000    22474197.491    92027946.229          40.000  
G13  21652172.508   113782897.821          46.000                                                  
G15  19895772.384   104553013.390          50.000    19895807.407    81470022.690          44.000  
G18  20783073.193   109215808.683          46.000    20783108.180    85103369.863          43.000  
G23  22062700.034   115940314.714          47.000    22062737.112    90343238.064          43.000  
G24  21442409.995   112680686.709          45.000    21442450.987    87803342.349          43.000  
G29  24815022.273   130403644.803          40.000    24815067.946   101613495.252          35.000  
C01  37782937.839   196745573.226          44.000    37782975.883   152136336.115          44.000  
C02  38196132.049   198897200.939          41.000    38196164.606   153800117.233          43.000  
C03  37456293.315   195044669.727          45.000    37456328.249   150821037.586          45.000  
C04  38770981.609   201890565.957          40.000    38771021.940   156114790.661          44.000  
C05  39816070.912   207332601.505          34.000    39816109.849   160322798.703          40.000  
C06  37941698.533   197572418.362          43.000    37941732.735   152775656.786          43.000  
C08  35799477.398   186417266.728          47.000    35799510.241   144149779.726          49.000  
C09  38967285.549   202912911.314          38.000    38967326.380   156905292.516          42.000  
C13  35941213.809   187155334.766          48.000    35941254.944   144720536.179          49.000  
C14  22090694.986   115032015.421          47.000    22090730.241    88950172.537          51.000  
C16  37387439.842   194686244.590          45.000    37387480.261   150543912.042          45.000  
C24  24043071.046   125198639.507          45.000                                                  
C26  24725541.533   128752423.586          43.000                                                  
C27  24720863.440   128728049.463          41.000                                                  
C28  23176856.774   120687951.267          48.000                                                  
C33  22149236.460   115336881.400          50.000                                                  
R01  20013388.598   106983060.924          48.000    20013430.858    83209223.083          44.000  
R02  23160254.236   123587584.092          44.000    23160297.336    96123832.840          40.000  
R08  21059838.448   112774445.672          46.000    21059874.758    87713525.610          43.000  
R09  23467021.188   125312580.548          40.000    23467056.944    97465511.028          36.000  
R10  22053962.779   117560094.341          48.000                                                  
R17  22602086.231   120948350.602          44.000    22602129.063    94071102.791          41.000  
R23  21420990.147   114587780.438          45.000                                                  
R24  20004449.834   106972808.601          51.000    20004487.680    83201222.221          47.000  
> 2023 10 19 02 22 51.0000000  0 31                     
G05  22474618.520   118104832.445          45.000    22474658.493    92029833.776          40.000  
G13  21652701.789   113785679.235          46.000                                                  
G15  19895891.213   104553637.735          50.000    19895926.164    81470509.199          44.000  
G18  20782922.182   109215014.457          46.000    20782957.062    85102750.981          43.000  
G23  22062244.964   115937923.068          47.000    22062282.024    90341374.449          43.000  
G24  21441866.830   112677832.902          45.000    21441907.894    87801118.599          43.000  
G29  24815635.610   130406867.112          40.000    24815680.693   101616006.142          35.000  
C01  37782943.021   196745600.577          44.000    37782981.172   152136357.275          44.000  
C02  38196129.315   198897187.011          41.000    38196161.980   153800106.465          43.000  
C03  37456298.032   195044693.577          45.000    37456332.787   150821056.031          45.000  
C04  38770988.435   201890600.752          40.000    38771028.730   156114817.568          44.000  
C05  39816064.015   207332566.120          34.000    39816103.095   160322770.543          40.000  
C06  37941445.901   197571103.363          43.000    37941480.281   152774639.959          43.000  
C08  35799424.417   186416991.737          47.000    35799457.528   144149567.076          49.000  
C09  38967035.258   202911610.421          38.000    38967076.517   156904286.592          42.000  
C13  35941129.593   187154894.919          48.000    35941170.477   144720196.063          49.000  
C14  22090902.052   115033093.498          47.000    22090937.129    88951006.174          51.000  
C16  37387220.195   194685101.249          45.000    37387260.901   150543027.933          45.000  
C24  24042656.145   125196479.274          45.000                                                  
C26  24725588.063   128752666.611          42.000                                                  
C27  24720594.654   128726648.109          41.000                                                  
C28  23177083.693   120689132.659          48.000                                                  
C33  22149201.062   115336697.160          50.000                                                  
R01  20013257.922   106982362.203          48.000    20013299.825    83208679.637          44.000  
R02  23159752.438   123584909.996          43.000    23159795.377    96121752.990          40.000  
R08  21060246.988   112776631.663          46.000    21060282.619    87715225.816          43.000  
R09  23467350.032   125314338.892          40.000    23467385.931    97466878.622          36.000  
R10  22053764.415   117559036.366          48.000                                                  
R17  22601453.953   120944967.035          44.000    22601496.249    94068471.142          41.000  
R23  21421731.336   114591746.672          45.000                                                  
R24  20004506.639   106973112.811          51.000    20004544.647    83201458.826          47.000  
> 2023 10 19 02 22 52.0000000  0 31                     
G05  22475079.613   118107254.885          45.000    22475118.942    92031721.392          40.000  
G13  21653231.033   113788460.740          46.000                                                  
G15  19896010.113   104554262.379          50.000    19896045.101    81470995.930          44.000  
G18  20782771.153   109214220.688          46.000    20782806.051    85102132.477          43.000  
G23  22061789.822   115935531.405          47.000    22061827.043    90339510.815          43.000  
G24  21441323.880   112674979.398          45.000    21441364.836    87798895.098          43.000  
G29  24816248.892   130410089.222          40.000    24816293.333   101618516.852          35.000  
C01  37782948.293   196745627.782          44.000    37782986.247   152136378.294          44.000  
C02  38196126.599   198897172.920          41.000    38196159.228   153800095.589          43.000  
C03  37456302.464   195044717.275          45.000    37456337.326   150821074.365          45.000  
C04  38770995.029   201890635.383          40.000    38771035.163   156114844.332          44.000  
C05  39816057.243   207332529.558          34.000    39816096.197   160322742.271          40.000  
C06  37941193.251   197569788.317          43.000    37941227.917   152773623.076          43.000  
C08  35799371.667   186416716.636          47.000    35799404.725   144149354.357          49.000  
C09  38966785.842   202910309.437          38.000    38966826.512   156903280.580          42.000  
C13  35941044.965   187154454.968          48.000    35941086.064   144719855.853          49.000  
C14  22091109.100   115034171.581          47.000    22091144.106    88951839.816          51.000  
C16  37387000.639   194683957.861          45.000    37387041.059   150542143.800          45.000  
C24  24042241.513   125194319.192          45.000                                                  
C26  24725634.755   128752910.035          42.000                                                  
C27  24720325.493   128725247.093          41.000                                                  
C28  23177310.540   120690314.386          48.000                                                  
C33  22149165.824   115336512.970          50.000                                                  
R01  20013127.085   106981663.640          48.000    20013169.291    83208136.297          44.000  
R02  23159250.479   123582235.965          43.000    23159294.330    96119673.189          40.000  
R08  21060655.545   112778817.660          46.000    21060690.694    87716926.038          43.000  
R09  23467679.822   125316097.818          39.000    23467716.525    97468246.687          35.000  
R10  22053565.836   117557979.025          48.000                                                  
R17  22600822.105   120941583.877          44.000    22600864.008    94065839.792          41.000  
R23  21422473.294   114595713.180          45.000                                                  
R24  20004563.427   106973417.783          51.000    20004601.667    83201696.024          47.000  
> 2023 10 19 02 22 53.0000000  0 31                     
G05  22475540.669   118109677.985          45.000    22475579.981    92033609.503          40.000  
G13  21653760.475   113791242.926          46.000                                                  
G15  19896129.139   104554887.906          50.000    19896164.144    81471483.359          44.000  
G18  20782620.445   109213428.023          46.000    20782654.968    85101514.809          43.000  
G23  22061334.787   115933140.293          47.000    22061371.919    90337647.611          43.000  
G24  21440780.894   112672126.806          45.000    21440821.725    87796672.294          43.000  
G29  24816861.979   130413311.739          40.000    24816906.580   101621027.886          35.000  
C01  37782953.600   196745655.397          44.000    37782991.518   152136399.641          44.000  
C02  38196124.062   198897159.277          41.000    38196156.708   153800085.014          43.000  
C03  37456307.181   195044741.383          45.000    37456342.079   150821092.998          45.000  
C04  38771001.676   201890670.428          40.000    38771041.810   156114871.430          44.000  
C05  39816050.577   207332492.423          34.000    39816089.353   160322714.322          40.000  
C06  37940940.797   197568473.772          43.000    37940975.410   152772606.586          43.000  
C08  35799319.079   186416442.014          47.000    35799351.940   144149141.996          49.000  
C09  38966536.355   202909008.968          37.000    38966576.578   156902274.975          42.000  
C13  35940960.516   187154015.449          48.000    35941001.597   144719515.997          49.000  
C14  22091316.184   115035250.256          47.000    22091351.279    88952673.919          51.000  
C16  37386781.154   194682815.010          45.000    37386821.752   150541260.082          45.000  
C24  24041826.808   125192159.872          45.000                                                  
C26  24725681.572   128753154.413          42.000                                                  
C27  24720056.529   128723847.003          40.000                                                  
C28  23177537.566   120691497.056          48.000                                                  
C33  22149130.568   115336329.406          50.000                                                  
R01  20012996.569   106980965.836          48.000    20013038.222    83207593.572          44.000  
R02  23158749.200   123579562.584          43.000    23158794.301    96117593.885          41.000  
R08  21061063.781   112781004.252          46.000    21061098.876    87718626.711          43.000  
R09  23468009.184   125317857.895          39.000    23468046.959    97469615.608          36.000  
R10  22053367.847   117556922.916          48.000                                                  
R17  22600189.845   120938201.714          44.000    22600231.909    94063209.221          41.000  
R23  21423214.984   114599680.525          45.000                                                  
R24  20004620.608   106973724.140          51.000    20004659.044    83201934.300          47.000  
> 2023 10 19 02 22 54.0000000  0 31                     
G05  22476001.815   118112101.176          45.000    22476040.984    92035497.714          40.000  
G13  21654289.969   113794025.243          46.000                                                  
G15  19896248.200   104555513.769          50.000    19896283.295    81471971.037          44.000  
G18  20782469.702   109212635.857          46.000    20782504.297    85100897.537          43.000  
G23  22060879.806   115930749.196          47.000    22060916.777    90335784.423          43.000  
G24  21440238.141   112669274.566          45.000    21440278.971    87794449.772          43.000  
G29  24817475.154   130416534.107          40.000    24817519.844   101623538.799          35.000  
C01  37782958.871   196745682.896          44.000    37782996.789   152136420.916          44.000  
C02  38196121.542   198897145.509          41.000    38196154.028   153800074.370          43.000  
C03  37456311.613   195044765.372          46.000    37456346.779   150821111.543          45.000  
C04  38771008.448   201890705.327          40.000    38771048.475   156114898.439          44.000  
C05  39816043.626   207332457.140          34.000    39816082.420   160322686.257          40.000  
C06  37940688.701   197567159.223          43.000    37940722.920   152771590.094          43.000  
C08  35799266.329   186416167.279          47.000    35799299.173   144148929.567          49.000  
C09  38966286.045   202907708.432          38.000    38966327.019   156901269.334          42.000  
C13  35940876.103   187153575.847          48.000    35940917.112   144719176.068          49.000  
C14  22091523.233   115036328.987          48.000    22091558.613    88953508.051          51.000  
C16  37386561.740   194681672.178          45.000    37386602.249   150540376.354          45.000  
C24  24041412.176   125190000.747          45.000                                                  
C26  24725728.585   128753399.175          42.000                                                  
C27  24719787.975   128722447.284          41.000                                                  
C28  23177764.592   120692680.114          48.000                                                  
C33  22149095.134   115336145.925          50.000                                                  
R01  20012866.322   106980268.228          48.000    20012907.421    83207050.983          44.000  
R02  23158247.438   123576889.209          44.000    23158294.111    96115514.598          41.000  
R08  21061472.213   112783190.880          46.000    21061507.647    87720327.429          43.000  
R09  23468338.135   125319618.589          39.000    23468376.071    97470985.051          36.000  
R10  22053169.662   117555867.488          48.000                                                  
R17  22599557.907   120934819.943          44.000    22599600.239    94060578.964          41.000  
R23  21423956.441   114603648.186          45.000                                                  
R24  20004677.789   106974031.300          51.000    20004716.404    83202173.200          47.000  
> 2023 10 19 02 22 55.0000000  0 31                     
G05  22476462.943   118114524.388          45.000    22476502.326    92037385.924          40.000  
G13  21654819.446   113796807.567          46.000                                                  
G15  19896367.315   104556139.857          50.000    19896402.302    81472458.898          44.000  
G18  20782318.995   109211844.102          46.000    20782353.643    85100280.584          43.000  
G23  22060424.968   115928357.993          47.000    22060461.581    90333921.143          43.000  
G24  21439695.244   112666422.567          45.000    21439736.360    87792227.444          43.000  
G29  24818088.330   130419756.198          40.000    24818132.788   101626049.541          35.000  
C01  37782964.000   196745710.150          44.000    37783001.971   152136441.984          44.000  
C02  38196118.612   198897131.455          41.000    38196151.383   153800063.492          43.000  
C03  37456316.241   195044789.120          45.000    37456351.407   150821129.920          45.000  
C04  38771015.078   201890740.017          40.000    38771055.069   156114925.250          44.000  
C05  39816036.693   207332420.618          34.000    39816075.272   160322658.032          40.000  
C06  37940436.230   197565844.547          43.000    37940470.521   152770573.494          43.000  
C08  35799213.491   186415892.390          47.000    35799246.280   144148716.992          49.000  
C09  38966036.987   202906407.777          38.000    38966077.246   156900263.574          42.000  
C13  35940791.797   187153136.037          48.000    35940832.609   144718835.977          49.000  
C14  22091730.513   115037407.637          47.000    22091765.697    88954342.136          51.000  
C16  37386342.112   194680529.220          45.000    37386382.996   150539492.555          45.000  
C24  24040997.507   125187841.724          45.000                                                  
C26  24725775.742   128753644.265          42.000                                                  
C27  24719519.279   128721047.852          41.000                                                  
C28  23177991.814   120693863.444          48.000                                                  
C33  22149059.718   115335962.413          50.000                                                  
R01  20012736.021   106979570.704          48.000    20012776.959    83206508.462          44.000  
R02  23157745.979   123574215.718          44.000    23157792.885    96113435.230          41.000  
R08  21061880.503   112785377.397          46.000    21061916.491    87722028.037          43.000  
R09  23468667.622   125321379.775          38.000    23468704.986    97472354.860          36.000  
R10  22052971.834   117554812.618          48.000                                                  
R17  22598926.452   120931438.461          44.000    22598968.747    94057948.925          41.000  
R23  21424698.506   114607616.030          45.000                                                  
R24  20004735.202   106974339.121          51.000    20004773.745    83202412.615          47.000  
> 2023 10 19 02 22 56.0000000  0 31                     
G05  22476924.053   118116947.386          44.000    22476963.490    92039273.969          40.000  
G13  21655348.852   113799589.718          46.000                                                  
G15  19896486.394   104556765.962          50.000    19896521.489    81472946.775          44.000  
G18  20782168.448   109211052.561          46.000    20782203.043    85099663.797          43.000  
G23  22059969.933   115925966.491          47.000    22060006.332    90332057.631          43.000  
G24  21439152.544   112663570.614          45.000    21439193.857    87790005.143          43.000  
G29  24818701.076   130422977.859          40.000    24818746.338   101628559.896          34.000  
C01  37782969.057   196745736.992          44.000    37783007.136   152136462.733          44.000  
C02  38196115.753   198897116.998          41.000    38196148.792   153800052.326          43.000  
C03  37456320.708   195044812.461          45.000    37456355.660   150821147.964          45.000  
C04  38771021.689   201890774.282          40.000    38771061.805   156114951.744          44.000  
C05  39816029.349   207332383.684          34.000    39816068.107   160322629.469          40.000  
C06  37940183.758   197564529.539          43.000    37940217.978   152769556.664          43.000  
C08  35799160.527   186415617.111          47.000    35799193.495   144148504.133          49.000  
C09  38965786.731   202905106.739          38.000    38965827.723   156899257.526          42.000  
C13  35940707.312   187152695.824          48.000    35940748.071   144718495.579          49.000  
C14  22091937.490   115038486.033          47.000    22091972.710    88955176.013          51.000  
C16  37386122.734   194679385.954          45.000    37386163.350   150538608.512          45.000  
C24  24040582.928   125185682.605          45.000                                                  
C26  24725823.005   128753889.466          42.000                                                  
C27  24719250.689   128719648.458          41.000                                                  
C28  23178219.305   120695046.843          48.000                                                  
C33  22149024.516   115335778.677          50.000                                                  
R01  20012605.541   106978873.060          48.000    20012646.319    83205965.857          44.000  
R02  23157245.093   123571541.923          44.000    23157291.355    96111355.602          41.000  
R08  21062289.096   112787563.594          46.000    21062325.102    87723728.413          43.000  
R09  23468997.413   125323141.250          38.000    23469033.419    97473724.876          35.000  
R10  22052774.328   117553758.098          48.000                                                  
R17  22598294.281   120928057.079          44.000    22598336.327    94055318.956          41.000  
R23  21425439.373   114611583.876          45.000                                                  
R24  20004792.901   106974647.425          51.000    20004831.480    83202652.410          47.000  
> 2023 10 19 02 22 57.0000000  0 31                     
G05  22477385.235   118119371.598          45.000    22477424.976    92041162.966          40.000  
G13  21655878.543   113802373.083          46.000                                                  
G15  19896605.902   104557393.500          50.000    19896641.015    81473435.760          44.000  
G18  20782018.152   109210262.628          46.000    20782052.729    85099048.258          43.000  
G23  22059515.095   115923576.089          47.000    22059551.584    90330194.976          43.000  
G24  21438610.147   112660720.123          45.000    21438651.461    87787783.982          43.000  
G29  24819314.466   130426200.432          41.000    24819359.603   101631070.976          35.000  
C01  37782974.328   196745764.782          44.000    37783012.443   152136484.224          44.000  
C02  38196113.340   198897103.517          41.000    38196146.130   153800041.897          43.000  
C03  37456325.372   195044836.744          46.000    37456360.324   150821166.732          45.000  
C04  38771028.229   201890809.486          40.000    38771068.739   156114978.957          44.000  
C05  39816022.344   207332347.697          34.000    39816060.745   160322601.640          40.000  
C06  37939931.519   197563215.590          43.000    37939965.435   152768540.629          43.000  
C08  35799107.849   186415342.836          47.000    35799140.942   144148292.039          49.000  
C09  38965537.816   202903806.718          38.000    38965577.878   156898252.296          42.000  
C13  35940622.881   187152256.599          48.000    35940663.783   144718155.942          49.000  
C14  22092145.057   115039565.549          48.000    22092180.044    88956010.762          51.000  
C16  37385903.266   194678243.772          45.000    37385943.829   150537725.309          45.000  
C24  24040168.527   125183524.756          45.000                                                  
C26  24725870.519   128754136.138          42.000                                                  
C27  24718982.261   128718250.535          41.000                                                  
C28  23178446.778   120696231.719          48.000                                                  
C33  22148989.385   115335596.086          50.000                                                  
R01  20012475.241   106978176.694          48.000    20012515.517    83205424.246          44.000  
R02  23156744.814   123568869.293          44.000    23156790.058    96109276.895          41.000  
R08  21062697.492   112789750.910          46.000    21062733.177    87725429.651          43.000  
R09  23469327.346   125324904.437          38.000    23469363.531    97475096.232          35.000  
R10  22052576.822   117552705.377          48.000                                                  
R17  22597662.361   120924677.226          44.000    22597704.085    94052690.186          41.000  
R23  21426181.920   114615553.118          45.000                                                  
R24  20004850.654   106974957.655          51.000    20004889.447    83202893.695          47.000  
> 2023 10 19 02 22 58.0000000  0 31                     
G05  22477846.345   118121795.432          44.000    22477885.996    92043051.654          40.000  
G13  21656408.110   113805156.102          46.000                                                  
G15  19896725.249   104558020.894          50.000    19896760.451    81473924.636          44.000  
G18  20781867.677   109209472.739          46.000    20781902.522    85098432.760          43.000  
G23  22059060.078   115921185.221          47.000    22059096.763    90328331.980          43.000  
G24  21438067.715   112657869.489          45.000    21438108.814    87785562.708          43.000  
G29  24819927.427   130429422.409          41.000    24819972.654   101633581.596          34.000  
C01  37782979.742   196745791.961          43.000    37783017.839   152136505.240          44.000  
C02  38196110.696   198897089.432          41.000    38196143.485   153800031.008          43.000  
C03  37456329.964   195044860.427          45.000    37456364.809   150821185.048          45.000  
C04  38771034.823   201890844.109          40.000    38771075.475   156115005.729          44.000  
C05  39816015.197   207332311.132          34.000    39816053.830   160322573.365          40.000  
C06  37939679.012   197561901.158          43.000    37939713.410   152767524.213          43.000  
C08  35799055.332   186415067.996          47.000    35799088.104   144148079.513          49.000  
C09  38965288.489   202902506.202          38.000    38965327.855   156897246.653          42.000  
C13  35940538.485   187151816.802          48.000    35940579.280   144717815.849          49.000  
C14  22092352.141   115040644.641          47.000    22092387.414    88956845.181          51.000  
C16  37385684.121   194677101.117          45.000    37385724.558   150536841.726          45.000  
C24  24039754.127   125181366.643          45.000                                                  
C26  24725917.658   128754382.775          42.000                                                  
C27  24718713.940   128716852.528          41.000                                                  
C28  23178674.268   120697416.496          48.000                                                  
C33  22148954.147   115335413.114          50.000                                                  
R01  20012345.047   106977480.054          48.000    20012385.359    83204882.406          44.000  
R02  23156244.266   123566196.257          44.000    23156289.725    96107197.855          41.000  
R08  21063106.032   112791937.729          46.000    21063141.680    87727130.501          43.000  
R09  23469657.387   125326667.726          39.000    23469693.840    97476467.669          35.000  
R10  22052379.351   117551652.860          48.000                                                  
R17  22597030.870   120921297.322          44.000    22597072.951    94050061.381          41.000  
R23  21426924.360   114619522.192          45.000                                                  
R24  20004908.245   106975268.210          51.000    20004947.522    83203135.238          47.000  
> 2023 10 19 02 22 59.0000000  0 31                     
G05  22478307.634   118124219.876          44.000    22478347.625    92044940.838          40.000  
G13  21656937.891   113807939.752          46.000                                                  
G15  19896844.775   104558649.124          50.000    19896879.941    81474414.164          44.000  
G18  20781717.684   109208683.857          46.000    20781752.207    85097818.051          43.000  
G23  22058605.169   115918794.861          47.000    22058641.854    90326469.366          43.000  
G24  21437525.480   112655019.702          45.000    21437566.257    87783342.095          43.000  
G29  24820540.513   130432644.721          41.000    24820585.347   101636092.477          34.000  
C01  37782984.889   196745819.526          44.000    37783022.950   152136526.560          44.000  
C02  38196107.908   198897075.734          41.000    38196140.858   153800020.402          43.000  
C03  37456334.610   195044884.486          45.000    37456369.383   150821203.656          45.000  
C04  38771041.649   201890879.078          40.000    38771082.176   156115032.772          44.000  
C05  39816008.246   207332273.895          34.000    39816047.182   160322545.343          40.000  
C06  37939426.737   197560587.168          43.000    37939461.135   152766508.173          43.000  
C08  35799002.404   186414793.555          47.000    35799035.265   144147867.307          49.000  
C09  38965038.520   202901206.132          38.000    38965078.117   156896241.356          42.000  
C13  35940454.018   187151377.408          48.000    35940494.724   144717476.092          49.000  
C14  22092559.368   115041724.270          47.000    22092594.677    88957680.021          51.000  
C16  37385464.635   194675958.947          45.000    37385504.805   150535958.533          45.000  
C24  24039339.780   125179209.231          45.000                                                  
C26  24725965.225   128754630.302          42.000                                                  
C27  24718445.475   128715455.372          41.000                                                  
C28  23178901.884   120698602.155          48.000                                                  
C33  22148919.124   115335230.713          50.000                                                  
R01  20012214.960   106976784.115          48.000    20012254.880    83204341.117          44.000  
R02  23155744.738   123563523.767          44.000    23155789.142    96105119.250          41.000  
R08  21063514.249   112794125.069          46.000    21063549.255    87728831.766          43.000  
R09  23469987.285   125328432.102          38.000    23470024.542    97477839.978          35.000  
R10  22052181.773   117550601.526          48.000                                                  
R17  22596399.575   120917918.342          44.000    22596441.871    94047433.300          41.000  
R23  21427666.407   114623492.061          45.000                                                  
R24  20004966.534   106975580.088          51.000    20005005.864    83203377.808          47.000  
> 2023 10 19 02 23 00.0000000  0 30                     
G05  22478769.030   118126644.414          44.000    22478809.289    92046830.079          40.000  
G13  21657467.582   113810723.496          46.000                                                  
G15  19896964.301   104559277.665          50.000    19896999.467    81474903.941          44.000  
G18  20781567.620   109207895.494          46.000    20781602.036    85097203.735          43.000  
G23  22058150.348   115916404.488          47.000    22058186.819    90324606.724          43.000  
G24  21436983.387   112652170.262          45.000    21437024.093    87781121.752          43.000  
G29  24821153.564   130435866.849          41.000    24821199.076   101638603.232          34.000  
C01  37782990.196   196745846.947          43.000    37783028.167   152136547.763          44.000  
C02  38196105.478   198897061.855          41.000    38196138.285   153800009.668          43.000  
C03  37456339.131   195044908.397          45.000    37456373.904   150821222.143          45.000  
C04  38771048.296   201890913.910          40.000    38771088.895   156115059.713          44.000  
C06  37939174.284   197559273.158          43.000    37939208.628   152765492.083          43.000  
C08  35798949.583   186414519.044          47.000    35798982.551   144147655.033          49.000  
C09  38964789.157   202899905.997          38.000    38964828.219   156895235.987          42.000  
C13  35940369.659   187150937.913          48.000    35940410.329   144717136.242          49.000  
C14  22092766.845   115042803.917          47.000    22092802.083    88958514.873          51.000  
C16  37385245.436   194674816.754          45.000    37385285.159   150535075.312          45.000  
C24  24038925.290   125177051.990          45.000                                                  
C26  24726013.007   128754878.210          42.000                                                  
C27  24718177.154   128714058.578          40.000                                                  
C28  23179129.839   120699788.188          48.000                                                  
C33  22148884.101   115335048.369          49.000                                                  
R01  20012085.017   106976088.346          48.000    20012124.400    83203799.964          44.000  
R02  23155243.994   123560851.242          44.000    23155288.399    96103040.663          41.000  
R08  21063922.038   112796312.429          46.000    21063957.312    87730533.037          43.000  
R09  23470318.398   125330197.040          39.000    23470354.100    97479212.712          35.000  
R10  22051984.821   117549550.855          48.000                                                  
R17  22595768.048   120914539.747          44.000    22595811.345    94044805.510          41.000  
R23  21428408.526   114627462.237          45.000                                                  
R24  20005025.055   106975892.701          51.000    20005064.367    83203620.958          47.000  
> 2023 10 19 02 23 01.0000000  0 31                     
G05  22479230.551   118129069.457          44.000    22479270.738    92048719.705          40.000  
G13  21657997.434   113813507.777          46.000                                                  
G15  19897083.970   104559906.952          50.000    19897119.315    81475394.292          45.000  
G18  20781417.664   109207108.052          46.000    20781452.151    85096590.142          43.000  
G23  22057695.492   115914014.527          47.000    22057732.053    90322744.423          43.000  
G24  21436441.205   112649321.584          45.000    21436481.983    87778902.003          43.000  
G29  24821766.990   130439089.243          40.000    24821811.430   101641114.189          34.000  
C01  37782995.592   196745874.643          44.000    37783033.492   152136569.171          44.000  
C02  38196102.744   198897048.293          41.000    38196135.766   153799999.167          43.000  
C03  37456343.830   195044932.595          45.000    37456378.514   150821240.860          45.000  
C04  38771055.051   201890949.030          40.000    38771095.631   156115086.861          44.000  
C05  39815994.094   207332202.454          34.000    39816033.227   160322489.329          40.000  
C06  37938921.937   197557959.528          43.000    37938956.550   152764476.304          43.000  
C08  35798896.941   186414244.852          47.000    35798930.016   144147443.004          49.000  
C09  38964539.581   202898606.241          38.000    38964578.428   156894230.915          42.000  
C13  35940285.263   187150498.715          48.000    35940326.309   144716796.634          49.000  
C14  22092974.465   115043884.015          47.000    22093009.453    88959350.068          51.000  
C16  37385025.987   194673674.960          45.000    37385065.870   150534192.418          45.000  
C24  24038511.372   125174895.362          45.000                                                  
C26  24726060.949   128755126.961          42.000                                                  
C27  24717908.994   128712662.580          41.000                                                  
C28  23179357.580   120700974.998          48.000                                                  
C33  22148849.095   115334866.509          50.000                                                  
R01  20011955.252   106975393.174          48.000    20011994.046    83203259.275          44.000  
R02  23154742.786   123558179.154          44.000    23154788.638    96100962.354          41.000  
R08  21064330.542   112798500.235          46.000    21064366.387    87732234.668          43.000  
R09  23470649.279   125331963.051          38.000    23470683.480    97480586.255          35.000  
R10  22051787.993   117548501.256          48.000                                                  
R17  22595137.307   120911161.985          44.000    22595179.210    94042178.358          41.000  
R23  21429150.823   114631433.131          45.000                                                  
R24  20005083.791   106976206.506          51.000    20005123.156    83203865.021          47.000  
> 2023 10 19 02 23 02.0000000  0 31                     
G05  22479692.036   118131494.922          44.000    22479732.420    92050609.682          40.000  
G13  21658527.251   113816292.498          46.000                                                  
G15  19897203.817   104560536.878          50.000    19897239.252    81475885.144          45.000  
G18  20781268.046   109206321.432          46.000    20781302.444    85095977.189          43.000  
G23  22057240.779   115911624.891          47.000    22057277.214    90320882.372          43.000  
G24  21435899.202   112646473.564          45.000    21435940.015    87776682.769          43.000  
G29  24822380.237   130442311.819          40.000    24822424.284   101643625.271          34.000  
C01  37783001.006   196745902.505          44.000    37783038.925   152136590.723          44.000  
C02  38196100.349   198897034.874          41.000    38196132.960   153799988.811          43.000  
C03  37456348.512   195044956.965          45.000    37456383.285   150821259.706          45.000  
C04  38771062.002   201890984.325          40.000    38771102.297   156115114.153          44.000  
C05  39815987.125   207332166.557          34.000    39816026.168   160322461.576          40.000  
C06  37938669.770   197556646.187          43.000    37938704.382   152763460.752          43.000  
C08  35798844.602   186413970.894          47.000    35798877.428   144147231.171          49.000  
C09  38964290.344   202897306.714          38.000    38964328.905   156893226.050          42.000  
C13  35940200.868   187150059.734          48.000    35940241.985   144716457.178          49.000  
C14  22093181.871   115044964.450          47.000    22093216.894    88960185.527          51.000  
C16  37384806.662   194672533.485          45.000    37384846.582   150533309.748          45.000  
C24  24038097.329   125172739.253          45.000                                                  
C26  24726108.910   128755376.413          42.000                                                  
C27  24717641.369   128711267.242          41.000                                                  
C28  23179585.571   120702162.509          48.000                                                  
C33  22148814.251   115334685.032          50.000                                                  
R01  20011825.326   106974698.510          48.000    20011864.263    83202718.973          44.000  
R02  23154242.596   123555507.400          44.000    23154287.358    96098884.316          41.000  
R08  21064739.117   112800688.370          46.000    21064775.284    87733936.542          43.000  
R09  23470979.284   125333729.953          38.000    23471014.968    97481960.510          35.000  
R10  22051590.934   117547452.637          48.000                                                  
R17  22594506.352   120907784.965          44.000    22594547.844    94039551.789          41.000  
R23  21429893.424   114635404.660          45.000                                                  
R24  20005142.741   106976521.445          51.000    20005182.070    83204109.974          47.000  
> 2023 10 19 02 23 03.0000000  0 31                     
G05  22480153.307   118133920.106          45.000    22480193.566    92052499.431          40.000  
G13  21659057.085   113819076.932          46.000                                                  
G15  19897323.719   104561166.743          50.000    19897359.171    81476375.936          45.000  
G18  20781118.286   109205534.926          46.000    20781152.863    85095364.321          43.000  
G23  22056785.977   115909234.859          47.000    22056822.394    90319020.007          43.000  
G24  21435357.235   112643625.500          45.000    21435398.048    87774463.503          43.000  
G29  24822993.430   130445533.822          40.000    24823037.477   101646135.923          34.000  
C01  37783006.117   196745929.847          44.000    37783044.196   152136611.865          44.000  
C02  38196097.687   198897020.945          41.000    38196130.191   153799978.041          43.000  
C03  37456353.247   195044980.815          46.000    37456387.842   150821278.150          45.000  
C04  38771068.506   201891019.090          40.000    38771108.980   156115141.040          44.000  
C05  39815980.406   207332130.146          34.000    39816019.164   160322433.398          40.000  
C06  37938417.370   197555332.421          43.000    37938452.089   152762444.864          43.000  
C08  35798791.657   186413696.450          47.000    35798824.679   144147018.944          49.000  
C09  38964039.963   202896006.734          38.000    38964079.507   156892220.822          42.000  
C13  35940116.526   187149620.242          48.000    35940157.607   144716117.335          49.000  
C14  22093389.313   115046044.538          47.000    22093424.300    88961020.720          51.000  
C16  37384587.177   194671391.603          45.000    37384627.114   150532426.770          45.000  
C24  24037683.143   125170582.933          45.000                                                  
C26  24726156.942   128755625.880          43.000                                                  
C27  24717373.477   128709871.881          41.000                                                  
C28  23179813.597   120703349.999          48.000                                                  
C33  22148779.299   115334503.247          50.000                                                  
R01  20011695.526   106974003.624          48.000    20011734.337    83202178.514          44.000  
R02  23153741.781   123552835.288          44.000    23153787.008    96096806.020          41.000  
R08  21065147.121   112802876.071          46.000    21065183.395    87735638.082          43.000  
R09  23471309.378   125335496.986          39.000    23471346.224    97483334.876          35.000  
R10  22051394.410   117546404.282          48.000                                                  
R17  22593875.147   120904407.924          44.000    22593916.514    94036925.197          41.000  
R23  21430635.631   114639376.086          45.000                                                  
R24  20005201.655   106976836.811          51.000    20005240.967    83204355.252          47.000  
> 2023 10 19 02 23 04.0000000  0 31                     
G05  22480615.114   118136345.709          44.000    22480655.195    92054389.521          40.000  
G13  21659587.045   113821861.829          46.000                                                  
G15  19897443.620   104561797.262          49.000    19897479.179    81476867.261          45.000  
G18  20780968.722   109204749.263          46.000    20781003.495    85094752.125          43.000  
G23  22056331.210   115906845.164          47.000    22056367.717    90317157.912          43.000  
G24  21434815.392   112640778.123          45.000    21434856.384    87772244.769          43.000  
G29  24823606.695   130448755.994          40.000    24823651.010   101648646.687          34.000  
C01  37783011.442   196745957.416          44.000    37783049.646   152136633.181          44.000  
C02  38196094.971   198897007.209          41.000    38196127.510   153799967.410          43.000  
C03  37456357.768   195045004.877          45.000    37456392.577   150821296.748          45.000  
C04  38771075.189   201891054.050          40.000    38771115.609   156115168.074          44.000  
C05  39815973.508   207332093.913          34.000    39816012.231   160322405.391          40.000  
C06  37938164.988   197554018.940          43.000    37938199.493   152761429.204          43.000  
C08  35798739.175   186413422.244          47.000    35798772.090   144146806.916          49.000  
C09  38963790.261   202894707.041          38.000    38963829.609   156891215.827          42.000  
C13  35940032.059   187149180.991          48.000    35940073.176   144715777.676          49.000  
C14  22093596.843   115047124.994          47.000    22093631.795    88961856.197          51.000  
C16  37384368.156   194670250.035          45.000    37384408.040   150531544.046          44.000  
C24  24037269.153   125168427.152          46.000                                                  
C26  24726204.616   128755876.090          42.000                                                  
C27  24717105.388   128708477.250          41.000                                                  
C28  23180041.802   120704538.205          48.000                                                  
C33  22148744.544   115334321.857          50.000                                                  
R01  20011566.065   106973309.267          48.000    20011603.625    83201638.458          44.000  
R02  23153242.092   123550163.579          44.000    23153286.550    96094728.027          41.000  
R08  21065555.946   112805064.117          46.000    21065591.845    87737339.888          43.000  
R09  23471639.955   125337265.022          38.000    23471677.266    97484710.017          35.000  
R10  22051197.798   117545356.915          48.000                                                  
R17  22593244.120   120901031.633          44.000    22593286.255    94034299.198          41.000  
R23  21431378.018   114643348.138          45.000                                                  
R24  20005260.783   106977153.299          51.000    20005299.791    83204601.405          47.000  
> 2023 10 19 02 23 05.0000000  0 31                     
G05  22481076.814   118138772.046          44.000    22481116.501    92056280.137          40.000  
G13  21660117.076   113824647.477          46.000                                                  
G15  19897563.717   104562428.738          50.000    19897599.348    81477359.315          45.000  
G18  20780819.552   109203964.753          46.000    20780854.396    85094140.807          43.000  
G23  22055876.623   115904456.104          47.000    22055913.022    90315296.308          43.000  
G24  21434273.854   112637931.702          45.000    21434314.827    87770026.779          43.000  
G29  24824219.960   130451978.666          40.000    24824264.078   101651157.829          34.000  
C01  37783016.731   196745985.450          44.000    37783054.935   152136654.851          44.000  
C02  38196092.344   198896993.988          41.000    38196124.919   153799957.184          43.000  
C03  37456362.539   195045029.418          45.000    37456397.295   150821315.722          45.000  
C04  38771081.997   201891089.516          40.000    38771122.310   156115195.501          44.000  
C05  39815966.843   207332058.194          34.000    39816005.297   160322377.784          41.000  
C06  37937912.856   197552706.072          43.000    37937947.272   152760414.014          43.000  
C08  35798686.479   186413148.579          47.000    35798719.609   144146595.296          49.000  
C09  38963540.881   202893407.945          38.000    38963579.961   156890211.274          42.000  
C13  35939948.003   187148742.261          48.000    35939988.781   144715438.428          49.000  
C14  22093804.285   115048206.118          47.000    22093839.415    88962692.186          51.000  
C16  37384148.886   194669109.084          45.000    37384188.787   150530661.784          44.000  
C24  24036855.199   125166272.185          45.000                                                  
C26  24726252.809   128756127.319          42.000                                                  
C27  24716837.746   128707083.581          41.000                                                  
C28  23180269.972   120705727.405          47.000                                                  
C33  22148709.806   115334141.165          50.000                                                  
R01  20011436.264   106972615.743          48.000    20011473.878    83201099.050          44.000  
R02  23152741.974   123547492.528          44.000    23152785.789    96092650.533          41.000  
R08  21065964.003   112807252.802          46.000    21066000.295    87739042.208          43.000  
R09  23471971.247   125339034.304          38.000    23472009.040    97486086.100          35.000  
R10  22051001.756   117544310.864          48.000                                                  
R17  22592613.522   120897656.391          44.000    22592655.693    94031674.009          41.000  
R23  21432120.851   114647321.137          45.000                                                  
R24  20005320.323   106977471.177          51.000    20005359.635    83204848.645          47.000  
> 2023 10 19 02 23 06.0000000  0 31                     
G05  22481538.353   118141197.626          45.000    22481578.040    92058170.213          40.000  
G13  21660647.035   113827432.383          46.000                                                  
G15  19897683.744   104563059.688          49.000    19897719.642    81477850.963          45.000  
G18  20780670.113   109203179.899          46.000    20780705.011    85093529.239          43.000  
G23  22055421.731   115902066.189          47.000    22055458.273    90313434.046          43.000  
G24  21433732.119   112635084.797          45.000    21433772.949    87767808.414          43.000  
G29  24824833.278   130455200.301          40.000    24824876.432   101653668.191          34.000  
C01  37783021.967   196746012.527          43.000    37783060.081   152136675.776          44.000  
C02  38196089.646   198896979.789          40.000    38196122.239   153799946.211          43.000  
C03  37456367.132   195045052.997          45.000    37456401.798   150821333.951          45.000  
C04  38771088.841   201891124.011          40.000    38771129.136   156115222.165          44.000  
C05  39815959.767   207332021.471          34.000    39815998.400   160322349.395          40.000  
C06  37937660.938   197551392.332          43.000    37937695.247   152759398.126          43.000  
C08  35798633.748   186412873.986          47.000    35798666.681   144146382.959          49.000  
C09  38963290.911   202892107.912          38.000    38963330.295   156889206.029          42.000  
C13  35939863.590   187148302.579          48.000    35939904.189   144715098.434          49.000  
C14  22094011.887   115049286.425          47.000    22094046.803    88963527.545          51.000  
C16  37383929.758   194667967.277          45.000    37383969.677   150529778.871          44.000  
C24  24036441.085   125164116.582          45.000                                                  
C26  24726300.841   128756378.117          42.000                                                  
C27  24716569.925   128705689.453          40.000                                                  
C28  23180498.267   120706916.143          47.000                                                  
C33  22148674.980   115333959.691          49.000                                                  
R01  20011306.535   106971921.529          48.000    20011343.935    83200559.106          44.000  
R02  23152242.499   123544820.637          44.000    23152284.598    96090572.387          41.000  
R08  21066372.918   112809440.632          46.000    21066408.817    87740743.842          43.000  
R09  23472302.128   125340803.287          38.000    23472340.493    97487461.951          36.000  
R10  22050805.572   117543264.617          48.000                                                  
R17  22591982.835   120894280.689          44.000    22592024.792    94029048.479          41.000  
R23  21432863.648   114651293.557          45.000                                                  
R24  20005379.630   106977788.979          51.000    20005418.978    83205095.820          47.000  
> 2023 10 19 02 23 07.0000000  0 31                     
G05  22482000.124   118143624.195          45.000    22482039.544    92060061.032          40.000  
G13  21661177.173   113830218.296          46.000                                                  
G15  19897804.074   104563691.844          50.000    19897839.794    81478343.548          45.000  
G18  20780520.978   109202396.425          46.000    20780555.733    85092918.749          43.000  
G23  22054967.071   115899677.161          47.000    22055003.739    90311572.452          43.000  
G24  21433190.634   112632239.118          45.000    21433231.429    87765591.009          43.000  
G29  24825446.364   130458422.674          40.000    24825489.375   101656179.120          33.000  
C01  37783027.256   196746040.322          44.000    37783065.335   152136697.282          44.000  
C02  38196087.073   198896966.314          41.000    38196119.773   153799935.783          43.000  
C03  37456371.724   195045077.312          45.000    37456406.497   150821352.741          45.000  
C04  38771095.488   201891159.227          40.000    38771135.783   156115249.385          44.000  
C05  39815952.334   207331985.511          34.000    39815991.574   160322321.581          40.000  
C06  37937408.949   197550079.415          43.000    37937443.169   152758382.902          43.000  
C08  35798581.249   186412600.167          47.000    35798614.110   144146171.225          49.000  
C09  38963041.388   202890808.717          38.000    38963081.111   156888201.384          42.000  
C13  35939779.177   187147863.669          48.000    35939819.883   144714759.045          49.000  
C14  22094219.364   115050367.645          47.000    22094254.477    88964363.607          51.000  
C16  37383710.648   194666826.349          45.000    37383750.621   150528896.629          44.000  
C24  24036027.310   125161962.030          45.000                                                  
C26  24726349.248   128756630.189          42.000                                                  
C27  24716302.515   128704296.557          41.000                                                  
C28  23180726.740   120708106.122          48.000                                                  
C33  22148640.278   115333779.174          50.000                                                  
R01  20011177.002   106971228.399          48.000    20011214.206    83200020.008          44.000  
R02  23151742.649   123542149.675          44.000    23151784.176    96088494.979          41.000  
R08  21066782.172   112811629.383          46.000    21066817.785    87742446.211          43.000  
R09  23472633.187   125342573.747          38.000    23472672.838    97488839.005          36.000  
R10  22050609.531   117542219.929          48.000                                                  
R17  22591352.219   120890906.328          43.000    22591393.926    94026423.970          41.000  
R23  21433606.392   114655267.163          45.000                                                  
R24  20005439.599   106978108.469          51.000    20005478.875    83205344.315          47.000  
> 2023 10 19 02 23 08.0000000  0 31                     
G05  22482462.128   118146050.881          45.000    22482501.762    92061951.965          40.000  
G13  21661707.419   113833004.332          46.000                                                  
G15  19897924.350   104564324.327          50.000    19897960.267    81478836.389          45.000  
G18  20780371.986   109201613.482          46.000    20780406.795    85092308.654          43.000  
G23  22054512.340   115897288.141          47.000    22054548.793    90309710.892          43.000  
G24  21432649.184   112629393.780          45.000    21432690.033    87763373.856          43.000  
G29  24826059.701   130461644.866          40.000    24826102.122   101658689.910          34.000  
C01  37783032.456   196746068.007          44.000    37783070.660   152136718.690          44.000  
C02  38196084.410   198896952.723          41.000    38196117.254   153799925.269          43.000  
C03  37456376.370   195045101.499          45.000    37456411.250   150821371.442          45.000  
C04  38771102.511   201891194.307          40.000    38771142.413   156115276.529          44.000  
C05  39815945.811   207331948.431          34.000    39815984.659   160322293.653          40.000  
C06  37937156.639   197548766.489          43.000    37937190.983   152757367.670          43.000  
C08  35798528.607   186412326.270          47.000    35798561.450   144145959.434          49.000  
C09  38962792.169   202889509.458          38.000    38962832.088   156887196.732          42.000  
C13  35939694.907   187147424.659          48.000    35939735.469   144714419.573          49.000  
C14  22094426.931   115051448.897          47.000    22094462.151    88965199.701          51.000  
C16  37383491.824   194665685.406          45.000    37383531.368   150528014.381          44.000  
C24  24035613.517   125159807.697          45.000                                                  
C26  24726397.941   128756882.671          42.000                                                  
C27  24716035.177   128702904.049          41.000                                                  
C28  23180955.463   120709296.494          47.000                                                  
C33  22148605.594   115333598.735          50.000                                                  
R01  20011047.077   106970535.472          48.000    20011084.369    83199481.064          44.000  
R02  23151242.191   123539478.720          45.000    23151283.093    96086417.588          41.000  
R08  21067190.712   112813818.163          46.000    21067226.307    87744148.575          43.000  
R09  23472964.800   125344344.788          38.000    23473005.899    97490216.463          36.000  
R10  22050413.830   117541175.932          48.000                                                  
R17  22590721.461   120887532.392          43.000    22590764.168    94023799.797          41.000  
R23  21434348.618   114659241.067          45.000                                                  
R24  20005499.710   106978428.801          51.000    20005538.933    83205593.459          47.000  
> 2023 10 19 02 23 09.0000000  0 31                     
G05  22482923.881   118148477.594          45.000    22482963.604    92063842.894          40.000  
G13  21662237.539   113835790.420          46.000                                                  
G15  19898044.805   104564957.076          50.000    19898080.597    81479329.438          45.000  
G18  20780223.048   109200830.991          46.000    20780258.035    85091698.916          43.000  
G23  22054057.681   115894899.057          47.000    22054094.152    90307849.270          43.000  
G24  21432107.717   112626548.727          45.000    21432148.459    87761156.935          43.000  
G29  24826672.894   130464866.861          40.000    24826714.797   101661200.544          33.000  
C01  37783037.799   196746095.491          44.000    37783076.038   152136739.931          44.000  
C02  38196081.569   198896938.935          41.000    38196114.520   153799914.602          43.000  
C03  37456380.962   195045125.500          45.000    37456415.968   150821390.003          45.000  
C04  38771108.890   201891229.211          40.000    38771149.131   156115303.504          44.000  
C05  39815938.574   207331913.125          34.000    39815977.511   160322265.592          40.000  
C06  37936904.346   197547453.482          43.000    37936938.690   152756352.367          43.000  
C08  35798476.125   186412052.241          47.000    35798508.933   144145747.532          49.000  
C09  38962542.932   202888210.105          38.000    38962582.458   156886191.984          42.000  
C13  35939610.690   187146985.501          48.000    35939651.270   144714079.993          49.000  
C14  22094634.408   115052530.131          47.000    22094669.771    88966035.781          51.000  
C16  37383272.499   194664544.397          45.000    37383312.204   150527132.080          44.000  
C24  24035199.849   125157653.480          45.000                                                  
C26  24726446.348   128757135.484          42.000                                                  
C27  24715768.088   128701511.837          41.000                                                  
C28  23181183.919   120710487.171          48.000                                                  
C33  22148571.053   115333418.293          50.000                                                  
R01  20010917.240   106969842.661          48.000    20010954.855    83198942.216          44.000  
R02  23150742.162   123536807.755          45.000    23150782.099    96084340.159          41.000  
R08  21067599.626   112816006.878          46.000    21067635.454    87745850.916          43.000  
R09  23473296.950   125346116.378          38.000    23473338.066    97491594.366          36.000  
R10  22050218.003   117540132.524          48.000                                                  
R17  22590090.434   120884158.751          43.000    22590134.177    94021175.873          41.000  
R23  21435091.272   114663215.193          45.000                                                  
R24  20005559.893   106978749.849          51.000    20005599.098    83205843.161          47.000  
> 2023 10 19 02 23 10.0000000  0 31                     
G05  22483385.814   118150904.608          45.000    22483425.197    92065734.072          40.000  
G13  21662767.856   113838576.835          46.000                                                  
G15  19898165.260   104565590.348          50.000    19898201.141    81479822.896          45.000  
G18  20780074.163   109200049.204          46.000    20780108.954    85091089.736          43.000  
G23  22053603.075   115892510.181          47.000    22053639.600    90305987.804          43.000  
G24  21431566.339   112623704.231          45.000    21431607.206    87758940.445          43.000  
G29  24827285.748   130468088.891          40.000    24827327.740   101663711.210          34.000  
C01  37783043.142   196746123.045          44.000    37783081.328   152136761.247          44.000  
C02  38196078.978   198896925.233          41.000    38196111.696   153799903.999          43.000  
C03  37456385.519   195045149.559          45.000    37456420.453   150821408.607          45.000  
C04  38771115.680   201891264.166          40.000    38771155.689   156115330.537          44.000  
C05  39815931.784   207331876.938          34.000    39815970.471   160322237.585          40.000  
C06  37936652.125   197546140.620          43.000    37936686.415   152755337.181          43.000  
C08  35798423.412   186411778.300          47.000    35798456.344   144145535.705          49.000  
C09  38962293.105   202886910.887          38.000    38962332.917   156885187.359          42.000  
C13  35939526.473   187146546.439          48.000    35939566.929   144713740.469          49.000  
C14  22094842.207   115053611.613          47.000    22094877.516    88966872.042          51.000  
C16  37383053.461   194663403.562          45.000    37383092.916   150526249.923          44.000  
C24  24034786.360   125155499.674          45.000                                                  
C26  24726495.006   128757388.914          42.000                                                  
C27  24715500.768   128700120.198          41.000                                                  
C28  23181412.678   120711678.433          48.000                                                  
C33  22148536.352   115333238.139          50.000                                                  
R01  20010787.583   106969150.247          48.000    20010825.805    83198403.679          44.000  
R02  23150241.365   123534137.053          45.000    23150281.677    96082262.926          41.000  
R08  21068008.112   112818195.797          46.000    21068044.797    87747553.404          43.000  
R09  23473628.438   125347888.737          38.000    23473670.198    97492972.875          36.000  
R10  22050022.891   117539090.010          48.000                                                  
R17  22589459.622   120880785.690          44.000    22589503.329    94018552.379          41.000  
R23  21435834.606   114667189.835          45.000                                                  
R24  20005620.487   106979071.871          52.000    20005659.120    83206093.628          47.000  
> 2023 10 19 02 23 11.0000000  0 31                     
G05  22483847.728   118153332.154          45.000    22483886.879    92067625.652          40.000  
G13  21663298.191   113841363.780          46.000                                                  
G15  19898285.965   104566224.376          50.000    19898321.686    81480316.947          45.000  
G18  20779925.493   109199268.359          46.000    20779960.409    85090481.286          43.000  
G23  22053148.469   115890121.737          47.000    22053185.137    90304126.681          43.000  
G24  21431025.248   112620860.507          45.000    21431066.168    87756724.552          43.000  
G29  24827898.906   130471311.185          41.000    24827941.488   101666222.088          33.000  
C01  37783048.592   196746150.867          44.000    37783086.778   152136782.772          44.000  
C02  38196076.530   198896911.773          41.000    38196109.123   153799893.611          43.000  
C03  37456390.129   195045173.906          45.000    37456425.117   150821427.431          45.000  
C04  38771122.524   201891299.417          40.000    38771162.515   156115357.802          44.000  
C05  39815924.690   207331840.960          34.000    39815963.591   160322209.787          40.000  
C06  37936400.243   197544828.168          43.000    37936434.712   152754322.312          43.000  
C08  35798371.038   186411504.711          47.000    35798403.631   144145324.146          49.000  
C09  38962043.582   202885612.046          38.000    38962083.269   156884183.004          42.000  
C13  35939442.024   187146107.680          48.000    35939482.641   144713401.199          49.000  
C14  22095049.881   115054693.536          47.000    22095085.297    88967708.658          51.000  
C16  37382834.512   194662263.148          45.000    37382874.253   150525368.068          44.000  
C24  24034372.763   125153346.480          45.000                                                  
C26  24726543.895   128757643.155          42.000                                                  
C27  24715233.233   128698729.349          40.000                                                  
C28  23181641.688   120712870.480          47.000                                                  
C33  22148501.918   115333058.462          50.000                                                  
R01  20010658.318   106968458.440          49.000    20010696.183    83197865.599          44.000  
R02  23149740.282   123531466.780          45.000    23149781.916    96080186.058          41.000  
R08  21068417.098   112820385.131          46.000    21068453.623    87749256.217          43.000  
R09  23473959.783   125349662.146          39.000    23474003.348    97494352.207          36.000  
R10  22049827.529   117538048.593          48.000                                                  
R17  22588829.060   120877413.484          44.000    22588873.268    94015929.563          41.000  
R23  21436577.439   114671165.200          45.000                                                  
R24  20005681.152   106979395.105          52.000    20005719.499    83206345.023          47.000  
> 2023 10 19 02 23 12.0000000  0 31                     
G05  22484309.714   118155759.721          45.000    22484349.061    92069517.263          40.000  
G13  21663828.615   113844150.778          46.000                                                  
G15  19898406.581   104566858.657          50.000    19898442.462    81480811.185          45.000  
G18  20779776.966   109198487.951          46.000    20779811.989    85089873.171          43.000  
G23  22052694.007   115887733.210          47.000    22052730.549    90302265.491          42.000  
G24  21430484.227   112618017.053          45.000    21430525.058    87754508.878          43.000  
G29  24828511.920   130474533.254          41.000    24828554.645   101668732.750          33.000  
C01  37783053.845   196746178.511          44.000    37783092.103   152136804.121          44.000  
C02  38196073.885   198896898.159          41.000    38196106.496   153799883.059          43.000  
C03  37456394.829   195045198.057          46.000    37456429.727   150821446.102          45.000  
C04  38771129.207   201891334.470          40.000    38771169.288   156115384.890          44.000  
C05  39815917.793   207331804.825          34.000    39815956.783   160322181.839          40.000  
C06  37936148.111   197543515.600          44.000    37936182.813   152753307.345          43.000  
C08  35798318.449   186411230.976          47.000    35798351.114   144145112.475          49.000  
C09  38961794.041   202884313.089          39.000    38961833.871   156883178.553          42.000  
C13  35939357.754   187145668.749          48.000    35939398.388   144713061.778          49.000  
C14  22095257.501   115055775.428          48.000    22095293.025    88968545.234          51.000  
C16  37382615.438   194661122.647          46.000    37382655.411   150524486.167          44.000  
C24  24033959.310   125151193.421          46.000                                                  
C26  24726592.999   128757897.724          43.000                                                  
C27  24714966.430   128697338.789          41.000                                                  
C28  23181870.572   120714062.843          48.000                                                  
C33  22148467.449   115332878.794          50.000                                                  
R01  20010529.054   106967766.745          48.000    20010566.168    83197327.622          44.000  
R02  23149240.342   123528796.462          44.000    23149281.745    96078109.165          41.000  
R08  21068825.977   112822574.411          46.000    21068862.823    87750958.995          43.000  
R09  23474292.612   125351436.077          38.000    23474335.783    97495731.935          36.000  
R10  22049632.400   117537007.754          48.000                                                  
R17  22588199.266   120874041.690          43.000    22588242.384    94013307.068          41.000  
R23  21437320.683   114675140.807          45.000                                                  
R24  20005742.121   106979719.080          52.000    20005780.325    83206597.022          47.000  
> 2023 10 19 02 23 13.0000000  0 31                     
G05  22484771.699   118158187.281          45.000    22484810.975    92071408.861          40.000  
G13  21664358.914   113846937.774          46.000                                                  
G15  19898527.304   104567493.147          50.000    19898563.257    81481305.597          45.000  
G18  20779628.510   109197707.937          46.000    20779663.658    85089265.370          43.000  
G23  22052239.383   115885344.564          47.000    22052276.175    90300404.206          42.000  
G24  21429943.242   112615173.828          45.000    21429983.966    87752293.389          43.000  
G29  24829124.899   130477755.029          41.000    24829167.785   101671243.251          33.000  
C01  37783059.206   196746205.885          44.000    37783097.446   152136825.306          44.000  
C02  38196071.098   198896884.271          41.000    38196103.870   153799872.333          43.000  
C03  37456399.439   195045221.956          46.000    37456434.373   150821464.594          45.000  
C04  38771135.962   201891369.258          40.000    38771176.042   156115411.799          44.000  
C05  39815911.038   207331768.431          34.000    39815949.796   160322153.690          40.000  
C06  37935895.997   197542202.884          43.000    37935930.877   152752292.280          43.000  
C08  35798265.861   186410957.041          47.000    35798298.454   144144900.644          49.000  
C09  38961544.607   202883013.929          38.000    38961584.741   156882173.984          42.000  
C13  35939273.555   187145229.609          48.000    35939314.100   144712722.218          49.000  
C14  22095465.496   115056857.238          48.000    22095500.734    88969381.759          51.000  
C16  37382396.578   194659982.022          45.000    37382436.372   150523604.169          44.000  
C24  24033545.821   125149040.428          45.000                                                  
C26  24726641.657   128758152.599          43.000                                                  
C27  24714699.753   128695948.482          41.000                                                  
C28  23182099.599   120715255.451          48.000                                                  
C33  22148433.194   115332699.070          50.000                                                  
R01  20010399.307   106967075.105          48.000    20010436.296    83196789.663          44.000  
R02  23148740.367   123526126.019          45.000    23148782.413    96076032.152          41.000  
R08  21069235.178   112824763.593          46.000    21069271.667    87752661.684          43.000  
R09  23474624.690   125353210.467          38.000    23474668.737    97497112.000          36.000  
R10  22049437.270   117535967.469          48.000                                                  
R17  22587569.222   120870670.204          43.000    22587612.001    94010684.792          41.000  
R23  21438063.945   114679116.608          45.000                                                  
R24  20005803.251   106980043.742          52.000    20005841.008    83206849.522          47.000  
> 2023 10 19 02 23 14.0000000  0 31                     
G05  22485233.846   118160615.593          45.000    22485273.050    92073301.052          40.000  
G13  21664889.373   113849725.555          46.000                                                  
G15  19898648.170   104568128.613          49.000    19898684.320    81481800.770          45.000  
G18  20779480.340   109196929.099          46.000    20779515.256    85088658.490          43.000  
G23  22051784.920   115882956.600          47.000    22051821.873    90298543.462          42.000  
G24  21429402.329   112612331.627          45.000    21429443.178    87750078.680          43.000  
G29  24829738.111   130480977.329          40.000    24829780.121   101673754.100          33.000  
C01  37783064.513   196746233.805          44.000    37783102.771   152136846.891          44.000  
C02  38196068.525   198896870.919          41.000    38196101.350   153799862.002          43.000  
C03  37456404.085   195045246.388          46.000    37456439.126   150821483.474          45.000  
C04  38771142.609   201891404.591          40.000    38771182.868   156115439.107          44.000  
C05  39815904.123   207331732.587          34.000    39815942.917   160322125.964          40.000  
C06  37935643.990   197540890.816          44.000    37935679.121   152751277.711          43.000  
C08  35798213.326   186410683.638          47.000    35798246.026   144144689.234          49.000  
C09  38961295.245   202881715.376          38.000    38961335.540   156881169.843          42.000  
C13  35939189.160   187144791.012          48.000    35939229.847   144712383.061          49.000  
C14  22095673.331   115057939.738          48.000    22095708.658    88970218.816          51.000  
C16  37382177.414   194658842.053          46.000    37382217.602   150522722.669          44.000  
C24  24033132.528   125146888.288          46.000                                                  
C26  24726690.743   128758408.538          43.000                                                  
C27  24714432.772   128694559.207          41.000                                                  
C28  23182328.877   120716449.103          48.000                                                  
C33  22148398.689   115332520.085          50.000                                                  
R01  20010270.239   106966384.333          48.000    20010307.174    83196252.403          44.000  
R02  23148240.213   123523456.291          45.000    23148282.312    96073955.692          41.000  
R08  21069644.557   112826953.459          46.000    21069680.545    87754364.900          43.000  
R09  23474958.090   125354986.162          38.000    23475000.779    97498493.076          36.000  
R10  22049242.122   117534928.512          48.000                                                  
R17  22586939.589   120867299.749          43.000    22586982.529    94008063.327          41.000  
R23  21438807.350   114683093.374          45.000                                                  
R24  20005864.345   106980369.864          52.000    20005902.103    83207103.166          47.000  
> 2023 10 19 02 23 15.0000000  0 31                     
G05  22485695.957   118163044.084          44.000    22485735.000    92075193.381          40.000  
G13  21665419.905   113852513.516          46.000                                                  
G15  19898769.162   104568764.476          49.000    19898805.257    81482296.236          45.000  
G18  20779332.152   109196150.836          46.000    20779367.140    85088052.038          43.000  
G23  22051330.511   115880568.684          47.000    22051367.428    90296682.755          42.000  
G24  21428861.559   112609489.836          45.000    21428902.497    87747864.309          43.000  
G29  24830351.161   130484199.518          40.000    24830393.243   101676264.897          33.000  
C01  37783069.874   196746261.638          44.000    37783108.113   152136868.416          44.000  
C02  38196065.773   198896857.494          41.000    38196098.741   153799851.620          43.000  
C03  37456408.695   195045270.737          45.000    37456443.951   150821502.308          45.000  
C04  38771149.417   201891439.842          40.000    38771189.515   156115466.374          44.000  
C05  39815897.172   207331696.615          34.000    39815936.126   160322098.159          40.000  
C06  37935392.126   197539578.768          43.000    37935426.971   152750263.141          43.000  
C08  35798160.916   186410410.255          47.000    35798193.384   144144477.830          49.000  
C09  38961046.008   202880416.853          38.000    38961086.303   156880165.751          42.000  
C13  35939104.925   187144352.383          48.000    35939145.595   144712043.890          49.000  
C14  22095881.148   115059022.339          47.000    22095916.600    88971055.954          51.000  
C16  37381958.626   194657702.122          45.000    37381998.831   150521841.211          44.000  
C24  24032719.235   125144736.409          45.000                                                  
C26  24726740.008   128758664.943          42.000                                                  
C27  24714166.184   128693170.365          41.000                                                  
C28  23182558.154   120717643.194          47.000                                                  
C33  22148364.345   115332341.231          50.000                                                  
R01  20010141.189   106965693.787          48.000    20010177.928    83195715.305          44.000  
R02  23147739.576   123520786.665          45.000    23147781.837    96071879.341          41.000  
R08  21070053.150   112829143.385          46.000    21070088.960    87756068.171          43.000  
R09  23475290.186   125356762.514          38.000    23475332.678    97499874.680          36.000  
R10  22049047.064   117533890.286          48.000                                                  
R17  22586310.046   120863929.757          43.000    22586353.003    94005442.220          41.000  
R23  21439550.737   114687070.502          45.000                                                  
R24  20005925.797   106980696.816          52.000    20005963.322    83207357.466          47.000  
> 2023 10 19 02 23 16.0000000  0 31                     
G05  22486157.960   118165472.502          45.000    22486197.111    92077085.649          40.000  
G13  21665950.525   113855301.421          46.000                                                  
G15  19898890.135   104569400.497          49.000    19898926.177    81482791.837          45.000  
G18  20779184.107   109195372.923          46.000    20779218.952    85087445.872          43.000  
G23  22050875.994   115878180.618          47.000    22050913.019    90294821.913          42.000  
G24  21428320.699   112606648.213          45.000    21428361.619    87745650.060          43.000  
G29  24830964.176   130487421.363          40.000    24831006.829   101678775.437          33.000  
C01  37783075.163   196746289.187          44.000    37783113.474   152136889.711          44.000  
C02  38196063.432   198896843.781          41.000    38196096.222   153799841.012          43.000  
C03  37456413.412   195045294.805          45.000    37456448.597   150821520.914          45.000  
C04  38771156.064   201891474.790          40.000    38771196.270   156115493.387          44.000  
C05  39815890.167   207331660.410          34.000    39815929.193   160322070.148          40.000  
C06  37935140.119   197538266.526          43.000    37935175.232   152749248.430          43.000  
C08  35798108.292   186410136.604          47.000    35798140.992   144144266.233          49.000  
C09  38960796.449   202879118.097          38.000    38960836.833   156879161.466          42.000  
C13  35939020.601   187143913.499          48.000    35939061.414   144711704.517          49.000  
C14  22096088.965   115060104.818          47.000    22096124.363    88971892.986          51.000  
C16  37381739.659   194656562.034          45.000    37381779.596   150520959.623          44.000  
C24  24032306.086   125142584.568          45.000                                                  
C26  24726789.434   128758921.583          42.000                                                  
C27  24713899.417   128691781.718          41.000                                                  
C28  23182787.449   120718837.489          47.000                                                  
C33  22148329.929   115332162.287          50.000                                                  
R01  20010011.692   106965003.248          48.000    20010048.752    83195178.226          44.000  
R02  23147239.119   123518116.958          45.000    23147281.075    96069802.889          41.000  
R08  21070461.797   112831333.120          46.000    21070498.035    87757771.300          43.000  
R09  23475623.246   125358539.281          38.000    23475665.900    97501256.596          36.000  
R10  22048852.238   117532852.561          47.000                                                  
R17  22585680.306   120860560.019          43.000    22585723.549    94002821.331          41.000  
R23  21440294.356   114691047.728          45.000                                                  
R24  20005987.141   106981024.365          52.000    20006024.577    83207612.222          47.000  
> 2023 10 19 02 23 17.0000000  0 31                     
G05  22486620.250   118167901.265          45.000    22486659.508    92078978.186          40.000  
G13  21666481.200   113858089.705          46.000                                                  
G15  19899011.162   104570037.099          49.000    19899047.311    81483287.886          45.000  
G18  20779036.277   109194595.760          46.000    20779070.871    85086840.302          43.000  
G23  22050421.531   115875792.805          47.000    22050458.574    90292961.288          42.000  
G24  21427780.126   112603807.201          45.000    21427820.956    87743436.284          43.000  
G29  24831577.387   130490643.343          40.000    24831619.969   101681286.028          33.000  
C01  37783080.470   196746316.857          44.000    37783118.853   152136911.101          44.000  
C02  38196060.859   198896830.161          41.000    38196093.541   153799830.485          43.000  
C03  37456417.880   195045318.989          45.000    37456453.314   150821539.603          45.000  
C04  38771162.533   201891509.858          40.000    38771203.203   156115520.513          44.000  
C05  39815883.109   207331624.284          34.000    39815922.153   160322042.220          40.000  
C06  37934888.256   197536954.502          43.000    37934923.190   152748233.894          43.000  
C08  35798055.774   186409863.117          47.000    35798088.439   144144054.762          49.000  
C09  38960546.908   202877819.535          38.000    38960587.417   156878157.349          42.000  
C13  35938936.259   187143474.760          48.000    35938977.197   144711365.256          49.000  
C14  22096296.799   115061187.573          47.000    22096332.359    88972730.248          51.000  
C16  37381520.835   194655422.179          45.000    37381560.611   150520078.210          44.000  
C24  24031893.025   125140433.180          45.000                                                  
C26  24726839.092   128759178.874          42.000                                                  
C27  24713632.543   128690393.707          41.000                                                  
C28  23183016.870   120720032.420          47.000                                                  
C33  22148295.799   115331983.662          50.000                                                  
R01  20009882.106   106964313.145          48.000    20009920.739    83194641.483          44.000  
R02  23146738.983   123515447.501          45.000    23146780.725    96067726.663          41.000  
R08  21070870.998   112833523.103          45.000    21070906.950    87759474.611          43.000  
R09  23475956.968   125360316.882          38.000    23475999.318    97502639.182          36.000  
R10  22048657.787   117531815.767          47.000                                                  
R17  22585050.333   120857190.992          43.000    22585093.505    94000200.979          41.000  
R23  21441038.280   114695025.509          45.000                                                  
R24  20006048.593   106981352.977          52.000    20006085.832    83207867.809          47.000  
> 2023 10 19 02 23 18.0000000  0 31                     
G05  22487082.271   118170329.973          45.000    22487121.601    92080870.679          40.000  
G13  21667011.820   113860877.947          46.000                                                  
G15  19899132.350   104570673.860          49.000    19899168.356    81483784.070          45.000  
G18  20778888.393   109193818.962          46.000    20778923.202    85086234.993          43.000  
G23  22049966.961   115873404.824          47.000    22050004.290    90291100.531          42.000  
G24  21427239.570   112600966.361          45.000    21427280.258    87741222.640          43.000  
G29  24832190.509   130493864.983          40.000    24832232.966   101683796.378          33.000  
C01  37783085.777   196746344.225          44.000    37783124.142   152136932.252          44.000  
C02  38196058.071   198896816.273          41.000    38196090.968   153799819.741          43.000  
C03  37456422.544   195045342.864          46.000    37456457.853   150821558.076          45.000  
C04  38771169.180   201891544.623          40.000    38771209.904   156115547.396          44.000  
C05  39815876.194   207331587.902          34.000    39815915.273   160322014.069          40.000  
C06  37934636.356   197535642.285          43.000    37934671.218   152747219.200          43.000  
C08  35798003.436   186409589.388          47.000    35798035.761   144143843.099          49.000  
C09  38960297.278   202876520.767          38.000    38960338.109   156877153.046          42.000  
C13  35938852.096   187143035.741          48.000    35938892.623   144711025.774          49.000  
C14  22096504.580   115062270.201          47.000    22096540.193    88973567.400          51.000  
C16  37381301.814   194654282.155          45.000    37381341.912   150519196.669          44.000  
C24  24031480.072   125138281.819          46.000                                                  
C26  24726888.517   128759436.404          43.000                                                  
C27  24713365.902   128689005.880          41.000                                                  
C28  23183246.254   120721227.558          48.000                                                  
C33  22148261.437   115331804.942          50.000                                                  
R01  20009752.949   106963623.062          48.000    20009791.528    83194104.736          44.000  
R02  23146239.293   123512777.893          45.000    23146280.571    96065650.294          41.000  
R08  21071279.716   112835712.882          45.000    21071315.650    87761177.768          43.000  
R09  23476290.529   125362094.880          39.000    23476333.254    97504022.090          36.000  
R10  22048463.551   117530779.468          47.000                                                  
R17  22584420.271   120853822.186          43.000    22584463.836    93997580.813          41.000  
R23  21441782.078   114699003.396          45.000                                                  
R24  20006110.241   106981682.231          52.000    20006147.659    83208123.891          47.000  
> 2023 10 19 02 23 19.0000000  0 31                     
G05  22487544.632   118172759.570          45.000    22487584.069    92082763.867          40.000  
G13  21667542.620   113863667.090          47.000                                                  
G15  19899253.805   104571311.738          50.000    19899289.579    81484281.109          45.000  
G18  20778740.812   109193043.458          46.000    20778775.657    85085630.707          43.000  
G23  22049512.749   115871017.647          47.000    22049549.880    90289240.389          42.000  
G24  21426699.336   112598126.672          45.000    21426739.738    87739009.898          43.000  
G29  24832803.738   130497087.239          40.000    24832846.499   101686307.245          33.000  
C01  37783091.013   196746372.236          44.000    37783129.538   152136953.928          44.000  
C02  38196055.570   198896803.025          41.000    38196088.395   153799809.495          43.000  
C03  37456427.297   195045367.403          46.000    37456462.481   150821577.054          45.000  
C04  38771175.828   201891580.060          40.000    38771216.712   156115574.796          44.000  
C05  39815869.028   207331552.116          34.000    39815908.429   160321986.410          40.000  
C06  37934384.206   197534330.825          43.000    37934419.355   152746205.098          43.000  
C08  35797950.812   186409316.363          47.000    35797983.280   144143631.965          49.000  
C09  38960048.184   202875222.738          38.000    38960088.371   156876149.317          42.000  
C13  35938767.987   187142597.415          48.000    35938808.710   144710686.833          49.000  
C14  22096712.719   115063353.660          47.000    22096748.367    88974405.197          51.000  
C16  37381083.169   194653142.905          45.000    37381123.231   150518315.726          44.000  
C24  24031067.137   125136131.443          46.000                                                  
C26  24726938.211   128759695.131          43.000                                                  
C27  24713100.136   128687619.240          41.000                                                  
C28  23183475.943   120722423.862          48.000                                                  
C33  22148227.271   115331627.091          50.000                                                  
R01  20009623.809   106962933.977          48.000    20009662.299    83193568.788          44.000  
R02  23145739.300   123510109.118          45.000    23145780.274    96063574.574          41.000  
R08  21071688.523   112837903.484          45.000    21071725.048    87762881.558          43.000  
R09  23476623.822   125363874.327          38.000    23476666.780    97505406.065          36.000  
R10  22048269.601   117529744.662          47.000                                                  
R17  22583790.656   120850454.594          43.000    22583835.097    93994961.575          41.000  
R23  21442526.215   114702982.378          45.000                                                  
R24  20006172.211   106982013.107          52.000    20006209.325    83208381.229          47.000  
> 2023 10 19 02 23 20.0000000  0 31                     
G05  22488007.029   118175188.824          45.000    22488046.287    92084656.787          40.000  
G13  21668073.312   113866455.893          46.000                                                  
G15  19899375.100   104571949.491          49.000    19899410.963    81484778.061          45.000  
G18  20778593.053   109192268.027          46.000    20778628.220    85085026.466          43.000  
G23  22049058.339   115868630.016          47.000    22049095.739    90287379.894          42.000  
G24  21426158.941   112595286.880          45.000    21426199.414    87736797.078          43.000  
G29  24833417.039   130500308.894          40.000    24833459.227   101688817.566          33.000  
C01  37783096.320   196746399.667          44.000    37783134.577   152136975.133          44.000  
C02  38196052.907   198896789.187          41.000    38196085.697   153799798.792          43.000  
C03  37456432.032   195045391.357          46.000    37456467.020   150821595.570          45.000  
C04  38771182.654   201891614.907          40.000    38771223.502   156115601.732          44.000  
C05  39815861.952   207331515.807          34.000    39815901.568   160321958.325          40.000  
C06  37934132.360   197533018.894          43.000    37934167.491   152745190.630          43.000  
C08  35797898.205   186409042.770          47.000    35797930.763   144143420.409          49.000  
C09  38959798.643   202873924.188          38.000    38959839.224   156875145.204          42.000  
C13  35938683.591   187142158.539          48.000    35938724.458   144710347.464          49.000  
C14  22096920.750   115064436.694          47.000    22096956.470    88975242.668          51.000  
C16  37380864.059   194652003.195          45.000    37380904.121   150517434.430          44.000  
C24  24030654.166   125133980.809          46.000                                                  
C26  24726987.887   128759953.798          43.000                                                  
C27  24712833.762   128686232.512          41.000                                                  
C28  23183705.685   120723620.090          48.000                                                  
C33  22148193.177   115331448.851          50.000                                                  
R01  20009495.063   106962244.632          48.000    20009533.839    83193032.638          44.000  
R02  23145239.218   123507439.900          45.000    23145278.547    96061498.529          41.000  
R08  21072097.081   112840093.643          45.000    21072134.230    87764585.027          43.000  
R09  23476956.830   125365653.875          38.000    23476999.554    97506790.158          36.000  
R10  22048075.918   117528710.060          47.000                                                  
R17  22583161.810   120847086.920          42.000    22583205.446    93992342.282          41.000  
R23  21443270.246   114706961.193          45.000                                                  
R24  20006234.127   106982344.308          52.000    20006271.616    83208638.840          47.000  
> 2023 10 19 02 23 21.0000000  0 31                     
G05  22488469.265   118177618.433          45.000    22488508.469    92086549.973          40.000  
G13  21668604.218   113869245.081          46.000                                                  
G15  19899496.538   104572587.833          49.000    19899532.383    81485275.469          45.000  
G18  20778445.723   109191493.362          46.000    20778480.854    85084422.835          43.000  
G23  22048604.037   115866242.645          47.000    22048641.366    90285519.608          42.000  
G24  21425618.724   112592447.704          45.000    21425659.198    87734584.726          43.000  
G29  24834030.107   130503530.640          40.000    24834072.599   101691328.045          33.000  
C01  37783101.591   196746427.239          44.000    37783139.920   152136996.455          44.000  
C02  38196050.245   198896775.483          41.000    38196083.284   153799788.207          43.000  
C03  37456436.714   195045415.445          46.000    37456471.594   150821614.189          45.000  
C04  38771189.569   201891649.870          40.000    38771230.364   156115628.772          44.000  
C05  39815855.412   207331479.585          34.000    39815894.777   160321930.320          40.000  
C06  37933880.353   197531707.189          43.000    37933915.627   152744176.350          43.000  
C08  35797845.831   186408769.367          47.000    35797878.389   144143209.001          49.000  
C09  38959549.013   202872625.854          38.000    38959590.004   156874141.241          42.000  
C13  35938599.410   187141719.824          48.000    35938640.062   144710008.223          49.000  
C14  22097128.602   115065520.040          47.000    22097164.698    88976080.377          51.000  
C16  37380645.610   194650863.709          45.000    37380685.119   150516553.328          44.000  
C24  24030241.284   125131830.648          46.000                                                  
C26  24727037.795   128760213.151          43.000                                                  
C27  24712567.657   128684846.392          41.000                                                  
C28  23183935.641   120724816.958          47.000                                                  
C33  22148159.155   115331270.947          50.000                                                  
R01  20009366.245   106961555.764          48.000    20009405.289    83192496.861          44.000  
R02  23144739.564   123504770.995          45.000    23144778.161    96059422.702          41.000  
R08  21072506.442   112842284.108          46.000    21072543.360    87766288.712          43.000  
R09  23477290.301   125367434.235          38.000    23477333.080    97508174.891          36.000  
R10  22047881.897   117527676.409          47.000                                                  
R17  22582532.588   120843719.931          43.000    22582576.135    93989723.511          41.000  
R23  21444014.294   114710940.582          45.000                                                  
R24  20006296.436   106982676.527          52.000    20006333.657    83208897.225          47.000  
> 2023 10 19 02 23 22.0000000  0 31                     
G05  22488931.483   118180048.403          45.000    22488971.206    92088443.460          40.000  
G13  21669135.125   113872034.647          46.000                                                  
G15  19899618.155   104573226.757          49.000    19899653.875    81485773.326          45.000  
G18  20778298.483   109190719.463          46.000    20778333.649    85083819.797          44.000  
G23  22048149.843   115863855.536          47.000    22048186.992    90283659.525          42.000  
G24  21425078.598   112589609.115          45.000    21425119.089    87732372.848          43.000  
G29  24834643.390   130506752.488          40.000    24834685.400   101693838.574          33.000  
C01  37783106.952   196746454.915          44.000    37783145.156   152137017.845          44.000  
C02  38196047.689   198896761.889          41.000    38196080.604   153799777.688          43.000  
C03  37456441.324   195045439.647          45.000    37456476.115   150821632.901          45.000  
C04  38771196.377   201891684.949          40.000    38771237.154   156115655.903          44.000  
C05  39815848.461   207331443.482          34.000    39815887.880   160321902.428          40.000  
C06  37933628.632   197530395.726          43.000    37933664.299   152743162.239          43.000  
C08  35797793.064   186408496.121          47.000    35797825.943   144142997.700          49.000  
C09  38959299.794   202871327.711          38.000    38959340.428   156873137.446          42.000  
C13  35938515.051   187141281.253          48.000    35938555.882   144709669.086          49.000  
C14  22097336.598   115066603.673          47.000    22097372.747    88976918.302          51.000  
C16  37380426.536   194649724.497          45.000    37380466.652   150515672.414          44.000  
C24  24029828.438   125129680.927          46.000                                                  
C26  24727087.471   128760473.152          43.000                                                  
C27  24712301.551   128683460.914          41.000                                                  
C28  23184165.490   120726014.456          47.000                                                  
C33  22148125.078   115331093.370          50.000                                                  
R01  20009237.785   106960867.359          48.000    20009276.471    83191961.426          44.000  
R02  23144239.446   123502102.328          45.000    23144277.525    96057347.084          41.000  
R08  21072915.661   112844474.883          45.000    21072952.435    87767992.646          43.000  
R09  23477624.148   125369215.531          38.000    23477667.087    97509560.325          36.000  
R10  22047688.018   117526643.682          47.000                                                  
R17  22581903.152   120840353.615          42.000    22581946.627    93987105.258          41.000  
R23  21444758.253   114714920.514          45.000                                                  
R24  20006359.121   106983009.761          52.000    20006395.913    83209156.408          47.000  
> 2023 10 19 02 23 23.0000000  0 31                     
G05  22489393.826   118182478.411          45.000    22489433.370    92090336.962          40.000  
G13  21669666.014   113874824.274          46.000                                                  
G15  19899739.736   104573865.938          49.000    19899775.599    81486271.388          44.000  
G18  20778151.242   109189946.027          46.000    20778186.533    85083217.111          43.000  
G23  22047695.398   115861468.374          46.000    22047732.815    90281799.397          42.000  
G24  21424538.435   112586770.826          45.000    21424579.087    87730161.191          43.000  
G29  24835256.476   130509974.119          40.000    24835298.504   101696348.915          34.000  
C01  37783112.188   196746482.411          44.000    37783150.374   152137039.111          44.000  
C02  38196045.045   198896748.106          41.000    38196077.817   153799767.026          43.000  
C03  37456445.827   195045463.668          46.000    37456480.832   150821651.478          45.000  
C04  38771203.078   201891719.860          40.000    38771243.819   156115682.886          44.000  
C05  39815841.438   207331407.242          34.000    39815880.822   160321874.355          40.000  
C06  37933376.483   197529084.149          43.000    37933412.346   152742148.038          43.000  
C08  35797740.601   186408222.729          47.000    35797773.283   144142786.301          49.000  
C09  38959050.985   202870029.464          38.000    38959091.226   156872133.550          42.000  
C13  35938430.923   187140842.537          49.000    35938471.629   144709329.843          49.000  
C14  22097544.665   115067687.274          47.000    22097580.814    88977756.209          51.000  
C16  37380207.837   194648585.209          46.000    37380247.989   150514791.460          44.000  
C24  24029415.807   125127531.342          46.000                                                  
C26  24727137.612   128760733.505          43.000                                                  
C27  24712035.785   128682075.742          41.000                                                  
C28  23184395.643   120727212.261          48.000                                                  
C33  22148090.966   115330915.801          50.000                                                  
R01  20009108.788   106960179.077          48.000    20009147.618    83191426.088          44.000  
R02  23143739.328   123499433.640          44.000    23143777.728    96055271.447          40.000  
R08  21073324.933   112846665.631          45.000    21073361.225    87769696.557          43.000  
R09  23477957.137   125370997.265          38.000    23478001.059    97510946.123          36.000  
R10  22047494.746   117525611.552          47.000                                                  
R17  22581273.679   120836987.678          43.000    22581317.423    93984487.311          41.000  
R23  21445502.230   114718900.695          45.000                                                  
R24  20006421.573   106983343.754          52.000    20006458.455    83209416.173          47.000  
> 2023 10 19 02 23 24.0000000  0 31                     
G05  22489856.312   118184908.571          45.000    22489895.874    92092230.584          40.000  
G13  21670196.813   113877614.057          46.000                                                  
G15  19899861.513   104574505.495          49.000    19899897.179    81486769.742          44.000  
G18  20778004.180   109189173.143          46.000    20778039.650    85082614.870          43.000  
G23  22047241.024   115859081.256          46.000    22047278.674    90279939.312          42.000  
G24  21423998.504   112583932.933          45.000    21424039.031    87727949.846          43.000  
G29  24835869.705   130513195.621          40.000    24835911.661   101698859.169          34.000  
C01  37783117.566   196746509.823          44.000    37783155.466   152137060.305          44.000  
C02  38196042.347   198896734.254          41.000    38196075.136   153799756.303          43.000  
C03  37456450.348   195045487.602          45.000    37456485.478   150821669.987          45.000  
C04  38771209.886   201891754.672          40.000    38771250.431   156115709.812          44.000  
C05  39815834.470   207331369.846          34.000    39815873.656   160321846.227          40.000  
C06  37933124.815   197527772.605          43.000    37933160.571   152741133.855          43.000  
C08  35797688.280   186407949.335          47.000    35797720.623   144142574.895          49.000  
C09  38958801.498   202868731.208          38.000    38958841.703   156871129.665          42.000  
C13  35938346.796   187140403.740          48.000    35938387.305   144708990.542          49.000  
C14  22097752.803   115068770.957          47.000    22097789.077    88978594.182          51.000  
C16  37379988.816   194647445.955          45.000    37380029.165   150513910.510          44.000  
C24  24029003.050   125125382.005          45.000                                                  
C26  24727188.038   128760994.286          43.000                                                  
C27  24711770.162   128680690.968          41.000                                                  
C28  23184625.707   120728410.492          48.000                                                  
C33  22148056.926   115330738.348          50.000                                                  
R01  20008980.024   106959491.027          48.000    20009018.871    83190890.938          44.000  
R02  23143238.602   123496765.038          44.000    23143277.253    96053195.861          40.000  
R08  21073734.062   112848856.434          45.000    21073770.193    87771400.503          43.000  
R09  23478290.037   125372779.667          38.000    23478333.834    97512332.422          36.000  
R10  22047301.511   117524580.126          47.000                                                  
R17  22580644.368   120833622.180          43.000    22580688.344    93981869.711          41.000  
R23  21446246.421   114722881.225          45.000                                                  
R24  20006484.275   106983678.610          52.000    20006521.211    83209676.617          47.000  
> 2023 10 19 02 23 25.0000000  0 31                     
G05  22490318.744   118187339.046          45.000    22490358.342    92094124.458          40.000  
G13  21670727.648   113880404.166          46.000                                                  
G15  19899983.415   104575145.589          49.000    19900018.868    81487268.514          44.000  
G18  20777857.118   109188400.984          46.000    20777892.731    85082013.181          43.000  
G23  22046786.704   115856694.352          46.000    22046824.336    90278079.370          42.000  
G24  21423458.520   112581095.597          45.000    21423499.190    87725738.942          43.000  
G29  24836482.738   130516417.179          40.000    24836525.534   101701369.467          33.000  
C01  37783122.784   196746537.307          44.000    37783160.648   152137081.560          44.000  
C02  38196039.398   198896720.477          41.000    38196072.652   153799745.659          43.000  
C03  37456454.976   195045511.611          45.000    37456490.142   150821688.558          45.000  
C04  38771216.444   201891789.548          40.000    38771257.203   156115736.789          44.000  
C05  39815827.572   207331334.536          34.000    39815866.259   160321818.168          40.000  
C06  37932872.826   197526461.209          43.000    37932908.493   152740119.816          43.000  
C08  35797635.745   186407676.060          47.000    35797668.213   144142363.577          49.000  
C09  38958552.529   202867433.097          38.000    38958592.645   156870125.876          42.000  
C13  35938262.490   187139965.062          48.000    35938302.963   144708651.326          49.000  
C14  22097961.031   115069854.882          47.000    22097997.162    88979432.345          51.000  
C16  37379770.296   194646306.917          45.000    37379810.341   150513029.722          44.000  
C24  24028590.401   125123233.077          46.000                                                  
C26  24727238.393   128761255.698          43.000                                                  
C27  24711504.396   128679306.810          41.000                                                  
C28  23184856.092   120729609.317          48.000                                                  
C33  22148022.867   115330561.181          50.000                                                  
R01  20008851.117   106958803.362          48.000    20008890.107    83190356.088          44.000  
R02  23142738.716   123494096.705          44.000    23142776.437    96051120.505          40.000  
R08  21074143.280   112851047.439          46.000    21074178.875    87773104.611          43.000  
R09  23478623.884   125374562.862          38.000    23478668.217    97513719.365          36.000  
R10  22047108.168   117523549.589          47.000                                                  
R17  22580014.485   120830257.274          43.000    22580059.426    93979252.571          41.000  
R23  21446990.487   114726862.247          45.000                                                  
R24  20006547.246   106984014.494          52.000    20006584.002    83209937.855          47.000  
> 2023 10 19 02 23 26.0000000  0 31                     
G05  22490781.552   118189769.805          45.000    22490820.989    92096018.551          40.000  
G13  21671258.680   113883194.583          46.000                                                  
G15  19900105.211   104575786.191          49.000    19900141.002    81487767.684          44.000  
G18  20777710.377   109187629.524          46.000    20777745.955    85081412.041          43.000  
G23  22046332.545   115854307.633          46.000    22046369.999    90276219.606          42.000  
G24  21422918.876   112578258.795          45.000    21422959.349    87723528.452          43.000  
G29  24837095.985   130519638.763          40.000    24837138.995   101703879.779          34.000  
C01  37783128.091   196746564.849          44.000    37783165.991   152137102.848          44.000  
C02  38196036.682   198896706.755          41.000    38196069.901   153799735.057          43.000  
C03  37456459.693   195045535.673          45.000    37456494.734   150821707.164          45.000  
C04  38771223.091   201891824.488          40.000    38771263.904   156115763.796          44.000  
C05  39815821.121   207331298.294          34.000    39815859.397   160321790.143          40.000  
C06  37932621.088   197525149.993          43.000    37932656.629   152739105.896          43.000  
C08  35797583.371   186407402.851          47.000    35797615.875   144142152.324          49.000  
C09  38958303.006   202866135.117          38.000    38958343.318   156869122.192          42.000  
C13  35938178.238   187139526.465          48.000    35938218.800   144708312.170          49.000  
C14  22098169.294   115070939.038          47.000    22098205.443    88980270.673          51.000  
C16  37379551.669   194645168.045          45.000    37379591.749   150512149.081          44.000  
C24  24028177.662   125121084.525          45.000                                                  
C26  24727288.694   128761517.699          43.000                                                  
C27  24711238.648   128677923.176          42.000                                                  
C28  23185086.353   120730808.680          48.000                                                  
C33  22147988.898   115330384.269          50.000                                                  
R01  20008722.817   106958116.047          48.000    20008761.879    83189821.509          44.000  
R02  23142238.169   123491428.622          44.000    23142276.695    96049045.322          40.000  
R08  21074552.392   112853238.597          46.000    21074588.308    87774808.845          43.000  
R09  23478958.089   125376346.874          38.000    23479002.100    97515106.916          36.000  
R10  22046914.736   117522519.898          47.000                                                  
R17  22579386.443   120826892.953          43.000    22579430.990    93976635.877          41.000  
R23  21447735.053   114730843.757          45.000                                                  
R24  20006610.163   106984351.332          52.000    20006647.384    83210199.838          47.000  
> 2023 10 19 02 23 27.0000000  0 31                     
G05  22491244.324   118192200.749          45.000    22491283.350    92097912.803          40.000  
G13  21671789.765   113885985.199          46.000                                                  
G15  19900227.220   104576427.207          49.000    19900262.851    81488267.170          44.000  
G18  20777563.726   109186858.656          46.000    20777599.268    85080811.371          43.000  
G23  22045878.404   115851921.005          46.000    22045916.090    90274359.907          42.000  
G24  21422378.999   112575422.419          45.000    21422419.598    87721318.295          43.000  
G29  24837708.892   130522860.283          40.000    24837751.778   101706390.049          34.000  
C01  37783133.309   196746592.325          44.000    37783171.388   152137124.101          44.000  
C02  38196034.234   198896692.972          41.000    38196067.256   153799724.381          43.000  
C03  37456464.375   195045559.697          45.000    37456499.434   150821725.725          45.000  
C04  38771229.953   201891859.375          40.000    38771270.587   156115790.759          44.000  
C05  39815813.813   207331261.008          34.000    39815852.785   160321762.076          40.000  
C06  37932369.367   197523838.823          43.000    37932404.908   152738092.026          43.000  
C08  35797530.926   186407129.660          47.000    35797563.394   144141941.059          49.000  
C09  38958053.483   202864837.169          38.000    38958093.938   156868118.547          42.000  
C13  35938094.003   187139087.857          48.000    35938134.458   144707973.011          49.000  
C14  22098377.540   115072023.314          47.000    22098413.582    88981109.104          51.000  
C16  37379333.095   194644029.242          45.000    37379372.978   150511268.484          44.000  
C24  24027765.245   125118936.263          46.000                                                  
C26  24727338.745   128761780.193          43.000                                                  
C27  24710973.168   128676540.005          41.000                                                  
C28  23185316.863   120732008.528          47.000                                                  
C33  22147955.019   115330207.505          50.000                                                  
R01  20008594.267   106957429.003          48.000    20008633.544    83189287.135          44.000  
R02  23141738.051   123488760.640          45.000    23141776.594    96046970.248          40.000  
R08  21074961.699   112855429.830          46.000    21074997.884    87776513.137          43.000  
R09  23479292.579   125378131.522          38.000    23479337.055    97516494.980          36.000  
R10  22046721.446   117521490.953          47.000                                                  
R17  22578757.953   120823529.168          42.000    22578801.911    93974019.607          41.000  
R23  21448479.834   114734825.640          45.000                                                  
R24  20006673.401   106984689.010          52.000    20006709.997    83210462.474          47.000  
> 2023 10 19 02 23 28.0000000  0 31                     
G05  22491706.899   118194632.045          45.000    22491746.122    92099807.310          40.000  
G13  21672320.904   113888776.185          46.000                                                  
G15  19900349.337   104577068.803          49.000    19900384.897    81488767.122          44.000  
G18  20777417.165   109186088.566          46.000    20777452.920    85080211.296          43.000  
G23  22045424.316   115849534.650          46.000    22045461.913    90272500.391          42.000  
G24  21421839.373   112572586.674          45.000    21421879.828    87719108.614          43.000  
G29  24838321.728   130526081.887          41.000    24838364.971   101708900.359          34.000  
C01  37783138.491   196746619.946          44.000    37783176.802   152137145.455          44.000  
C02  38196031.714   198896679.340          41.000    38196064.683   153799713.845          43.000  
C03  37456468.932   195045583.834          46.000    37456503.955   150821744.392          45.000  
C04  38771236.707   201891894.390          40.000    38771277.163   156115817.844          44.000  
C05  39815807.166   207331225.847          34.000    39815845.566   160321734.102          40.000  
C06  37932117.771   197522527.889          43.000    37932152.991   152737078.333          43.000  
C08  35797478.462   186406856.635          47.000    35797511.037   144141729.941          49.000  
C09  38957804.299   202863539.428          38.000    38957844.880   156867115.042          42.000  
C13  35938009.661   187138649.412          48.000    35938050.081   144707633.981          49.000  
C14  22098585.589   115073107.878          47.000    22098621.881    88981947.753          51.000  
C16  37379114.342   194642890.695          45.000    37379154.261   150510388.094          44.000  
C24  24027352.489   125116788.458          46.000                                                  
C26  24727389.601   128762043.332          43.000                                                  
C27  24710707.831   128675157.470          42.000                                                  
C28  23185547.195   120733208.993          48.000                                                  
C33  22147921.139   115330031.082          50.000                                                  
R01  20008466.111   106956742.398          48.000    20008505.673    83188753.113          44.000  
R02  23141237.414   123486092.933          45.000    23141276.494    96044895.376          40.000  
R08  21075371.186   112857621.323          45.000    21075407.085    87778217.632          43.000  
R09  23479626.855   125379917.049          39.000    23479670.759    97517883.716          36.000  
R10  22046528.532   117520462.932          47.000                                                  
R17  22578129.661   120820166.099          42.000    22578173.601    93971403.889          41.000  
R23  21449224.186   114738808.069          45.000                                                  
R24  20006736.640   106985027.727          52.000    20006773.414    83210725.916          47.000  
> 2023 10 19 02 23 29.0000000  0 31                     
G05  22492169.689   118197063.526          45.000    22492209.001    92101701.945          40.000  
G13  21672852.060   113891567.380          46.000                                                  
G15  19900471.579   104577710.811          49.000    19900506.781    81489267.376          44.000  
G18  20777270.549   109185319.059          46.000    20777306.412    85079611.688          43.000  
G23  22044970.157   115847148.357          46.000    22045007.771    90270640.958          42.000  
G24  21421299.960   112569751.336          45.000    21421340.219    87716899.260          43.000  
G29  24838934.510   130529303.428          40.000    24838978.379   101711410.631          34.000  
C01  37783144.030   196746647.494          44.000    37783182.306   152137166.755          44.000  
C02  38196029.213   198896665.633          41.000    38196061.788   153799703.246          43.000  
C03  37456473.470   195045607.922          46.000    37456508.905   150821763.016          45.000  
C04  38771243.247   201891929.353          40.000    38771283.667   156115844.884          44.000  
C05  39815799.607   207331189.625          34.000    39815838.758   160321706.111          40.000  
C06  37931866.157   197521217.005          43.000    37931901.341   152736064.665          43.000  
C08  35797426.070   186406583.595          47.000    35797458.788   144141518.812          49.000  
C09  38957554.723   202862241.719          38.000    38957595.678   156866111.567          42.000  
C13  35937925.605   187138210.934          49.000    35937966.114   144707294.923          49.000  
C14  22098793.959   115074192.556          47.000    22098830.144    88982786.487          51.000  
C16  37378895.607   194641752.198          45.000    37378935.384   150509507.736          44.000  
C24  24026939.839   125114640.917          46.000                                                  
C26  24727440.438   128762306.968          43.000                                                  
C27  24710442.280   128673775.371          42.000                                                  
C28  23185777.812   120734409.914          48.000                                                  
C33  22147887.492   115329854.807          50.000                                                  
R01  20008337.704   106956056.053          48.000    20008377.284    83188219.294          44.000  
R02  23140738.547   123483425.312          45.000    23140776.912    96042820.544          40.000  
R08  21075780.530   112859812.888          45.000    21075815.910    87779922.171          43.000  
R09  23479960.773   125381703.202          39.000    23480004.070    97519272.931          36.000  
R10  22046336.101   117519435.678          47.000                                                  
R17  22577501.243   120816803.524          42.000    22577545.254    93968788.564          41.000  
R23  21449968.878   114742790.878          45.000                                                  
R24  20006800.146   106985367.328          52.000    20006836.867    83210990.047          47.000  
> 2023 10 19 02 23 30.0000000  0 31                     
G05  22492632.479   118199495.333          45.000    22492671.755    92103596.867          40.000  
G13  21673383.288   113894358.918          46.000                                                  
G15  19900593.839   104578353.364          49.000    19900629.220    81489768.070          44.000  
G18  20777124.488   109184550.307          46.000    20777160.172    85079012.658          43.000  
G23  22044516.016   115844762.316          46.000    22044553.737    90268781.696          42.000  
G24  21420760.620   112566916.589          45.000    21420800.879    87714690.368          43.000  
G29  24839547.400   130532525.012          40.000    24839591.822   101713920.975          34.000  
C01  37783149.284   196746675.156          44.000    37783187.684   152137188.153          44.000  
C02  38196026.568   198896652.028          41.000    38196059.197   153799692.734          43.000  
C03  37456478.188   195045632.112          46.000    37456513.336   150821781.725          45.000  
C04  38771250.109   201891964.410          40.000    38771290.350   156115871.990          44.000  
C05  39815792.620   207331153.539          34.000    39815831.879   160321678.169          40.000  
C06  37931614.132   197519906.327          43.000    37931649.960   152735051.168          43.000  
C08  35797373.464   186406310.689          47.000    35797406.414   144141307.784          49.000  
C09  38957305.539   202860944.192          38.000    38957346.263   156865108.244          42.000  
C13  35937841.371   187137772.564          49.000    35937881.987   144706955.947          49.000  
C14  22099002.169   115075277.495          47.000    22099038.515    88983625.438          51.000  
C16  37378677.016   194640613.939          45.000    37378716.596   150508627.564          44.000  
C24  24026527.422   125112493.816          46.000                                                  
C26  24727491.043   128762571.229          43.000                                                  
C27  24710177.246   128672393.886          42.000                                                  
C28  23186008.627   120735611.449          48.000                                                  
C33  22147853.576   115329678.826          50.000                                                  
R01  20008209.565   106955370.147          48.000    20008248.573    83187685.807          44.000  
R02  23140238.697   123480757.938          45.000    23140276.275    96040745.943          40.000  
R08  21076190.320   112862004.701          45.000    21076225.307    87781626.909          43.000  
R09  23480295.603   125383490.232          39.000    23480338.095    97520662.864          36.000  
R10  22046143.598   117518409.332          47.000                                                  
R17  22576873.147   120813441.576          42.000    22576916.515    93966173.711          41.000  
R23  21450713.283   114746774.219          45.000                                                  
R24  20006863.599   106985708.016          51.000    20006900.570    83211255.031          47.000  
> 2023 10 19 02 23 31.0000000  0 31                     
G05  22493095.251   118201927.339          45.000    22493134.402    92105491.927          40.000  
G13  21673914.642   113897150.661          46.000                                                  
G15  19900716.242   104578996.346          49.000    19900751.748    81490269.094          44.000  
G18  20776978.087   109183782.163          46.000    20777014.111    85078414.097          44.000  
G23  22044061.839   115842376.374          46.000    22044099.489    90266922.516          42.000  
G24  21420221.332   112564082.293          45.000    21420261.431    87712481.831          43.000  
G29  24840160.522   130535746.531          40.000    24840204.837   101716431.250          34.000  
C01  37783154.519   196746702.788          44.000    37783192.884   152137209.507          44.000  
C02  38196023.959   198896638.384          41.000    38196056.749   153799682.180          43.000  
C03  37456482.834   195045656.261          46.000    37456517.875   150821800.397          45.000  
C04  38771256.881   201891999.413          40.000    38771297.212   156115899.057          44.000  
C05  39815785.598   207331117.361          34.000    39815824.856   160321650.201          40.000  
C06  37931362.662   197518595.692          43.000    37931398.400   152734037.702          43.000  
C08  35797321.125   186406037.807          47.000    35797354.058   144141096.769          49.000  
C09  38957056.320   202859646.672          38.000    38957097.401   156864104.937          42.000  
C13  35937757.243   187137334.224          49.000    35937797.860   144706616.992          49.000  
C14  22099210.576   115076362.576          47.000    22099246.832    88984464.485          51.000  
C16  37378458.460   194639475.765          45.000    37378498.022   150507747.451          44.000  
C24  24026115.220   125110347.008          45.000                                                  
C26  24727541.773   128762835.999          43.000                                                  
C27  24709912.338   128671012.848          42.000                                                  
C28  23186239.441   120736813.446          47.000                                                  
C33  22147819.929   115329503.013          50.000                                                  
R01  20008081.141   106954684.521          48.000    20008120.292    83187152.537          44.000  
R02  23139739.007   123478090.716          46.000    23139776.568    96038671.441          40.000  
R08  21076599.235   112864196.645          46.000    21076634.776    87783331.753          43.000  
R09  23480630.504   125385277.963          39.000    23480672.872    97522053.307          36.000  
R10  22045951.095   117517383.749          47.000                                                  
R17  22576244.765   120810080.085          42.000    22576288.329    93963559.237          41.000  
R23  21451457.939   114750757.957          45.000                                                  
R24  20006927.213   106986049.605          51.000    20006964.273    83211520.708          47.000  
> 2023 10 19 02 23 32.0000000  0 31                     
G05  22493558.202   118204359.472          45.000    22493597.245    92107387.089          40.000  
G13  21674445.870   113899942.566          46.000                                                  
G15  19900838.645   104579639.694          49.000    19900874.097    81490770.398          44.000  
G18  20776832.186   109183014.572          46.000    20776868.192    85077815.986          43.000  
G23  22043607.751   115839990.462          46.000    22043645.669    90265063.373          42.000  
G24  21419682.063   112561248.387          45.000    21419722.018    87710273.591          43.000  
G29  24840773.715   130538967.948          40.000    24840817.959   101718941.386          34.000  
C01  37783159.755   196746730.310          44.000    37783198.102   152137230.784          44.000  
C02  38196021.350   198896624.648          41.000    38196054.140   153799671.540          43.000  
C03  37456487.480   195045680.329          45.000    37456522.592   150821818.996          45.000  
C04  38771263.386   201892034.350          40.000    38771303.788   156115926.059          44.000  
C05  39815778.397   207331081.110          34.000    39815818.048   160321622.173          40.000  
C06  37931110.941   197517285.090          43.000    37931146.786   152733024.261          43.000  
C08  35797268.751   186405764.883          47.000    35797301.577   144140885.729          49.000  
C09  38956807.404   202858349.149          38.000    38956848.217   156863101.605          42.000  
C13  35937672.991   187136895.781          48.000    35937713.661   144706277.961          49.000  
C14  22099418.839   115077447.722          47.000    22099455.149    88985303.588          51.000  
C16  37378239.761   194638337.625          45.000    37378279.430   150506867.363          44.000  
C24  24025702.981   125108200.430          45.000                                                  
C26  24727592.432   128763101.199          43.000                                                  
C27  24709647.108   128669632.236          41.000                                                  
C28  23186470.219   120738015.856          47.000                                                  
C33  22147786.425   115329327.317          50.000                                                  
R01  20007952.734   106953999.128          48.000    20007991.563    83186619.461          44.000  
R02  23139239.747   123475423.604          45.000    23139276.789    96036597.019          40.000  
R08  21077008.203   112866388.647          45.000    21077044.209    87785036.643          43.000  
R09  23480965.459   125387066.287          39.000    23481008.773    97523444.226          36.000  
R10  22045758.145   117516358.891          47.000                                                  
R17  22575616.597   120806719.081          42.000    22575660.287    93960945.104          41.000  
R23  21452202.684   114754742.023          44.000                                                  
R24  20006991.023   106986391.992          51.000    20007028.351    83211787.008          47.000  
> 2023 10 19 02 23 33.0000000  0 31                     
G05  22494021.117   118206791.780          45.000    22494060.196    92109282.389          40.000  
G13  21674977.295   113902734.655          46.000                                                  
G15  19900961.298   104580283.459          49.000    19900996.589    81491272.033          44.000  
G18  20776686.179   109182247.557          46.000    20776722.345    85077218.303          44.000  
G23  22043153.771   115837604.630          46.000    22043191.510    90263204.280          42.000  
G24  21419142.901   112558414.890          45.000    21419182.856    87708065.680          43.000  
G29  24841386.909   130542189.245          40.000    24841431.349   101721451.496          35.000  
C01  37783165.044   196746757.774          44.000    37783203.391   152137252.028          44.000  
C02  38196018.545   198896610.842          41.000    38196051.370   153799660.882          43.000  
C03  37456492.072   195045704.312          45.000    37456527.149   150821837.544          45.000  
C04  38771270.230   201892069.185          40.000    38771310.739   156115953.009          44.000  
C05  39815771.696   207331044.751          34.000    39815810.918   160321594.076          40.000  
C06  37930859.041   197515974.502          43.000    37930895.297   152732010.836          43.000  
C08  35797216.341   186405491.922          47.000    35797249.185   144140674.654          49.000  
C09  38956558.703   202857051.657          38.000    38956599.016   156862098.291          42.000  
C13  35937588.846   187136457.339          48.000    35937629.444   144705938.920          49.000  
C14  22099627.496   115078532.972          47.000    22099663.573    88986142.770          51.000  
C16  37378021.258   194637199.526          45.000    37378060.838   150505987.326          44.000  
C24  24025290.707   125106054.114          45.000                                                  
C26  24727643.376   128763366.882          43.000                                                  
C27  24709382.075   128668252.050          42.000                                                  
C28  23186701.230   120739218.714          47.000                                                  
C33  22147752.831   115329151.755          50.000                                                  
R01  20007824.577   106953313.995          48.000    20007863.567    83186086.575          44.000  
R02  23138740.272   123472756.546          46.000    23138776.903    96034522.647          40.000  
R08  21077417.547   112868580.723          45.000    21077453.481    87786741.577          43.000  
R09  23481301.450   125388855.270          39.000    23481344.354    97524835.673          36.000  
R10  22045566.000   117515334.757          47.000                                                  
R17  22574988.394   120803358.583          42.000    22575032.369    93958331.393          41.000  
R23  21452947.572   114758726.448          45.000                                                  
R24  20007055.298   106986735.203          51.000    20007092.662    83212053.948          47.000  
> 2023 10 19 02 23 34.0000000  0 31                     
G05  22494484.139   118209224.244          45.000    22494522.897    92111177.816          40.000  
G13  21675508.702   113905526.921          46.000                                                  
G15  19901083.897   104580927.597          49.000    19901119.188    81491773.963          44.000  
G18  20776540.439   109181481.115          46.000    20776576.570    85076621.075          44.000  
G23  22042699.701   115835218.856          46.000    22042737.315    90261345.236          42.000  
G24  21418603.686   112555581.803          45.000    21418643.748    87705858.084          43.000  
G29  24841999.906   130545410.448          40.000    24842044.149   101723961.526          35.000  
C01  37783170.441   196746785.151          44.000    37783208.752   152137273.191          44.000  
C02  38196015.990   198896596.975          41.000    38196048.744   153799650.148          43.000  
C03  37456496.736   195045728.240          45.000    37456531.652   150821856.046          45.000  
C04  38771277.181   201892103.985          40.000    38771317.279   156115979.903          44.000  
C05  39815764.870   207331008.398          34.000    39815804.128   160321565.937          40.000  
C06  37930607.767   197514663.960          43.000    37930643.612   152730997.433          43.000  
C08  35797164.057   186405218.917          47.000    35797196.650   144140463.551          49.000  
C09  38956309.341   202855754.152          38.000    38956349.689   156861094.991          42.000  
C13  35937504.665   187136018.847          48.000    35937545.281   144705599.855          49.000  
C14  22099835.849   115079618.315          47.000    22099872.069    88986982.022          51.000  
C16  37377802.702   194636061.489          45.000    37377842.300   150505107.314          44.000  
C24  24024878.380   125103908.068          45.000                                                  
C26  24727694.928   128763633.028          43.000                                                  
C27  24709117.095   128666872.301          41.000                                                  
C28  23186932.384   120740422.008          47.000                                                  
C33  22147719.058   115328976.326          50.000                                                  
R01  20007696.456   106952629.091          48.000    20007735.786    83185553.879          44.000  
R02  23138240.368   123470089.548          45.000    23138277.482    96032448.302          40.000  
R08  21077827.051   112870772.850          46.000    21077863.039    87788446.560          43.000  
R09  23481637.030   125390644.891          39.000    23481679.219    97526227.601          36.000  
R10  22045373.943   117514311.350          47.000                                                  
R17  22574360.494   120799998.568          42.000    22574404.237    93955718.060          41.000  
R23  21453692.318   114762711.223          45.000                                                  
R24  20007119.519   106987079.250          52.000    20007157.044    83212321.540          47.000  
> 2023 10 19 02 23 35.0000000  0 31                     
G05  22494947.036   118211657.081          45.000    22494985.561    92113073.526          40.000  
G13  21676039.912   113908319.571          46.000                                                  
G15  19901206.496   104581572.334          49.000    19901241.698    81492276.351          44.000  
G18  20776394.681   109180715.453          46.000    20776431.063    85076024.455          44.000  
G23  22042245.721   115832833.354          46.000    22042283.281    90259486.401          42.000  
G24  21418064.720   112552749.339          45.000    21418104.890    87703650.964          43.000  
G29  24842612.706   130548631.759          40.000    24842656.610   101726471.596          34.000  
C01  37783175.569   196746812.670          44.000    37783213.827   152137294.463          44.000  
C02  38196013.238   198896583.239          41.000    38196046.224   153799639.524          43.000  
C03  37456501.400   195045752.290          45.000    37456536.048   150821874.643          45.000  
C04  38771283.971   201892138.890          40.000    38771323.944   156116006.900          44.000  
C05  39815757.847   207330972.118          34.000    39815797.373   160321537.903          40.000  
C06  37930355.992   197513353.643          43.000    37930391.730   152729984.217          43.000  
C08  35797111.683   186404946.113          47.000    35797144.311   144140252.604          49.000  
C09  38956060.175   202854456.899          38.000    38956100.470   156860091.848          42.000  
C13  35937420.430   187135580.535          48.000    35937461.082   144705260.922          49.000  
C14  22100044.166   115080703.964          47.000    22100080.547    88987821.508          51.000  
C16  37377584.075   194634923.701          45.000    37377623.958   150504227.509          44.000  
C24  24024466.320   125101762.481          45.000                                                  
C26  24727746.159   128763899.827          43.000                                                  
C27  24708852.294   128665493.168          42.000                                                  
C28  23187163.644   120741625.933          47.000                                                  
C33  22147685.429   115328801.229          50.000                                                  
R01  20007568.586   106951944.644          48.000    20007607.397    83185021.525          44.000  
R02  23137740.893   123467422.854          45.000    23137778.114    96030374.215          40.000  
R08  21078236.073   112872965.225          46.000    21078272.615    87790151.747          43.000  
R09  23481972.360   125392435.428          39.000    23482013.120    97527620.210          36.000  
R10  22045182.119   117513288.876          47.000                                                  
R17  22573732.862   120796639.226          42.000    22573776.838    93953105.245          41.000  
R23  21454436.848   114766696.565          45.000                                                  
R24  20007183.919   106987424.393          52.000    20007221.355    83212589.987          47.000  
> 2023 10 19 02 23 36.0000000  0 31                     
G05  22495409.951   118214090.229          45.000    22495448.744    92114969.478          40.000  
G13  21676571.497   113911112.552          46.000                                                  
G15  19901329.310   104582217.604          49.000    19901364.459    81492779.161          44.000  
G18  20776249.049   109179950.521          46.000    20776285.466    85075428.405          44.000  
G23  22041791.901   115830448.070          46.000    22041829.301    90257627.754          42.000  
G24  21417525.790   112549917.452          45.000    21417566.139    87701444.295          43.000  
G29  24843225.703   130551853.109          40.000    24843269.482   101728981.766          34.000  
C01  37783180.912   196746840.256          44.000    37783219.098   152137315.813          44.000  
C02  38196010.558   198896569.578          41.000    38196043.687   153799628.963          43.000  
C03  37456505.956   195045776.431          45.000    37456540.819   150821893.304          45.000  
C04  38771290.422   201892173.885          40.000    38771330.788   156116033.952          44.000  
C05  39815750.896   207330935.936          34.000    39815790.565   160321509.918          40.000  
C06  37930104.325   197512043.503          43.000    37930139.938   152728971.127          43.000  
C08  35797059.291   186404673.448          47.000    35797091.759   144140041.758          49.000  
C09  38955810.867   202853159.751          38.000    38955851.644   156859088.831          42.000  
C13  35937336.446   187135142.296          48.000    35937376.883   144704922.055          49.000  
C14  22100252.751   115081789.859          47.000    22100289.114    88988661.191          51.000  
C16  37377365.554   194633786.122          46.000    37377405.653   150503347.854          44.000  
C24  24024054.135   125099617.299          45.000                                                  
C26  24727797.282   128764167.264          43.000                                                  
C27  24708587.654   128664114.640          42.000                                                  
C28  23187394.977   120742830.457          48.000                                                  
C33  22147651.889   115328626.419          50.000                                                  
R01  20007440.751   106951260.594          48.000    20007479.455    83184489.486          44.000  
R02  23137241.919   123464756.404          45.000    23137278.407    96028300.307          41.000  
R08  21078645.702   112875157.833          45.000    21078681.440    87791857.100          43.000  
R09  23482307.780   125394226.769          39.000    23482348.325    97529013.473          36.000  
R10  22044990.099   117512267.281          47.000                                                  
R17  22573104.838   120793280.481          42.000    22573149.564    93950492.897          41.000  
R23  21455182.415   114770682.415          44.000                                                  
R24  20007248.712   106987770.581          52.000    20007286.237    83212859.237          47.000  
> 2023 10 19 02 23 37.0000000  0 31                     
G05  22495873.241   118216523.729          45.000    22495911.713    92116865.714          40.000  
G13  21677103.137   113913905.898          46.000                                                  
G15  19901452.285   104582863.450          49.000    19901487.380    81493282.427          44.000  
G18  20776103.631   109179186.356          46.000    20776139.869    85074832.953          44.000  
G23  22041338.028   115828063.048          46.000    22041375.553    90255769.288          42.000  
G24  21416986.950   112547086.147          45.000    21417027.262    87699238.087          43.000  
G29  24843838.574   130555074.555          40.000    24843882.318   101731491.935          35.000  
C01  37783186.183   196746867.987          44.000    37783224.369   152137337.245          44.000  
C02  38196007.770   198896556.063          41.000    38196041.060   153799618.487          43.000  
C03  37456510.531   195045800.682          45.000    37456545.357   150821912.065          45.000  
C04  38771297.176   201892209.003          40.000    38771337.578   156116061.109          44.000  
C05  39815743.981   207330899.877          34.000    39815783.453   160321482.031          40.000  
C06  37929852.979   197510733.590          43.000    37929888.503   152727958.232          43.000  
C08  35797006.881   186404400.946          47.000    35797039.527   144139831.047          49.000  
C09  38955561.880   202851862.826          38.000    38955602.371   156858085.971          42.000  
C13  35937252.175   187134704.202          48.000    35937292.685   144704583.286          49.000  
C14  22100461.229   115082876.046          47.000    22100497.664    88989501.090          51.000  
C16  37377147.320   194632648.777          45.000    37377187.275   150502468.391          44.000  
C24  24023642.058   125097472.570          45.000                                                  
C26  24727848.763   128764435.340          43.000                                                  
C27  24708322.924   128662736.726          42.000                                                  
C28  23187626.363   120744035.604          47.000                                                  
C33  22147618.402   115328451.935          50.000                                                  
R01  20007312.790   106950576.986          48.000    20007351.959    83183957.793          44.000  
R02  23136742.426   123462090.269          45.000    23136778.485    96026226.661          41.000  
R08  21079055.332   112877350.710          45.000    21079090.820    87793562.667          43.000  
R09  23482643.592   125396018.922          39.000    23482685.013    97530407.403          36.000  
R10  22044798.650   117511246.615          47.000                                                  
R17  22572477.242   120789922.388          42.000    22572522.576    93947881.035          41.000  
R23  21455928.054   114774668.835          44.000                                                  
R24  20007313.809   106988117.793          52.000    20007351.280    83213129.291          47.000  
> 2023 10 19 02 23 38.0000000  0 31                     
G05  22496336.334   118218956.994          45.000    22496374.806    92118761.749          40.000  
G13  21677634.669   113916699.026          46.000                                                  
G15  19901575.152   104583509.287          49.000    19901610.015    81493785.665          44.000  
G18  20775958.212   109178422.369          46.000    20775994.451    85074237.632          44.000  
G23  22040884.119   115825677.681          46.000    22040921.680    90253910.561          42.000  
G24  21416448.217   112544254.862          45.000    21416488.440    87697031.903          43.000  
G29  24844451.410   130558295.499          40.000    24844495.100   101734001.781          34.000  
C01  37783191.329   196746895.236          44.000    37783229.605   152137358.311          44.000  
C02  38196005.215   198896542.062          41.000    38196038.487   153799607.668          43.000  
C03  37456515.123   195045824.473          46.000    37456550.003   150821930.464          45.000  
C04  38771303.734   201892243.640          40.000    38771344.207   156116087.890          44.000  
C05  39815736.851   207330862.346          34.000    39815776.359   160321453.785          40.000  
C06  37929601.348   197509423.321          43.000    37929636.621   152726945.046          43.000  
C08  35796954.471   186404127.994          47.000    35796987.064   144139619.978          49.000  
C09  38955312.428   202850565.524          38.000    38955353.080   156857082.790          42.000  
C13  35937167.887   187134265.699          49.000    35937208.468   144704244.210          49.000  
C14  22100669.814   115083961.930          47.000    22100706.320    88990340.767          51.000  
C16  37376928.585   194631511.093          45.000    37376968.469   150501588.653          44.000  
C24  24023230.105   125095327.710          45.000                                                  
C26  24727899.886   128764703.492          43.000                                                  
C27  24708058.141   128661358.846          42.000                                                  
C28  23187857.945   120745240.785          48.000                                                  
C33  22147584.951   115328277.187          50.000                                                  
R01  20007184.652   106949893.211          48.000    20007223.445    83183425.970          44.000  
R02  23136242.451   123459423.870          45.000    23136279.064    96024152.788          41.000  
R08  21079465.051   112879543.256          45.000    21079500.485    87795267.978          43.000  
R09  23482979.441   125397811.364          39.000    23483021.272    97531801.499          36.000  
R10  22044607.255   117510226.264          47.000                                                  
R17  22571850.164   120786564.390          42.000    22571894.783    93945269.269          41.000  
R23  21456673.282   114778655.205          44.000                                                  
R24  20007378.924   106988465.406          52.000    20007416.324    83213399.650          47.000  
> 2023 10 19 02 23 39.0000000  0 31                     
G05  22496799.464   118221390.796          45.000    22496838.257    92120658.223          40.000  
G13  21678166.361   113919492.721          46.000                                                  
G15  19901698.163   104584155.887          49.000    19901733.150    81494289.511          44.000  
G18  20775812.973   109177659.336          46.000    20775849.301    85073643.063          44.000  
G23  22040430.192   115823292.770          47.000    22040467.717    90252052.189          42.000  
G24  21415909.448   112541424.369          45.000    21415949.725    87694826.315          43.000  
G29  24845064.086   130561516.746          40.000    24845108.347   101736511.820          35.000  
C01  37783196.744   196746922.802          44.000    37783234.787   152137379.627          44.000  
C02  38196002.534   198896528.378          41.000    38196035.789   153799597.086          43.000  
C03  37456519.733   195045848.578          45.000    37456554.578   150821949.097          45.000  
C04  38771310.560   201892278.600          40.000    38771350.926   156116114.933          44.000  
C05  39815730.132   207330827.148          34.000    39815769.391   160321425.767          40.000  
C06  37929350.002   197508113.452          43.000    37929385.365   152725932.176          43.000  
C08  35796902.186   186403855.428          47.000    35796934.708   144139409.213          49.000  
C09  38955063.888   202849268.579          38.000    38955104.361   156856079.915          42.000  
C13  35937083.760   187133827.521          48.000    35937124.448   144703905.383          49.000  
C14  22100878.417   115085048.296          47.000    22100915.012    88991180.812          51.000  
C16  37376710.315   194630373.844          45.000    37376750.127   150500709.270          44.000  
C24  24022818.153   125093183.496          45.000                                                  
C26  24727951.420   128764972.501          43.000                                                  
C27  24707793.715   128659981.775          42.000                                                  
C28  23188089.313   120746446.795          48.000                                                  
C33  22147551.536   115328102.945          50.000                                                  
R01  20007056.656   106949210.078          48.000    20007095.557    83182894.642          44.000  
R02  23135743.262   123456757.956          45.000    23135778.946    96022079.309          41.000  
R08  21079874.912   112881736.271          45.000    21079909.382    87796973.638          43.000  
R09  23483315.450   125399604.799          39.000    23483356.013    97533196.392          35.000  
R10  22044416.289   117509207.051          47.000                                                  
R17  22571223.158   120783207.289          42.000    22571267.455    93942658.192          41.000  
R23  21457418.563   114782642.327          44.000                                                  
R24  20007443.967   106988814.263          51.000    20007481.546    83213670.986          47.000  
> 2023 10 19 02 23 40.0000000  0 31                     
G05  22497262.647   118223825.068          45.000    22497301.565    92122555.035          40.000  
G13  21678698.036   113922286.879          46.000                                                  
G15  19901821.352   104584803.161          49.000    19901856.268    81494793.874          44.000  
G18  20775667.859   109176897.166          46.000    20775704.526    85073049.176          44.000  
G23  22039976.355   115820908.214          46.000    22040013.862    90250194.095          42.000  
G24  21415370.983   112538594.587          45.000    21415410.884    87692621.285          43.000  
G29  24845677.011   130564738.160          40.000    24845721.612   101739022.015          35.000  
C01  37783202.265   196746950.565          44.000    37783240.112   152137401.102          44.000  
C02  38196000.086   198896514.900          41.000    38196033.215   153799586.676          43.000  
C03  37456524.361   195045872.905          45.000    37456559.313   150821967.901          45.000  
C04  38771317.154   201892313.781          40.000    38771357.645   156116142.110          44.000  
C05  39815723.020   207330791.126          34.000    39815762.279   160321397.931          40.000  
C06  37929098.299   197506803.919          43.000    37929133.894   152724919.553          43.000  
C08  35796849.687   186403583.092          47.000    35796882.369   144139198.632          49.000  
C09  38954814.794   202847971.952          38.000    38954855.464   156855077.293          42.000  
C13  35936999.722   187133389.590          48.000    35937040.374   144703566.738          49.000  
C14  22101087.216   115086135.041          47.000    22101123.633    88992021.152          51.000  
C16  37376492.081   194629236.925          45.000    37376531.964   150499830.126          44.000  
C24  24022406.861   125091039.820          45.000                                                  
C26  24728003.330   128765242.244          43.000                                                  
C27  24707528.932   128658605.433          41.000                                                  
C28  23188321.218   120747653.520          48.000                                                  
C33  22147518.157   115327929.127          50.000                                                  
R01  20006929.035   106948527.473          48.000    20006968.079    83182363.725          44.000  
R02  23135243.644   123454092.400          45.000    23135279.132    96020006.094          41.000  
R08  21080285.007   112883929.648          45.000    21080319.172    87798679.609          43.000  
R09  23483651.477   125401399.188          39.000    23483691.986    97534592.031          35.000  
R10  22044224.626   117508188.870          47.000                                                  
R17  22570595.437   120779850.968          42.000    22570639.735    93940047.729          41.000  
R23  21458164.255   114786630.080          44.000                                                  
R24  20007509.296   106989164.312          51.000    20007546.946    83213943.241          47.000  
> 2023 10 19 02 23 41.0000000  0 31                     
G05  22497725.901   118226259.422          45.000    22497764.766    92124451.934          40.000  
G13  21679229.818   113925081.146          46.000                                                  
G15  19901944.648   104585450.756          49.000    19901979.403    81495298.489          44.000  
G18  20775522.995   109176135.518          46.000    20775559.340    85072455.673          44.000  
G23  22039522.625   115818523.663          46.000    22039560.221    90248335.995          42.000  
G24  21414832.625   112535765.139          45.000    21414872.401    87690416.541          43.000  
G29  24846289.758   130567959.416          39.000    24846334.752   101741532.066          35.000  
C01  37783207.412   196746978.209          44.000    37783245.705   152137422.471          44.000  
C02  38195997.299   198896501.301          41.000    38196030.446   153799576.155          43.000  
C03  37456528.989   195045897.083          45.000    37456564.030   150821986.599          45.000  
C04  38771323.801   201892348.794          40.000    38771364.292   156116169.200          44.000  
C05  39815716.355   207330754.000          34.000    39815755.042   160321369.973          40.000  
C06  37928846.453   197505494.349          43.000    37928882.566   152723906.910          43.000  
C08  35796797.456   186403310.695          47.000    35796830.120   144138987.986          49.000  
C09  38954565.449   202846675.260          38.000    38954606.441   156854074.616          42.000  
C13  35936915.648   187132951.543          48.000    35936956.229   144703228.014          49.000  
C14  22101295.873   115087221.821          47.000    22101332.290    88992861.517          51.000  
C16  37376273.632   194628100.001          45.000    37376313.534   150498950.996          44.000  
C24  24021995.409   125088896.345          45.000                                                  
C26  24728055.400   128765512.402          43.000                                                  
C27  24707264.399   128657229.453          41.000                                                  
C28  23188553.032   120748860.617          47.000                                                  
C33  22147484.885   115327755.382          50.000                                                  
R01  20006801.397   106947845.056          48.000    20006840.548    83181832.956          44.000  
R02  23134744.008   123451426.832          45.000    23134779.138    96017932.895          41.000  
R08  21080694.922   112886123.016          46.000    21080729.516    87800385.548          43.000  
R09  23483987.379   125403194.227          39.000    23484027.709    97535988.140          35.000  
R10  22044033.945   117507171.368          47.000                                                  
R17  22569968.467   120776495.035          42.000    22570012.853    93937437.569          41.000  
R23  21458909.965   114790618.107          45.000                                                  
R24  20007575.054   106989515.162          51.000    20007612.722    83214216.126          47.000  
> 2023 10 19 02 23 42.0000000  0 31                     
G05  22498189.048   118228693.981          45.000    22498228.021    92126348.978          40.000  
G13  21679761.636   113927875.636          46.000                                                  
G15  19902067.998   104586098.767          49.000    19902102.735    81495803.440          44.000  
G18  20775378.166   109175374.475          46.000    20775414.512    85071862.659          44.000  
G23  22039068.841   115816139.216          46.000    22039106.241    90246477.993          42.000  
G24  21414294.178   112532936.154          45.000    21414334.097    87688212.133          43.000  
G29  24846902.701   130571180.607          39.000    24846947.892   101744042.078          35.000  
C01  37783212.808   196747005.816          44.000    37783250.940   152137443.816          44.000  
C02  38195994.779   198896487.666          41.000    38196027.855   153799565.603          43.000  
C03  37456533.832   195045921.238          45.000    37456568.659   150822005.275          45.000  
C04  38771330.359   201892383.797          40.000    38771370.993   156116196.258          44.000  
C05  39815709.243   207330717.789          34.000    39815748.216   160321342.009          40.000  
C06  37928595.161   197504184.846          44.000    37928631.328   152722894.324          43.000  
C08  35796745.046   186403038.309          47.000    35796777.710   144138777.365          49.000  
C09  38954316.391   202845378.621          38.000    38954357.758   156853071.963          42.000  
C13  35936831.378   187132513.534          48.000    35936872.083   144702889.318          49.000  
C14  22101504.833   115088308.737          47.000    22101540.982    88993701.985          52.000  
C16  37376055.273   194626963.173          45.000    37376095.103   150498071.915          44.000  
C24  24021583.796   125086753.169          45.000                                                  
C26  24728107.453   128765783.060          43.000                                                  
C27  24707000.259   128655853.949          42.000                                                  
C28  23188785.080   120750068.192          47.000                                                  
C33  22147451.577   115327581.808          50.000                                                  
R01  20006673.633   106947162.931          49.000    20006712.874    83181302.419          44.000  
R02  23134244.229   123448761.380          45.000    23134279.145    96015859.752          40.000  
R08  21081104.855   112888316.470          46.000    21081139.342    87802091.568          43.000  
R09  23484323.709   125404989.899          39.000    23484363.414    97537384.796          35.000  
R10  22043843.408   117506154.640          47.000                                                  
R17  22569341.336   120773139.589          42.000    22569385.561    93934827.768          41.000  
R23  21459655.854   114794606.532          45.000                                                  
R24  20007640.866   106989866.880          52.000    20007678.319    83214489.687          47.000  
> 2023 10 19 02 23 43.0000000  0 30                     
G05  22498652.392   118231128.367          45.000    22498691.347    92128245.902          40.000  
G13  21680293.258   113930669.967          46.000                                                  
G15  19902191.330   104586746.834          49.000    19902225.996    81496308.418          44.000  
G18  20775233.356   109174613.675          46.000    20775269.916    85071269.821          44.000  
G23  22038615.093   115813754.486          46.000    22038652.278    90244619.771          42.000  
G24  21413755.730   112530107.237          45.000    21413795.989    87686007.782          43.000  
C01  37783217.936   196747033.030          44.000    37783256.140   152137464.866          44.000  
C02  38195992.313   198896473.619          41.000    38196025.121   153799554.734          43.000  
C03  37456538.388   195045945.006          45.000    37456573.144   150822023.652          45.000  
C04  38771337.078   201892418.400          40.000    38771377.676   156116223.015          44.000  
C05  39815701.989   207330682.268          34.000    39815741.068   160321313.721          40.000  
C06  37928343.529   197502875.069          44.000    37928379.857   152721881.522          43.000  
C08  35796692.779   186402765.584          47.000    35796725.390   144138566.467          49.000  
C09  38954067.136   202844081.653          38.000    38954108.485   156852069.070          42.000  
C13  35936747.304   187132075.149          48.000    35936787.867   144702550.331          49.000  
C14  22101713.436   115089395.415          47.000    22101749.674    88994542.273          52.000  
C16  37375836.931   194625826.060          46.000    37375876.922   150497192.622          44.000  
C24  24021172.237   125084609.914          45.000                                                  
C26  24728159.523   128766053.861          43.000                                                  
C27  24706736.548   128654478.532          42.000                                                  
C28  23189017.037   120751275.868          48.000                                                  
C33  22147418.376   115327408.031          50.000                                                  
R01  20006545.924   106946480.714          49.000    20006585.628    83180771.797          44.000  
R02  23133744.629   123446095.669          45.000    23133779.545    96013786.440          40.000  
R08  21081514.270   112890509.620          46.000    21081548.775    87803797.351          43.000  
R09  23484660.398   125406785.889          39.000    23484699.549    97538781.694          35.000  
R10  22043652.656   117505138.325          47.000                                                  
R17  22568714.169   120769784.287          42.000    22568758.680    93932218.094          41.000  
R23  21460401.600   114798594.953          45.000                                                  
R24  20007707.088   106990219.079          51.000    20007744.220    83214763.615          47.000  
> 2023 10 19 02 23 44.0000000  0 30                     
G05  22499115.861   118233563.542          45.000    22499154.672    92130143.437          40.000  
G13  21680825.111   113933465.106          46.000                                                  
G15  19902314.858   104587395.920          49.000    19902349.685    81496814.203          44.000  
G18  20775088.706   109173854.090          46.000    20775125.427    85070677.937          44.000  
G23  22038161.505   115811370.473          47.000    22038198.870    90242762.087          42.000  
G24  21413217.623   112527279.365          45.000    21413258.042    87683804.259          43.000  
C01  37783223.422   196747060.805          44.000    37783261.430   152137486.321          44.000  
C02  38195989.865   198896460.141          41.000    38196022.440   153799544.310          43.000  
C03  37456543.106   195045969.315          46.000    37456577.682   150822042.443          45.000  
C04  38771344.047   201892453.566          40.000    38771384.448   156116250.212          44.000  
C05  39815695.198   207330645.235          34.000    39815734.332   160321285.867          40.000  
C06  37928092.309   197501565.924          44.000    37928128.386   152720869.207          43.000  
C08  35796640.494   186402493.442          47.000    35796673.087   144138356.028          49.000  
C09  38953818.364   202842785.330          38.000    38953859.498   156851066.666          42.000  
C13  35936663.284   187131637.341          48.000    35936703.632   144702211.788          49.000  
C14  22101922.432   115090482.820          47.000    22101958.706    88995383.119          52.000  
C16  37375618.750   194624689.624          46.000    37375658.723   150496313.869          44.000  
C24  24020760.928   125082467.567          45.000                                                  
C26  24728211.558   128766325.738          43.000                                                  
C27  24706472.497   128653104.197          41.000                                                  
C28  23189249.210   120752484.617          48.000                                                  
C33  22147385.158   115327235.018          50.000                                                  
R01  20006418.517   106945799.396          49.000    20006458.115    83180241.885          44.000  
R02  23133244.154   123443430.742          45.000    23133279.892    96011713.723          40.000  
R08  21081923.292   112892703.478          45.000    21081958.190    87805503.685          43.000  
R09  23484997.854   125408583.150          39.000    23485035.719    97540179.543          35.000  
R10  22043462.351   117504123.374          47.000                                                  
R17  22568087.538   120766430.135          42.000    22568131.781    93929609.313          41.000  
R23  21461146.988   114802584.364          45.000                                                  
R24  20007772.954   106990572.780          51.000    20007810.121    83215038.714          47.000  
